$GPGGA,193141.14,3201.732021,N,03447.896814,E,1,12,3.2,23.7,M,19.1,M,,*50
$PGLOR,5,STA,193141.14,0.026,0.005,232,1,32,0,P,F,L,0,C,3,S,0002,8,2,R,33F4,TPEF,20,6,LC,,*52
$PGLOR,1,UNC,193141.14,12000.000,32.0,10.0,0.15,0.47,23.1,22.2,-57.1*3F
$PGLOR,2,SAT,3,1,G18,033,1F,G21,029,1F,G26,030,1F,R02,036,3F,G10,038,1F,G16,023,17*5B
$PGLOR,2,SAT,3,2,G29,035,1F,G20,023,1F,G15,028,13,G27,019,13,R03,020,33,G25,017,11*2B
$PGLOR,2,SAT,3,3,R15,018,3*42
$PGLOR,2,SIO,TxERR,0,RxERR,0,TxCNT,541,RxCNT,4077,MLFRMPKT,0,DTMS,1009,DTIN,20,25,DTOUT,630,984,HATMD,59*20
$PGLOR,3,PWR,mA,35.5,RFTm,1009,OscTm,1000,MeasTm,1000,UTC,193141.14*37
$GPGSV,3,1,12,18,75,146,33,21,62,010,29,26,56,266,34,10,42,200,38*71
$GPGSV,3,2,12,16,40,306,35,29,33,104,35,20,32,047,24,15,19,085,28*7E
$GPGSV,3,3,12,27,14,310,23,25,04,162,17,13,04,053,,31,02,222,*7B
$GLGSV,3,1,10,66,55,141,39,67,14,184,20,79,25,262,28,81,44,342,*6A
$GLGSV,3,2,10,65,40,048,,88,39,062,,80,13,319,,78,12,219,*67
$GLGSV,3,3,10,82,09,303,,87,04,097,*62
$GPGSA,A,3,10,15,16,18,20,21,25,26,27,29,,,2.8,1.1,2.5*38
$GNGSA,A,3,10,15,16,18,20,21,25,26,27,29,,,2.8,1.1,2.5*26
$GNGSA,A,3,66,67,,,,,,,,,,,2.8,1.1,2.5*20
$QZGSA,A,3,,,,,,,,,,,,,2.8,1.1,2.5*23
$IMGSA,A,3,,,,,,,,,,,,,2.8,1.1,2.5*2C
$PGLOR,1,FIX,1.0,1.0*20
$GPRMC,193141.14,A,3201.732021,N,03447.896814,E,016.3,189.9,290416,,,A*5A
$PGLOR,SPL,20160429223139.8,POS,20160429193141.135,32.028867,34.798280,32,32,0,43,10,1.100000
$GPGGA,193142.13,3201.728534,N,03447.894038,E,1,10,3.2,25.3,M,19.1,M,,*5A
$PGLOR,5,STA,193142.13,0.027,0.004,230,1,32,1,P,F,L,0,C,3,S,0002,15,2,R,33F4,TPEF,20,7,LC,,*68
$PGLOR,1,UNC,193142.13,12000.000,32.0,10.0,0.15,0.38,23.9,21.3,81.5*1B
$PGLOR,2,SAT,3,1,G18,031,1F,G21,027,1F,G26,035,1F,R02,032,3F,G10,035,1F,G16,021,10*5E
$PGLOR,2,SAT,3,2,G29,031,1F,G20,026,1F,G15,024,1F,G27,016,13,R03,019,33,G25,017,10*57
$PGLOR,2,SAT,3,3,R15,023,3*4A
$PGLOR,2,SIO,TxERR,0,RxERR,0,TxCNT,344,RxCNT,3682,MLFRMPKT,0,DTMS,997,DTIN,14,20,DTOUT,889,977,HATMD,56*1A
$PGLOR,3,PWR,mA,35.4,RFTm,997,OscTm,1000,MeasTm,1000,UTC,193142.13*0D
$GPGSV,3,1,12,18,75,146,33,21,62,010,28,26,56,266,35,10,42,200,38*71
$GPGSV,3,2,12,16,40,306,33,29,33,104,35,20,32,047,26,15,19,085,27*75
$GPGSV,3,3,12,27,14,310,23,25,04,162,17,13,04,053,,31,02,222,*7B
$GLGSV,3,1,10,66,55,141,38,67,14,184,20,79,25,262,28,81,44,342,*6B
$GLGSV,3,2,10,65,40,048,,88,39,062,,80,13,319,,78,12,219,*67
$GLGSV,3,3,10,82,09,303,,87,04,097,*62
$GPGSA,A,3,10,15,18,20,21,26,27,29,,,,,2.8,1.4,2.4*3C
$GNGSA,A,3,10,15,18,20,21,26,27,29,,,,,2.8,1.4,2.4*22
$GNGSA,A,3,66,67,,,,,,,,,,,2.8,1.4,2.4*24
$QZGSA,A,3,,,,,,,,,,,,,2.8,1.4,2.4*27
$IMGSA,A,3,,,,,,,,,,,,,2.8,1.4,2.4*28
$PGLOR,1,FIX,1.0,1.0*20
$GPRMC,193142.13,A,3201.728534,N,03447.894038,E,016.8,197.4,290416,,,A*59
$PGLOR,SPL,20160429223140.7,POS,20160429193142.134,32.028809,34.798234,32,32,0,44,10,1.100000
$GPGGA,193143.13,3201.725355,N,03447.889814,E,1,12,3.2,17.8,M,19.1,M,,*55
$PGLOR,5,STA,193143.13,0.027,0.004,231,1,32,1,P,F,L,0,C,3,S,0002,24,2,R,33F4,TPEF,20,8,LC,,*65
$PGLOR,1,UNC,193143.13,12000.000,32.0,7.2,0.17,1.33,24.3,20.8,-83.0*0B
$PGLOR,2,SAT,3,1,G18,032,1F,G21,027,1F,G26,034,1F,R02,036,3F,G10,034,1F,G16,026,1F*28
$PGLOR,2,SAT,3,2,G29,029,1F,G20,024,1F,G15,026,13,G27,012,13,R03,016,31,G25,017,13*21
$PGLOR,2,SAT,3,3,R15,022,3*4B
$PGLOR,2,SIO,TxERR,0,RxERR,0,TxCNT,282,RxCNT,3798,MLFRMPKT,0,DTMS,1001,DTIN,12,19,DTOUT,867,983,HATMD,57*2A
$PGLOR,3,PWR,mA,36.0,RFTm,1002,OscTm,1000,MeasTm,1000,UTC,193143.13*3F
$GPGSV,3,1,12,18,75,146,33,21,62,010,28,26,56,266,35,10,42,200,38*71
$GPGSV,3,2,12,16,40,306,33,29,33,104,34,20,32,047,26,15,19,085,27*74
$GPGSV,3,3,12,27,14,310,22,25,04,162,17,13,04,053,,31,02,222,*7A
$GLGSV,3,1,10,66,55,141,38,67,14,184,19,79,25,262,27,81,44,342,*6E
$GLGSV,3,2,10,65,40,048,,88,39,062,,80,13,319,,78,12,219,*67
$GLGSV,3,3,10,82,09,303,,87,04,097,*62
$GPGSA,A,3,10,15,16,18,20,21,25,26,27,29,,,2.8,1.1,2.5*38
$GNGSA,A,3,10,15,16,18,20,21,25,26,27,29,,,2.8,1.1,2.5*26
$GNGSA,A,3,66,67,,,,,,,,,,,2.8,1.1,2.5*20
$QZGSA,A,3,,,,,,,,,,,,,2.8,1.1,2.5*23
$IMGSA,A,3,,,,,,,,,,,,,2.8,1.1,2.5*2C
$PGLOR,1,FIX,1.0,1.0*20
$GPRMC,193143.13,A,3201.725355,N,03447.889814,E,019.7,225.8,290416,,,A*58
$PGLOR,SPL,20160429223141.7,POS,20160429193143.134,32.028756,34.798164,32,32,0,37,7,1.100000
$GPGGA,193144.13,3201.722976,N,03447.885989,E,1,13,1.6,19.8,M,19.1,M,,*5E
$PGLOR,5,STA,193144.13,0.027,0.003,231,1,16,3,P,F,L,0,C,3,S,0002,31,2,R,33F4,TPEF,20,9,LC,,*64
$PGLOR,1,UNC,193144.13,12000.000,16.0,6.2,0.15,1.55,12.5,10.0,77.6*21
$PGLOR,2,SAT,3,1,G18,029,1F,G21,032,1F,G26,032,1F,R02,036,3F,G10,033,1F,G16,023,1F*22
$PGLOR,2,SAT,3,2,G29,028,1F,G20,027,1F,G15,030,1F,G27,011,11,R03,017,33,G25,018,13*5C
$PGLOR,2,SAT,3,3,G31,015,11,R15,017,3*10
$PGLOR,2,SIO,TxERR,0,RxERR,0,TxCNT,299,RxCNT,4348,MLFRMPKT,0,DTMS,1008,DTIN,12,19,DTOUT,359,987,HATMD,65*24
$PGLOR,3,PWR,mA,35.3,RFTm,1007,OscTm,1000,MeasTm,1000,UTC,193144.13*3D
$GPGSV,3,1,12,18,75,146,32,21,62,010,32,26,56,266,35,10,42,200,37*74
$GPGSV,3,2,12,16,40,306,32,29,33,104,34,20,32,047,27,15,19,085,30*72
$GPGSV,3,3,12,27,14,310,21,25,04,162,18,31,02,222,15,13,04,053,*72
$GLGSV,3,1,10,66,55,141,38,67,14,184,19,79,25,262,26,81,44,342,*6F
$GLGSV,3,2,10,65,40,048,,88,39,062,,80,13,319,,78,12,219,*67
$GLGSV,3,3,10,82,09,303,,87,04,097,*62
$GPGSA,A,3,10,15,16,18,20,21,25,26,27,29,31,,2.4,1.1,2.1*32
$GNGSA,A,3,10,15,16,18,20,21,25,26,27,29,31,,2.4,1.1,2.1*2C
$GNGSA,A,3,66,67,,,,,,,,,,,2.4,1.1,2.1*28
$QZGSA,A,3,,,,,,,,,,,,,2.4,1.1,2.1*2B
$IMGSA,A,3,,,,,,,,,,,,,2.4,1.1,2.1*24
$PGLOR,1,FIX,1.0,1.0*20
$GPRMC,193144.13,A,3201.722976,N,03447.885989,E,020.0,226.2,290416,,,A*5E
$PGLOR,SPL,20160429223142.8,POS,20160429193144.134,32.028716,34.798100,16,16,0,39,6,1.100000
$GPGGA,193145.13,3201.719892,N,03447.881145,E,1,12,3.2,19.9,M,19.1,M,,*56
$PGLOR,5,STA,193145.13,0.027,0.003,230,1,32,3,P,F,L,0,C,3,S,0002,41,2,R,33F4,TPEF,20,10,LC,,*5D
$PGLOR,1,UNC,193145.13,12000.000,32.0,6.0,0.16,0.78,24.8,20.2,38.5*28
$PGLOR,2,SAT,3,1,G18,025,1F,G21,033,1F,G26,032,1F,R02,033,3F,G10,036,1F,G16,021,1F*2D
$PGLOR,2,SAT,3,2,G29,027,1F,G20,028,1F,G15,026,13,G27,012,13,R03,023,33,R14,020,30*35
$PGLOR,2,SAT,3,3,G25,023,13,G31,020,10,R15,021,3*4D
$PGLOR,2,SIO,TxERR,0,RxERR,0,TxCNT,408,RxCNT,4636,MLFRMPKT,0,DTMS,1011,DTIN,13,27,DTOUT,494,984,HATMD,76*25
$PGLOR,3,PWR,mA,35.5,RFTm,1011,OscTm,1000,MeasTm,1000,UTC,193145.13*3D
$GPGSV,3,1,12,18,75,146,32,21,62,010,33,26,56,266,35,10,42,200,37*75
$GPGSV,3,2,12,16,40,306,31,29,33,104,33,20,32,047,28,15,19,085,30*79
$GPGSV,3,3,12,27,14,310,20,25,04,162,23,31,02,222,20,13,04,053,*7D
$GLGSV,3,1,10,66,55,141,37,67,14,184,23,78,12,219,20,79,25,262,26*61
$GLGSV,3,2,10,81,44,343,,65,40,048,,88,39,062,,80,13,319,*6C
$GLGSV,3,3,10,82,09,303,,87,04,097,*62
$GPGSA,A,3,10,15,16,18,20,21,25,26,27,29,,,2.8,1.1,2.5*38
$GNGSA,A,3,10,15,16,18,20,21,25,26,27,29,,,2.8,1.1,2.5*26
$GNGSA,A,3,66,67,,,,,,,,,,,2.8,1.1,2.5*20
$QZGSA,A,3,,,,,,,,,,,,,2.8,1.1,2.5*23
$IMGSA,A,3,,,,,,,,,,,,,2.8,1.1,2.5*2C
$PGLOR,1,FIX,1.0,1.0*20
$GPRMC,193145.13,A,3201.719892,N,03447.881145,E,020.9,225.3,290416,,,A*5B
$PGLOR,SPL,20160429223143.8,POS,20160429193145.134,32.028665,34.798019,32,32,0,39,6,1.100000
$GPGGA,193146.13,3201.714203,N,03447.875279,E,1,14,3.2,16.3,M,19.1,M,,*5E
$PGLOR,5,STA,193146.13,0.027,0.003,231,1,32,3,P,F,L,0,C,3,S,0002,55,2,R,33F4,TPEF,20,11,LC,,*5B
$PGLOR,1,UNC,193146.13,12000.000,32.0,6.0,0.16,1.61,24.3,20.9,19.9*2D
$PGLOR,2,SAT,3,1,G18,027,1F,G21,029,1F,G26,031,1F,R02,035,3F,G10,041,1F,R01,022,33*46
$PGLOR,2,SAT,3,2,G16,028,1F,G29,026,1F,G20,025,1F,G15,024,13,R03,027,33,G27,013,13*55
$PGLOR,2,SAT,3,3,R14,024,33,G25,017,11,G31,019,13,R15,022,3*0F
$PGLOR,2,SIO,TxERR,0,RxERR,0,TxCNT,309,RxCNT,4797,MLFRMPKT,0,DTMS,1003,DTIN,13,20,DTOUT,421,983,HATMD,79*2B
$PGLOR,3,PWR,mA,35.5,RFTm,1003,OscTm,1000,MeasTm,1000,UTC,193146.13*3D
$PGLOR,2,PFM,HAL,-,0,0,0,0,RF,-,-180,21.4,0,RTC,,P,STO,P,LTO,P,SW,P,,,,OSC,,,*6E
$GPGSV,3,1,12,18,75,146,31,21,62,010,33,26,56,266,34,10,42,200,41*76
$GPGSV,3,2,12,16,40,306,30,29,33,104,32,20,32,047,28,15,19,085,29*71
$GPGSV,3,3,12,27,14,310,19,25,04,162,22,31,02,222,20,13,04,053,*76
$GLGSV,3,1,10,66,55,141,37,65,40,048,22,67,14,184,27,78,12,219,24*61
$GLGSV,3,2,10,79,25,262,25,81,44,343,,88,39,062,,80,13,319,*6F
$GLGSV,3,3,10,82,09,303,,87,04,097,*62
$GPGSA,A,3,10,15,16,18,20,21,25,26,27,29,31,,2.8,1.1,2.5*3A
$GNGSA,A,3,10,15,16,18,20,21,25,26,27,29,31,,2.8,1.1,2.5*24
$GNGSA,A,3,66,67,78,,,,,,,,,,2.8,1.1,2.5*2F
$QZGSA,A,3,,,,,,,,,,,,,2.8,1.1,2.5*23
$IMGSA,A,3,,,,,,,,,,,,,2.8,1.1,2.5*2C
$PGLOR,1,FIX,1.0,1.0*20
$GPRMC,193146.13,A,3201.714203,N,03447.875279,E,021.4,226.4,290416,,,A*58
$PGLOR,SPL,20160429223144.8,POS,20160429193146.134,32.028570,34.797921,32,32,0,35,6,1.100000
$GPGGA,193147.13,3201.712001,N,03447.870662,E,1,13,3.2,12.8,M,19.1,M,,*5A
$PGLOR,5,STA,193147.13,0.027,0.003,231,1,32,3,P,F,L,0,C,3,S,0002,63,2,R,33F4,TPEF,20,12,LC,,*5C
$PGLOR,1,UNC,193147.13,12000.000,32.0,5.9,0.16,2.88,23.7,21.5,15.3*2A
$PGLOR,2,SAT,3,1,G18,028,1F,G21,025,1F,G26,026,1F,R02,037,3F,R17,022,30,G10,040,1F*44
$PGLOR,2,SAT,3,2,G16,028,1F,R01,019,33,G29,028,1F,G20,021,1F,G15,022,13,G27,025,10*50
$PGLOR,2,SAT,3,3,R03,028,3F,R14,020,33,G25,017,13,G31,017,13,R15,023,3*34
$PGLOR,2,SIO,TxERR,0,RxERR,0,TxCNT,356,RxCNT,4707,MLFRMPKT,0,DTMS,999,DTIN,14,21,DTOUT,429,978,HATMD,78*18
$PGLOR,3,PWR,mA,36.7,RFTm,999,OscTm,1000,MeasTm,1000,UTC,193147.13*06
$GPGSV,3,1,12,18,75,146,31,21,62,010,32,26,56,266,33,10,42,200,41*70
$GPGSV,3,2,12,16,40,306,30,29,33,104,32,20,32,047,27,15,19,085,28*7F
$GPGSV,3,3,12,27,14,310,25,25,04,162,22,31,02,222,19,13,04,053,*73
$GLGSV,3,1,10,66,55,141,37,81,44,343,22,65,40,048,22,67,14,184,28*63
$GLGSV,3,2,10,78,12,219,23,79,25,262,25,88,39,062,,80,13,318,*64
$GLGSV,3,3,10,82,09,303,,87,04,097,*62
$GPGSA,A,3,10,15,16,18,20,21,25,26,29,31,,,2.0,1.0,1.7*37
$GNGSA,A,3,10,15,16,18,20,21,25,26,29,31,,,2.0,1.0,1.7*29
$GNGSA,A,3,66,67,78,,,,,,,,,,2.0,1.0,1.7*27
$QZGSA,A,3,,,,,,,,,,,,,2.0,1.0,1.7*2B
$IMGSA,A,3,,,,,,,,,,,,,2.0,1.0,1.7*24
$PGLOR,1,FIX,1.0,1.0*20
$GPRMC,193147.13,A,3201.712001,N,03447.870662,E,022.3,227.2,290416,,,A*57
$PGLOR,SPL,20160429223145.8,POS,20160429193147.134,32.028533,34.797844,32,32,0,32,6,1.100000
$GPGGA,193148.15,3201.712116,N,03447.865024,E,1,12,1.2,14.6,M,19.1,M,,*5F
$PGLOR,5,STA,193148.15,0.016,0.000,232,1,12,1,P,F,L,0,C,3,S,0002,71,2,R,33F4,TPEF,20,13,LC,,*55
$PGLOR,1,UNC,193148.15,0.026,12.0,5.8,0.18,0.64,9.1,7.8,7.1*1F
$PGLOR,2,SAT,3,1,G18,026,1F,G21,027,1F,G26,031,1F,R02,037,37,R17,027,33,G10,037,1F*39
$PGLOR,2,SAT,3,2,G16,029,1F,R01,024,33,G29,027,1F,G20,017,1F,G15,021,13,G27,020,10*53
$PGLOR,2,SAT,3,3,R03,029,37,R14,024,33,G25,022,13,G31,017,10,R15,019,3*4C
$PGLOR,2,SIO,TxERR,0,RxERR,0,TxCNT,418,RxCNT,4735,MLFRMPKT,0,DTMS,998,DTIN,16,22,DTOUT,273,976,HATMD,76*1D
$PGLOR,3,PWR,mA,27.5,RFTm,998,OscTm,1000,MeasTm,1000,UTC,193148.15*0C
$GPGSV,3,1,12,18,75,146,30,21,62,010,31,26,56,266,33,10,42,200,41*72
$GPGSV,3,2,12,16,40,306,30,29,33,104,31,20,32,047,26,15,19,085,28*7D
$GPGSV,3,3,12,27,14,310,25,25,04,162,22,31,02,222,19,13,04,053,*73
$GLGSV,3,1,10,66,55,140,37,81,44,343,27,65,40,048,24,67,14,184,29*60
$GLGSV,3,2,10,78,12,219,24,79,25,262,25,88,39,062,,80,13,318,*63
$GLGSV,3,3,10,82,09,303,,87,04,097,*62
$GPGSA,A,3,10,15,16,18,20,21,25,26,29,,,,2.0,1.0,1.7*35
$GNGSA,A,3,10,15,16,18,20,21,25,26,29,,,,2.0,1.0,1.7*2B
$GNGSA,A,3,66,67,78,,,,,,,,,,2.0,1.0,1.7*27
$QZGSA,A,3,,,,,,,,,,,,,2.0,1.0,1.7*2B
$IMGSA,A,3,,,,,,,,,,,,,2.0,1.0,1.7*24
$PGLOR,1,FIX,1.0,1.0*20
$GPRMC,193148.15,A,3201.712116,N,03447.865024,E,021.8,242.6,290416,,,A*56
$PGLOR,SPL,20160429223146.8,POS,20160429193148.145,32.028535,34.797750,12,12,0,34,6,1.100000
$GPGGA,193149.15,3201.708515,N,03447.859204,E,1,13,0.8,18.3,M,19.1,M,,*5E
$PGLOR,5,STA,193149.15,0.016,0.000,232,1,8,1,P,F,L,0,C,3,S,0002,83,2,R,33F4,TPEF,20,14,LC,,*65
$PGLOR,1,UNC,193149.15,0.021,8.0,5.0,0.23,1.61,5.9,5.4,79.2*16
$PGLOR,2,SAT,3,1,G18,030,1F,G21,032,1F,G26,033,1F,R02,035,3F,R17,030,33,G10,036,17*3D
$PGLOR,2,SAT,3,2,G16,032,1F,R01,026,33,G29,031,1F,G20,022,1F,G15,031,1F,G27,021,13*2C
$PGLOR,2,SAT,3,3,R03,026,33,R14,021,33,G25,025,13,G31,007,10,R15,027,3*49
$PGLOR,2,SIO,TxERR,0,RxERR,0,TxCNT,608,RxCNT,4975,MLFRMPKT,0,DTMS,1002,DTIN,13,23,DTOUT,534,979,HATMD,78*2E
$PGLOR,3,PWR,mA,36.1,RFTm,1002,OscTm,1000,MeasTm,1000,UTC,193149.15*32
$GPGSV,3,1,12,18,75,146,30,21,62,010,32,26,56,266,33,10,42,200,40*70
$GPGSV,3,2,12,16,40,306,32,29,33,104,31,20,32,047,26,15,19,085,31*77
$GPGSV,3,3,12,27,14,310,24,25,04,162,25,31,02,222,18,13,04,053,*74
$GLGSV,3,1,10,66,55,140,37,81,44,343,30,65,40,048,26,67,14,184,29*64
$GLGSV,3,2,10,78,12,219,24,79,25,262,27,88,39,062,,80,13,318,*61
$GLGSV,3,3,10,82,09,303,,87,04,097,*62
$GPGSA,A,3,10,15,16,18,20,21,25,26,27,29,,,2.4,1.1,2.1*30
$GNGSA,A,3,10,15,16,18,20,21,25,26,27,29,,,2.4,1.1,2.1*2E
$GNGSA,A,3,66,67,78,,,,,,,,,,2.4,1.1,2.1*27
$QZGSA,A,3,,,,,,,,,,,,,2.4,1.1,2.1*2B
$IMGSA,A,3,,,,,,,,,,,,,2.4,1.1,2.1*24
$PGLOR,1,FIX,1.0,1.0*20
$GPRMC,193149.15,A,3201.708515,N,03447.859204,E,020.8,257.2,290416,,,A*55
$PGLOR,SPL,20160429223147.8,POS,20160429193149.145,32.028475,34.797653,8,8,0,37,5,1.100000
$GPGGA,193150.00,3201.708488,N,03447.851719,E,1,13,0.8,17.6,M,19.1,M,,*5C
$PGLOR,5,STA,193150.00,0.016,0.000,231,1,8,1,P,F,L,0,C,3,S,0002,94,2,R,33F4,TPEF,20,15,LC,,*6D
$PGLOR,1,UNC,193150.00,0.021,8.0,4.6,0.16,0.76,5.7,5.6,-77.1*30
$PGLOR,2,SAT,4,1,G18,028,1F,G21,032,1F,G26,040,1F,R02,032,3F,R17,034,33,G10,035,1F*46
$PGLOR,2,SAT,4,2,G16,033,1F,R01,024,33,G29,032,1F,G20,025,1F,G15,027,13,G27,025,13*5A
$PGLOR,2,SAT,4,3,R03,025,33,R16,021,30,R14,025,33,R18,025,30,G25,029,13,G31,016,10*33
$PGLOR,2,SAT,4,4,R15,032,3*4A
$PGLOR,2,SIO,TxERR,0,RxERR,0,TxCNT,509,RxCNT,4833,MLFRMPKT,0,DTMS,841,DTIN,14,20,DTOUT,388,821,HATMD,64*15
$PGLOR,3,PWR,mA,36.1,RFTm,841,OscTm,840,MeasTm,840,UTC,193150.00*00
$PGLOR,2,PFM,HAL,-,0,0,0,0,RF,-,-180,28.6,0,RTC,,P,STO,P,LTO,P,SW,P,,,,OSC,P,,*35
$GPGSV,3,1,12,18,75,146,30,21,62,011,32,26,56,266,40,10,42,200,40*75
$GPGSV,3,2,12,16,40,306,33,29,33,104,32,20,32,047,26,15,19,085,31*75
$GPGSV,3,3,12,27,14,310,25,25,04,162,29,31,02,222,18,13,04,053,*79
$GLGSV,3,1,10,66,55,140,36,81,44,343,34,65,40,048,26,67,14,184,28*60
$GLGSV,3,2,10,80,13,318,21,78,12,219,25,82,09,303,25,79,25,262,32*6D
$GLGSV,3,3,10,88,39,062,,87,04,097,*6F
$GPGSA,A,3,10,15,16,18,20,21,25,26,27,29,,,2.8,1.1,2.5*38
$GNGSA,A,3,10,15,16,18,20,21,25,26,27,29,,,2.8,1.1,2.5*26
$GNGSA,A,3,66,67,78,,,,,,,,,,2.8,1.1,2.5*2F
$QZGSA,A,3,,,,,,,,,,,,,2.8,1.1,2.5*23
$IMGSA,A,3,,,,,,,,,,,,,2.8,1.1,2.5*2C
$PGLOR,1,FIX,0.9,0.9*20
$GPRMC,193150.00,A,3201.708488,N,03447.851719,E,020.8,270.4,290416,,,A*5E
$PGLOR,SPL,20160429223148.6,POS,20160429193150.000,32.028475,34.797529,8,8,0,37,5,0.955000
$GPGGA,193151.00,3201.710185,N,03447.844566,E,1,13,0.8,20.5,M,19.1,M,,*55
$PGLOR,5,STA,193151.00,0.016,0.000,231,1,8,1,P,F,L,0,C,3,S,0002,106,2,R,33F4,TPEF,20,16,LC,,*55
$PGLOR,1,UNC,193151.00,0.020,8.0,4.5,0.19,0.70,5.9,5.4,57.0*18
$PGLOR,2,SAT,4,1,G18,023,1B,G21,033,1F,G26,040,1F,R02,031,3F,R17,034,33,G10,033,1F*4D
$PGLOR,2,SAT,4,2,G16,033,1F,R01,020,33,G29,028,1F,G20,029,1F,G15,028,13,G27,027,13*54
$PGLOR,2,SAT,4,3,R03,028,3F,R16,020,30,R14,022,33,R18,023,30,G25,026,13,G31,007,10*44
$PGLOR,2,SAT,4,4,R15,030,3*48
$PGLOR,2,SIO,TxERR,0,RxERR,0,TxCNT,404,RxCNT,4899,MLFRMPKT,0,DTMS,1000,DTIN,13,22,DTOUT,452,978,HATMD,64*2D
$PGLOR,3,PWR,mA,36.1,RFTm,1001,OscTm,1000,MeasTm,1000,UTC,193151.00*3C
$GPGSV,3,1,12,18,75,146,30,21,62,011,33,26,56,266,40,10,42,200,39*7A
$GPGSV,3,2,12,16,40,306,33,29,33,104,32,20,32,047,29,15,19,085,30*7B
$GPGSV,3,3,12,27,14,310,27,25,04,162,29,31,02,222,17,13,04,053,*74
$GLGSV,3,1,10,66,55,140,36,81,44,343,34,65,40,048,25,67,14,184,28*63
$GLGSV,3,2,10,80,13,318,21,78,12,219,25,82,09,303,25,79,25,262,32*6D
$GLGSV,3,3,10,88,39,062,,87,04,097,*6F
$GPGSA,A,3,10,15,16,18,20,21,25,26,27,29,,,2.3,1.0,2.0*37
$GNGSA,A,3,10,15,16,18,20,21,25,26,27,29,,,2.3,1.0,2.0*29
$GNGSA,A,3,66,67,78,,,,,,,,,,2.3,1.0,2.0*20
$QZGSA,A,3,,,,,,,,,,,,,2.3,1.0,2.0*2C
$IMGSA,A,3,,,,,,,,,,,,,2.3,1.0,2.0*23
$PGLOR,1,FIX,1.0,1.0*20
$GPRMC,193151.00,A,3201.710185,N,03447.844566,E,021.9,287.4,290416,,,A*58
$PGLOR,SPL,20160429223149.6,POS,20160429193151.000,32.028503,34.797409,8,8,0,40,5,1.100000
$GPGGA,193152.00,3201.711777,N,03447.838152,E,1,13,0.8,23.1,M,19.1,M,,*53
$PGLOR,5,STA,193152.00,0.016,0.000,231,1,8,1,P,F,L,0,C,3,S,0002,117,2,R,33F4,TPEF,20,17,LC,,*57
$PGLOR,1,UNC,193152.00,0.020,8.0,4.3,0.35,1.25,6.2,5.1,60.1*1A
$PGLOR,2,SAT,4,1,G18,023,1F,G21,032,1F,G26,039,1F,R02,030,3F,R17,031,33,G10,031,1F*40
$PGLOR,2,SAT,4,2,G16,030,1F,R01,026,33,G29,027,1F,G20,029,1F,G15,027,13,G27,028,1F*2B
$PGLOR,2,SAT,4,3,R03,027,33,R16,019,30,R14,021,33,R18,026,30,G25,023,13,G31,018,10*39
$PGLOR,2,SAT,4,4,R15,028,3*41
$PGLOR,2,SIO,TxERR,0,RxERR,0,TxCNT,417,RxCNT,4680,MLFRMPKT,0,DTMS,1014,DTIN,12,21,DTOUT,887,992,HATMD,78*23
$PGLOR,3,PWR,mA,36.1,RFTm,1014,OscTm,1015,MeasTm,1015,UTC,193152.00*3B
$GPGSV,3,1,12,18,75,146,29,21,62,011,33,26,56,266,40,10,42,200,38*73
$GPGSV,3,2,12,16,40,306,33,29,33,104,31,20,32,047,29,15,19,085,30*78
$GPGSV,3,3,12,27,14,310,28,25,04,162,28,31,02,222,18,13,04,053,*75
$GLGSV,3,1,10,66,55,140,35,81,44,343,34,65,40,048,26,67,14,184,28*63
$GLGSV,3,2,10,80,13,318,21,78,12,219,24,82,09,303,26,79,25,262,32*6F
$GLGSV,3,3,10,88,39,062,,87,04,097,*6F
$GPGSA,A,3,10,15,16,18,20,21,25,26,27,29,,,2.1,1.1,1.8*3F
$GNGSA,A,3,10,15,16,18,20,21,25,26,27,29,,,2.1,1.1,1.8*21
$GNGSA,A,3,66,67,78,,,,,,,,,,2.1,1.1,1.8*28
$QZGSA,A,3,,,,,,,,,,,,,2.1,1.1,1.8*24
$IMGSA,A,3,,,,,,,,,,,,,2.1,1.1,1.8*2B
$PGLOR,1,FIX,1.0,1.0*20
$GPRMC,193152.00,A,3201.711777,N,03447.838152,E,023.0,301.1,290416,,,A*58
$PGLOR,SPL,20160429223150.6,POS,20160429193152.000,32.028530,34.797303,8,8,0,42,4,1.100000
$GPGGA,193153.00,3201.715092,N,03447.831959,E,1,13,0.8,25.0,M,19.1,M,,*57
$PGLOR,5,STA,193153.00,0.016,0.000,231,1,8,3,P,F,L,0,C,3,S,0002,128,2,R,33F4,TPEF,20,18,LC,,*57
$PGLOR,1,UNC,193153.00,0.021,8.0,4.5,0.27,0.88,6.2,5.1,62.2*18
$PGLOR,2,SAT,4,1,G18,023,1F,G21,033,1F,G26,039,1F,R02,029,3F,R17,027,33,G10,032,1F*4D
$PGLOR,2,SAT,4,2,G16,032,1F,R01,032,33,G29,028,1F,G20,027,1F,G15,024,13,G27,026,13*55
$PGLOR,2,SAT,4,3,R03,026,33,R16,012,30,R14,020,33,R18,034,30,G25,020,13,G31,007,10*3C
$PGLOR,2,SAT,4,4,R15,031,3*49
$PGLOR,2,SIO,TxERR,0,RxERR,0,TxCNT,337,RxCNT,4651,MLFRMPKT,0,DTMS,1001,DTIN,14,22,DTOUT,627,978,HATMD,79*2A
$PGLOR,3,PWR,mA,36.1,RFTm,1000,OscTm,1000,MeasTm,1000,UTC,193153.00*3F
$GPGSV,3,1,12,18,75,146,28,21,62,011,33,26,56,266,40,10,42,200,38*72
$GPGSV,3,2,12,16,40,306,33,29,33,104,31,20,32,047,29,15,19,085,29*70
$GPGSV,3,3,12,27,14,310,28,25,04,162,28,31,02,222,17,13,04,053,*7A
$GLGSV,3,1,10,66,55,140,35,81,44,343,33,65,40,048,32,67,14,184,28*61
$GLGSV,3,2,10,80,13,318,20,78,12,219,24,82,09,303,34,79,25,262,32*6D
$GLGSV,3,3,10,88,39,062,,87,04,097,*6F
$GPGSA,A,3,10,15,16,18,20,21,25,26,27,29,,,2.8,1.1,2.5*38
$GNGSA,A,3,10,15,16,18,20,21,25,26,27,29,,,2.8,1.1,2.5*26
$GNGSA,A,3,66,67,78,,,,,,,,,,2.8,1.1,2.5*2F
$QZGSA,A,3,,,,,,,,,,,,,2.8,1.1,2.5*23
$IMGSA,A,3,,,,,,,,,,,,,2.8,1.1,2.5*2C
$PGLOR,1,FIX,1.0,1.0*20
$GPRMC,193153.00,A,3201.715092,N,03447.831959,E,024.7,304.6,290416,,,A*59
$PGLOR,SPL,20160429223151.6,POS,20160429193153.000,32.028585,34.797199,8,8,0,44,5,1.100000
$GPGGA,193154.00,3201.719410,N,03447.826683,E,1,13,0.8,25.3,M,19.1,M,,*5F
$PGLOR,5,STA,193154.00,0.016,0.000,232,1,8,3,P,F,L,0,C,3,S,0002,140,2,R,33F4,TPEF,20,19,LC,,*5C
$PGLOR,1,UNC,193154.00,0.020,8.0,4.3,0.24,0.74,5.9,5.4,46.4*15
$PGLOR,2,SAT,3,1,G18,024,1F,G21,031,1F,G26,040,1F,R02,030,3F,R17,025,33,G10,031,1F*48
$PGLOR,2,SAT,3,2,G16,036,1F,R01,028,30,G29,026,1F,G20,028,1F,G15,026,13,R03,027,33*4D
$PGLOR,2,SAT,3,3,G27,027,13,R14,025,30,R18,033,3F,G25,021,13,G31,007,10,R15,033,3*6D
$PGLOR,2,SIO,TxERR,0,RxERR,0,TxCNT,438,RxCNT,4743,MLFRMPKT,0,DTMS,999,DTIN,13,18,DTOUT,531,981,HATMD,78*14
$PGLOR,3,PWR,mA,27.7,RFTm,999,OscTm,1000,MeasTm,1000,UTC,193154.00*06
$GPGSV,3,1,12,18,75,146,28,21,62,011,33,26,56,266,40,10,42,200,37*7D
$GPGSV,3,2,12,16,40,306,36,29,33,104,30,20,32,047,29,15,19,085,29*74
$GPGSV,3,3,12,27,14,310,28,25,04,162,27,31,02,222,16,13,04,053,*74
$GLGSV,3,1,10,66,55,140,34,81,44,343,32,65,40,048,31,67,14,184,28*62
$GLGSV,3,2,10,80,13,318,18,78,12,219,25,82,09,303,34,79,25,262,33*66
$GLGSV,3,3,10,88,39,062,,87,04,097,*6F
$GPGSA,A,3,10,15,16,18,20,21,25,26,27,29,,,1.9,1.0,1.6*3B
$GNGSA,A,3,10,15,16,18,20,21,25,26,27,29,,,1.9,1.0,1.6*25
$GNGSA,A,3,66,67,82,,,,,,,,,,1.9,1.0,1.6*29
$QZGSA,A,3,,,,,,,,,,,,,1.9,1.0,1.6*20
$IMGSA,A,3,,,,,,,,,,,,,1.9,1.0,1.6*2F
$PGLOR,1,FIX,1.0,1.0*20
$GPRMC,193154.00,A,3201.719410,N,03447.826683,E,025.8,307.5,290416,,,A*5C
$PGLOR,SPL,20160429223152.6,POS,20160429193154.000,32.028657,34.797111,8,8,0,44,4,1.100000
$GPGGA,193155.00,3201.724384,N,03447.820793,E,1,13,0.6,28.9,M,19.1,M,,*55
$PGLOR,5,STA,193155.00,0.016,0.000,231,1,6,3,P,F,L,0,C,3,S,0002,153,2,R,33F4,TPEF,20,20,LC,,*58
$PGLOR,1,UNC,193155.00,0.016,6.0,3.8,0.12,0.33,4.3,4.2,-6.4*00
$PGLOR,2,SAT,3,1,G18,023,1F,G21,030,1F,G26,040,1F,R02,028,3F,R17,023,33,G10,035,1F*45
$PGLOR,2,SAT,3,2,G16,038,1F,R01,026,33,G29,030,1F,G20,027,1F,G15,027,13,R03,027,33*47
$PGLOR,2,SAT,3,3,G27,030,1F,R14,027,30,R18,032,3F,G25,018,13,G31,007,10,R15,031,3*15
$PGLOR,2,SIO,TxERR,0,RxERR,0,TxCNT,739,RxCNT,4747,MLFRMPKT,0,DTMS,1000,DTIN,14,21,DTOUT,531,979,HATMD,78*20
$PGLOR,3,PWR,mA,35.2,RFTm,1000,OscTm,1000,MeasTm,1000,UTC,193155.00*39
$GPGSV,3,1,12,18,75,146,27,21,62,011,33,26,56,266,40,10,42,200,37*72
$GPGSV,3,2,12,16,40,306,38,29,33,104,30,20,32,047,28,15,19,085,29*7B
$GPGSV,3,3,12,27,14,310,30,25,04,162,26,31,02,222,15,13,04,053,*7F
$GLGSV,3,1,10,66,55,140,34,81,44,343,31,65,40,048,31,67,14,184,28*61
$GLGSV,3,2,10,80,13,318,14,78,12,219,27,82,09,303,33,79,25,262,33*6F
$GLGSV,3,3,10,88,39,062,,87,04,097,*6F
$GPGSA,A,3,10,15,16,18,20,21,25,26,27,29,,,1.8,1.0,1.5*39
$GNGSA,A,3,10,15,16,18,20,21,25,26,27,29,,,1.8,1.0,1.5*27
$GNGSA,A,3,66,67,82,,,,,,,,,,1.8,1.0,1.5*2B
$QZGSA,A,3,,,,,,,,,,,,,1.8,1.0,1.5*22
$IMGSA,A,3,,,,,,,,,,,,,1.8,1.0,1.5*2D
$PGLOR,1,FIX,1.0,1.0*20
$GPRMC,193155.00,A,3201.724384,N,03447.820793,E,027.8,309.3,290416,,,A*55
$PGLOR,SPL,20160429223153.6,POS,20160429193155.000,32.028740,34.797013,6,6,0,48,4,1.100000
$GPGGA,193156.00,3201.730634,N,03447.813572,E,1,13,0.6,29.4,M,19.1,M,,*5C
$PGLOR,5,STA,193156.00,0.016,0.000,231,1,6,3,P,F,L,0,C,3,S,0002,169,2,R,33F4,TPEF,20,21,LC,,*53
$PGLOR,1,UNC,193156.00,0.014,6.0,3.4,0.11,0.31,4.3,4.2,-1.6*09
$PGLOR,2,SAT,3,1,G18,023,1F,G21,029,1F,G26,040,1F,R02,025,3B,R17,022,33,G10,036,1F*46
$PGLOR,2,SAT,3,2,G16,037,1F,R01,025,30,G29,031,1F,G20,028,1F,G15,028,13,G27,031,1F*2A
$PGLOR,2,SAT,3,3,R03,028,33,R14,025,33,R18,033,3F,G25,016,10,G31,007,10,R15,029,3*7C
$PGLOR,2,SIO,TxERR,0,RxERR,0,TxCNT,372,RxCNT,4954,MLFRMPKT,0,DTMS,1000,DTIN,18,20,DTOUT,308,979,HATMD,78*26
$PGLOR,3,PWR,mA,35.8,RFTm,1000,OscTm,1000,MeasTm,1000,UTC,193156.00*30
$GPGSV,3,1,12,18,75,146,27,21,62,011,32,26,56,266,40,10,42,200,37*73
$GPGSV,3,2,12,16,40,306,38,29,33,104,31,20,32,047,28,15,19,085,29*7A
$GPGSV,3,3,12,27,14,310,31,25,04,162,25,31,02,222,14,13,04,053,*7C
$GLGSV,3,1,10,66,55,140,33,81,44,343,30,65,40,048,30,67,14,184,28*66
$GLGSV,3,2,10,78,12,219,27,82,09,303,33,79,25,262,32,80,13,318,10*6A
$GLGSV,3,3,10,88,39,062,,87,04,097,*6F
$GPGSA,A,3,10,15,16,18,20,21,26,27,29,,,,1.9,1.1,1.5*3E
$GNGSA,A,3,10,15,16,18,20,21,26,27,29,,,,1.9,1.1,1.5*20
$GNGSA,A,3,66,67,78,82,,,,,,,,,1.9,1.1,1.5*24
$QZGSA,A,3,,,,,,,,,,,,,1.9,1.1,1.5*22
$IMGSA,A,3,,,,,,,,,,,,,1.9,1.1,1.5*2D
$PGLOR,1,FIX,1.0,1.0*20
$GPRMC,193156.00,A,3201.730634,N,03447.813572,E,029.2,310.4,290416,,,A*5B
$PGLOR,SPL,20160429223154.6,POS,20160429193156.000,32.028844,34.796893,6,6,0,48,3,1.100000
$GPGGA,193157.00,3201.736196,N,03447.806644,E,1,13,0.6,30.2,M,19.1,M,,*58
$PGLOR,5,STA,193157.00,0.016,0.000,232,1,6,3,P,F,L,0,C,3,S,0002,184,2,R,33F4,TPEF,20,22,LC,,*51
$PGLOR,1,UNC,193157.00,0.014,6.0,3.2,0.20,0.53,4.6,3.8,-14.0*32
$PGLOR,2,SAT,3,1,G18,023,1F,G21,028,1F,G26,040,1F,R02,025,3F,R17,022,33,G10,035,1F*40
$PGLOR,2,SAT,3,2,G16,037,1F,R01,025,33,G29,030,1F,G20,027,1F,G15,027,13,G27,030,1F*29
$PGLOR,2,SAT,3,3,R03,027,33,R14,025,33,R18,033,3F,G25,010,10,G31,015,10,R15,027,3*78
$PGLOR,2,SIO,TxERR,0,RxERR,0,TxCNT,436,RxCNT,4917,MLFRMPKT,0,DTMS,1000,DTIN,17,23,DTOUT,471,977,HATMD,78*2D
$PGLOR,3,PWR,mA,27.4,RFTm,1000,OscTm,1000,MeasTm,1000,UTC,193157.00*3E
$GPGSV,3,1,12,18,75,145,27,21,62,011,32,26,56,266,40,10,42,200,37*70
$GPGSV,3,2,12,16,40,306,38,29,33,104,31,20,32,047,28,15,19,085,29*7A
$GPGSV,3,3,12,27,14,310,31,25,04,162,24,31,02,222,15,13,04,053,*7C
$GLGSV,3,1,10,66,55,140,32,81,44,343,30,65,40,048,30,67,14,184,28*67
$GLGSV,3,2,10,78,12,219,27,82,09,303,33,79,25,262,32,88,39,062,*65
$GLGSV,3,3,10,80,13,318,,87,04,097,*61
$GPGSA,A,3,10,15,16,18,20,21,26,27,29,,,,1.8,1.0,1.5*3E
$GNGSA,A,3,10,15,16,18,20,21,26,27,29,,,,1.8,1.0,1.5*20
$GNGSA,A,3,66,67,78,82,,,,,,,,,1.8,1.0,1.5*24
$QZGSA,A,3,,,,,,,,,,,,,1.8,1.0,1.5*22
$IMGSA,A,3,,,,,,,,,,,,,1.8,1.0,1.5*2D
$PGLOR,1,FIX,1.0,1.0*20
$GPRMC,193157.00,A,3201.736196,N,03447.806644,E,030.0,311.4,290416,,,A*5A
$PGLOR,SPL,20160429223155.6,POS,20160429193157.000,32.028937,34.796777,6,6,0,49,3,1.100000
$GPGGA,193158.00,3201.742160,N,03447.799022,E,1,12,0.6,30.3,M,19.1,M,,*52
$PGLOR,5,STA,193158.00,0.016,0.000,232,1,6,3,P,F,L,0,C,3,S,0002,200,2,R,33F4,TPEF,20,23,LC,,*50
$PGLOR,1,UNC,193158.00,0.014,6.0,3.1,0.11,0.29,4.7,3.7,-10.7*3C
$PGLOR,2,SAT,4,1,G18,024,10,G21,028,1F,G26,040,1F,R02,023,3F,R17,020,33,G10,036,1F*31
$PGLOR,2,SAT,4,2,G16,037,1F,R01,024,30,G29,029,1F,G20,027,1F,G15,027,13,G27,030,1F*24
$PGLOR,2,SAT,4,3,R03,026,33,R16,021,30,R14,028,3F,R18,033,3F,G25,020,10,G31,014,10*31
$PGLOR,2,SAT,4,4,R15,026,3*4F
$PGLOR,2,SIO,TxERR,0,RxERR,0,TxCNT,424,RxCNT,4865,MLFRMPKT,0,DTMS,1001,DTIN,13,21,DTOUT,525,980,HATMD,79*24
$PGLOR,3,PWR,mA,27.4,RFTm,1001,OscTm,1000,MeasTm,1000,UTC,193158.00*30
$GPGSV,3,1,12,18,75,145,26,21,62,011,31,26,56,266,40,10,42,200,37*72
$GPGSV,3,2,12,16,40,306,38,29,33,104,31,20,32,047,28,15,19,085,28*7B
$GPGSV,3,3,12,27,14,310,30,25,04,162,23,31,02,222,15,13,04,053,*7A
$GLGSV,3,1,10,66,55,140,31,81,44,343,29,65,40,048,29,67,14,184,28*64
$GLGSV,3,2,10,80,13,318,21,78,12,219,28,82,09,303,33,79,25,262,31*64
$GLGSV,3,3,10,88,39,062,,87,04,097,*6F
$GPGSA,A,3,10,15,16,20,21,26,27,29,,,,,1.6,0.9,1.4*30
$GNGSA,A,3,10,15,16,20,21,26,27,29,,,,,1.6,0.9,1.4*2E
$GNGSA,A,3,66,67,78,82,,,,,,,,,1.6,0.9,1.4*23
$QZGSA,A,3,,,,,,,,,,,,,1.6,0.9,1.4*25
$IMGSA,A,3,,,,,,,,,,,,,1.6,0.9,1.4*2A
$PGLOR,1,FIX,1.0,1.0*20
$GPRMC,193158.00,A,3201.742160,N,03447.799022,E,031.4,311.9,290416,,,A*58
$PGLOR,SPL,20160429223156.6,POS,20160429193158.000,32.029036,34.796650,6,6,0,49,3,1.100000
$GPGGA,193159.00,3201.748746,N,03447.791956,E,1,12,0.6,31.2,M,19.1,M,,*59
$PGLOR,5,STA,193159.00,0.016,0.000,230,1,6,3,P,F,L,0,C,3,S,0002,217,2,R,33F4,TPEF,20,24,LC,,*52
$PGLOR,1,UNC,193159.00,0.013,6.0,3.0,0.11,0.27,4.6,3.8,-7.6*0C
$PGLOR,2,SAT,4,1,G18,007,10,G21,028,1F,G26,040,1F,R02,024,3F,R17,018,30,G10,035,1F*3C
$PGLOR,2,SAT,4,2,G16,037,1F,R01,026,33,G29,030,1F,G20,028,1F,G15,028,13,G27,029,1F*25
$PGLOR,2,SAT,4,3,R03,025,33,R16,019,30,R14,030,3F,R18,032,3F,G25,016,10,G31,007,10*36
$PGLOR,2,SAT,4,4,R15,028,3*41
$PGLOR,2,SIO,TxERR,0,RxERR,0,TxCNT,637,RxCNT,4882,MLFRMPKT,0,DTMS,999,DTIN,13,19,DTOUT,237,980,HATMD,78*1A
$PGLOR,3,PWR,mA,38.3,RFTm,999,OscTm,1000,MeasTm,1000,UTC,193159.00*01
$GPGSV,3,1,12,18,75,145,24,21,62,011,31,26,56,266,40,10,42,200,36*71
$GPGSV,3,2,12,16,40,306,37,29,33,104,31,20,32,047,28,15,19,085,28*74
$GPGSV,3,3,12,27,14,310,30,25,04,162,22,31,02,222,14,13,04,053,*7A
$GLGSV,3,1,10,66,55,140,30,81,44,343,28,65,40,048,29,67,14,184,27*6B
$GLGSV,3,2,10,80,13,318,20,78,12,219,30,82,09,303,33,79,25,262,31*6C
$GLGSV,3,3,10,88,39,062,,87,04,097,*6F
$GPGSA,A,3,10,15,16,20,21,26,27,29,,,,,1.6,0.9,1.4*30
$GNGSA,A,3,10,15,16,20,21,26,27,29,,,,,1.6,0.9,1.4*2E
$GNGSA,A,3,66,67,78,82,,,,,,,,,1.6,0.9,1.4*23
$QZGSA,A,3,,,,,,,,,,,,,1.6,0.9,1.4*25
$IMGSA,A,3,,,,,,,,,,,,,1.6,0.9,1.4*2A
$PGLOR,1,FIX,1.0,1.0*20
$GPRMC,193159.00,A,3201.748746,N,03447.791956,E,032.6,312.3,290416,,,A*5B
$PGLOR,SPL,20160429223157.6,POS,20160429193159.000,32.029146,34.796533,6,6,0,50,3,1.100000
$GPGGA,193200.00,3201.755316,N,03447.784434,E,1,12,0.6,31.3,M,19.1,M,,*57
$PGLOR,5,STA,193200.00,0.016,0.000,230,1,6,3,P,F,L,0,C,3,S,0002,234,2,R,33F4,TPEF,20,25,LC,,*5D
$PGLOR,1,UNC,193200.00,0.011,6.0,3.0,0.10,0.23,4.4,4.1,-54.2*3A
$PGLOR,2,SAT,4,1,G18,014,10,G21,027,1F,G26,040,1F,R02,024,3F,R17,027,33,G10,036,1F*3D
$PGLOR,2,SAT,4,2,G16,037,1F,R01,026,33,G29,031,1F,G20,029,1F,G15,029,1F,G27,029,1F*51
$PGLOR,2,SAT,4,3,R03,028,33,R16,015,31,R14,030,3F,R18,030,3F,G25,007,10,G31,011,10*33
$PGLOR,2,SAT,4,4,R15,028,3*41
$PGLOR,2,SIO,TxERR,0,RxERR,0,TxCNT,497,RxCNT,4806,MLFRMPKT,0,DTMS,1000,DTIN,14,19,DTOUT,396,981,HATMD,78*2A
$PGLOR,3,PWR,mA,35.8,RFTm,1000,OscTm,1000,MeasTm,1000,UTC,193200.00*30
$PGLOR,2,PFM,HAL,-,0,0,0,0,RF,-,-180,25.9,0,RTC,,P,STO,P,LTO,P,SW,P,,,,OSC,P,P,P*37
$GPGSV,3,1,12,18,75,145,23,21,62,011,31,26,56,266,40,10,42,200,36*76
$GPGSV,3,2,12,16,40,306,37,29,33,104,31,20,32,047,29,15,19,085,29*74
$GPGSV,3,3,12,27,14,310,30,25,04,162,21,31,02,222,13,13,04,053,*7E
$GLGSV,3,1,10,66,55,140,30,81,44,343,27,65,40,048,29,67,14,184,28*6B
$GLGSV,3,2,10,80,13,318,20,78,12,219,30,82,09,303,33,79,25,262,30*6D
$GLGSV,3,3,10,88,39,062,,87,04,097,*6F
$GPGSA,A,3,10,15,16,20,21,26,27,29,,,,,1.5,0.8,1.2*34
$GNGSA,A,3,10,15,16,20,21,26,27,29,,,,,1.5,0.8,1.2*2A
$GNGSA,A,3,66,67,78,82,,,,,,,,,1.5,0.8,1.2*27
$QZGSA,A,3,,,,,,,,,,,,,1.5,0.8,1.2*21
$IMGSA,A,3,,,,,,,,,,,,,1.5,0.8,1.2*2E
$PGLOR,1,FIX,1.0,1.0*20
$GPRMC,193200.00,A,3201.755316,N,03447.784434,E,033.8,312.9,290416,,,A*51
$PGLOR,SPL,20160429223158.6,POS,20160429193200.000,32.029255,34.796407,6,6,0,50,3,1.100000
$GPGGA,193201.00,3201.761879,N,03447.775783,E,1,12,0.6,31.8,M,19.1,M,,*59
$PGLOR,5,STA,193201.00,0.016,0.000,230,1,6,3,P,F,L,0,C,3,S,0002,252,2,R,33F4,TPEF,20,26,LC,,*5F
$PGLOR,1,UNC,193201.00,0.011,6.0,3.0,0.10,0.24,4.4,4.1,-28.5*30
$PGLOR,2,SAT,4,1,G18,007,10,G21,027,1F,G26,040,1F,R02,024,3F,R17,028,33,G10,034,1F*32
$PGLOR,2,SAT,4,2,G16,037,1F,R01,025,33,G29,032,1F,G20,028,1F,G15,028,13,G27,028,1F*25
$PGLOR,2,SAT,4,3,R03,028,3F,R16,014,31,R14,030,3F,R18,031,3F,G25,007,10,G31,007,10*41
$PGLOR,2,SAT,4,4,R15,029,3*40
$PGLOR,2,SIO,TxERR,0,RxERR,0,TxCNT,417,RxCNT,4766,MLFRMPKT,0,DTMS,999,DTIN,20,24,DTOUT,522,975,HATMD,77*17
$PGLOR,3,PWR,mA,35.8,RFTm,999,OscTm,1000,MeasTm,1000,UTC,193201.00*09
$GPGSV,3,1,12,18,75,145,22,21,62,011,30,26,56,266,40,10,42,200,36*76
$GPGSV,3,2,12,16,40,306,37,29,33,104,32,20,32,047,29,15,19,085,29*77
$GPGSV,3,3,12,27,14,310,30,25,04,162,20,31,02,222,13,13,04,053,*7F
$GLGSV,3,1,10,66,55,140,29,81,44,343,28,65,40,048,28,67,14,184,28*6D
$GLGSV,3,2,10,80,13,318,19,78,12,219,30,82,09,303,33,79,25,262,30*67
$GLGSV,3,3,10,88,39,062,,87,04,097,*6F
$GPGSA,A,3,10,15,16,20,21,26,27,29,,,,,1.5,0.8,1.3*35
$GNGSA,A,3,10,15,16,20,21,26,27,29,,,,,1.5,0.8,1.3*2B
$GNGSA,A,3,66,67,78,82,,,,,,,,,1.5,0.8,1.3*26
$QZGSA,A,3,,,,,,,,,,,,,1.5,0.8,1.3*20
$IMGSA,A,3,,,,,,,,,,,,,1.5,0.8,1.3*2F
$PGLOR,1,FIX,1.0,1.0*20
$GPRMC,193201.00,A,3201.761879,N,03447.775783,E,034.8,312.5,290416,,,A*5F
$PGLOR,SPL,20160429223159.6,POS,20160429193201.000,32.029365,34.796263,6,6,0,51,3,1.100000
$GPGGA,193202.00,3201.768309,N,03447.767114,E,1,12,0.6,31.9,M,19.1,M,,*55
$PGLOR,5,STA,193202.00,0.016,0.000,230,1,6,3,P,F,L,0,C,3,S,0002,270,2,R,33F4,TPEF,20,27,LC,,*5D
$PGLOR,1,UNC,193202.00,0.013,6.0,3.1,0.11,0.25,4.3,4.1,45.0*14
$PGLOR,2,SAT,4,1,G18,018,10,G21,028,1F,G26,039,1F,R02,024,3F,R17,027,33,G10,032,1F*34
$PGLOR,2,SAT,4,2,G16,037,1F,R01,023,33,G29,031,1F,G20,030,1F,G15,027,13,G27,027,13*5C
$PGLOR,2,SAT,4,3,R03,027,33,R16,014,33,R14,030,3F,R18,031,3F,G25,018,10,G31,014,10*35
$PGLOR,2,SAT,4,4,R15,030,3*48
$PGLOR,2,SIO,TxERR,0,RxERR,0,TxCNT,388,RxCNT,4687,MLFRMPKT,0,DTMS,1001,DTIN,14,18,DTOUT,432,983,HATMD,78*2F
$PGLOR,3,PWR,mA,35.8,RFTm,1001,OscTm,1000,MeasTm,1000,UTC,193202.00*33
$GPGSV,3,1,12,18,75,145,21,21,62,011,30,26,56,266,40,10,43,200,36*74
$GPGSV,3,2,12,16,40,306,37,29,33,104,32,20,32,047,30,15,19,085,29*7F
$GPGSV,3,3,12,27,14,310,30,25,04,162,19,31,02,222,14,13,04,053,*72
$GLGSV,3,1,10,66,55,140,29,81,44,343,28,65,40,048,28,67,14,184,28*6D
$GLGSV,3,2,10,80,13,318,19,78,12,219,30,82,09,303,32,79,25,262,30*66
$GLGSV,3,3,10,88,39,062,,87,04,097,*6F
$GPGSA,A,3,10,15,16,20,21,26,27,29,,,,,1.7,0.9,1.5*30
$GNGSA,A,3,10,15,16,20,21,26,27,29,,,,,1.7,0.9,1.5*2E
$GNGSA,A,3,66,67,78,82,,,,,,,,,1.7,0.9,1.5*23
$QZGSA,A,3,,,,,,,,,,,,,1.7,0.9,1.5*25
$IMGSA,A,3,,,,,,,,,,,,,1.7,0.9,1.5*2A
$PGLOR,1,FIX,1.0,1.0*20
$GPRMC,193202.00,A,3201.768309,N,03447.767114,E,035.6,312.1,290416,,,A*59
$PGLOR,SPL,20160429223200.6,POS,20160429193202.000,32.029472,34.796119,6,6,0,51,3,1.100000
$GPGGA,193203.00,3201.775235,N,03447.758383,E,1,12,0.4,32.1,M,19.1,M,,*5F
$PGLOR,5,STA,193203.00,0.016,0.000,231,1,4,3,P,F,L,0,C,3,S,0002,289,2,R,33F4,TPEF,20,28,LC,,*56
$PGLOR,1,UNC,193203.00,0.013,4.0,3.2,0.12,0.25,2.9,2.7,44.7*1D
$PGLOR,2,SAT,4,1,G18,010,10,G21,028,1F,G26,040,1F,R02,023,3F,R17,030,33,G10,032,1F*33
$PGLOR,2,SAT,4,2,G16,036,1F,R01,024,33,G29,031,1F,G20,030,1F,G15,026,13,G27,027,13*5B
$PGLOR,2,SAT,4,3,R03,028,3F,R16,015,33,R14,031,3F,R18,030,3F,G25,020,10,G31,007,10*47
$PGLOR,2,SAT,4,4,R15,031,3*49
$PGLOR,2,SIO,TxERR,0,RxERR,0,TxCNT,336,RxCNT,4696,MLFRMPKT,0,DTMS,999,DTIN,14,18,DTOUT,600,982,HATMD,77*1E
$PGLOR,3,PWR,mA,35.8,RFTm,1000,OscTm,1000,MeasTm,1000,UTC,193203.00*33
$GPGSV,3,1,12,18,75,145,20,21,62,011,30,26,56,266,40,10,43,200,35*76
$GPGSV,3,2,12,16,40,306,37,29,33,104,32,20,32,047,30,15,19,085,29*7F
$GPGSV,3,3,12,27,14,310,29,25,04,162,20,31,02,222,13,13,04,053,*77
$GLGSV,3,1,10,66,55,140,28,81,44,343,30,65,40,048,27,67,14,184,28*6A
$GLGSV,3,2,10,80,13,318,18,78,12,219,31,82,09,303,32,79,25,262,31*67
$GLGSV,3,3,10,88,39,062,,87,04,097,*6F
$GPGSA,A,3,10,15,16,20,21,26,27,29,,,,,1.6,0.8,1.3*36
$GNGSA,A,3,10,15,16,20,21,26,27,29,,,,,1.6,0.8,1.3*28
$GNGSA,A,3,66,67,78,82,,,,,,,,,1.6,0.8,1.3*25
$QZGSA,A,3,,,,,,,,,,,,,1.6,0.8,1.3*23
$IMGSA,A,3,,,,,,,,,,,,,1.6,0.8,1.3*2C
$PGLOR,1,FIX,1.0,1.0*20
$GPRMC,193203.00,A,3201.775235,N,03447.758383,E,036.3,312.3,290416,,,A*5E
$PGLOR,SPL,20160429223201.6,POS,20160429193203.000,32.029587,34.795973,4,4,0,51,3,1.100000
$GPGGA,193204.00,3201.782145,N,03447.749512,E,1,12,0.4,31.8,M,19.1,M,,*50
$PGLOR,5,STA,193204.00,0.016,0.000,230,1,4,3,P,F,L,0,C,3,S,0002,308,2,R,33F4,TPEF,20,29,LC,,*59
$PGLOR,1,UNC,193204.00,0.013,4.0,3.2,0.10,0.22,2.9,2.7,48.4*10
$PGLOR,2,SAT,4,1,G18,021,10,G21,029,1F,G26,040,1F,R02,022,3F,R17,029,33,G10,033,1F*38
$PGLOR,2,SAT,4,2,G16,036,1F,R01,024,33,G29,030,1F,G20,031,1F,G15,028,13,G27,027,13*55
$PGLOR,2,SAT,4,3,R03,028,3F,R16,015,33,R14,031,3F,R18,031,3F,G25,018,10,G31,007,10*4D
$PGLOR,2,SAT,4,4,R15,030,3*48
$PGLOR,2,SIO,TxERR,0,RxERR,0,TxCNT,369,RxCNT,4699,MLFRMPKT,0,DTMS,1001,DTIN,16,22,DTOUT,740,978,HATMD,78*26
$PGLOR,3,PWR,mA,35.8,RFTm,1000,OscTm,1000,MeasTm,1000,UTC,193204.00*34
$GPGSV,3,1,12,18,75,145,21,21,62,011,30,26,56,266,40,10,43,200,35*77
$GPGSV,3,2,12,16,40,306,37,29,33,104,32,20,32,047,31,15,19,085,29*7E
$GPGSV,3,3,12,27,14,310,29,25,04,162,20,31,02,222,12,13,04,053,*76
$GLGSV,3,1,10,66,55,140,27,81,44,343,30,65,40,048,27,67,14,184,28*65
$GLGSV,3,2,10,80,13,318,18,78,12,219,31,82,09,303,32,79,25,262,31*67
$GLGSV,3,3,10,88,39,062,,87,04,097,*6F
$GPGSA,A,3,10,15,16,20,21,26,27,29,,,,,1.6,0.8,1.3*36
$GNGSA,A,3,10,15,16,20,21,26,27,29,,,,,1.6,0.8,1.3*28
$GNGSA,A,3,66,67,78,82,,,,,,,,,1.6,0.8,1.3*25
$QZGSA,A,3,,,,,,,,,,,,,1.6,0.8,1.3*23
$IMGSA,A,3,,,,,,,,,,,,,1.6,0.8,1.3*2C
$PGLOR,1,FIX,1.0,1.0*20
$GPRMC,193204.00,A,3201.782145,N,03447.749512,E,036.9,312.3,290416,,,A*51
$PGLOR,SPL,20160429223202.6,POS,20160429193204.000,32.029702,34.795825,4,4,0,51,3,1.100000
$GPGGA,193205.00,3201.789300,N,03447.741081,E,1,12,0.6,31.0,M,19.1,M,,*54
$PGLOR,5,STA,193205.00,0.016,0.000,230,1,6,3,P,F,L,0,C,3,S,0002,326,2,R,33F4,TPEF,20,30,LC,,*5E
$PGLOR,1,UNC,193205.00,0.012,6.0,3.2,0.11,0.22,4.5,3.9,71.1*19
$PGLOR,2,SAT,4,1,G18,022,10,G21,030,1F,G26,040,1F,R02,025,3F,R17,029,33,G10,034,1F*33
$PGLOR,2,SAT,4,2,G16,036,1F,R01,023,30,G29,031,1F,G20,030,1F,G15,028,1F,G27,027,13*24
$PGLOR,2,SAT,4,3,R03,028,33,R16,021,30,R14,031,3F,R18,032,3F,G25,007,10,G31,007,10*31
$PGLOR,2,SAT,4,4,R15,030,3*48
$PGLOR,2,SIO,TxERR,0,RxERR,0,TxCNT,458,RxCNT,4685,MLFRMPKT,0,DTMS,999,DTIN,13,17,DTOUT,827,982,HATMD,77*10
$PGLOR,3,PWR,mA,35.8,RFTm,1000,OscTm,1000,MeasTm,1000,UTC,193205.00*35
$GPGSV,3,1,12,18,75,145,22,21,62,011,30,26,56,266,40,10,43,200,35*74
$GPGSV,3,2,12,16,40,306,37,29,33,104,31,20,32,047,31,15,19,085,28*7C
$GPGSV,3,3,12,27,14,310,29,25,04,162,19,31,02,222,12,13,04,053,*7C
$GLGSV,3,1,10,66,55,140,27,81,44,343,30,65,40,048,27,67,14,184,28*65
$GLGSV,3,2,10,80,13,318,21,78,12,219,31,82,09,303,32,79,25,262,31*6D
$GLGSV,3,3,10,88,39,062,,87,04,097,*6F
$GPGSA,A,3,10,15,16,20,21,26,27,29,,,,,1.5,0.8,1.3*35
$GNGSA,A,3,10,15,16,20,21,26,27,29,,,,,1.5,0.8,1.3*2B
$GNGSA,A,3,66,67,78,82,,,,,,,,,1.5,0.8,1.3*26
$QZGSA,A,3,,,,,,,,,,,,,1.5,0.8,1.3*20
$IMGSA,A,3,,,,,,,,,,,,,1.5,0.8,1.3*2F
$PGLOR,1,FIX,1.0,1.0*20
$GPRMC,193205.00,A,3201.789300,N,03447.741081,E,037.6,311.7,290416,,,A*56
$PGLOR,SPL,20160429223203.6,POS,20160429193205.000,32.029822,34.795685,6,6,0,50,3,1.100000
$GPGGA,193206.00,3201.796014,N,03447.731493,E,1,14,0.8,31.0,M,19.1,M,,*57
$PGLOR,5,STA,193206.00,0.016,0.000,231,1,8,3,P,F,L,0,C,3,S,0002,346,2,R,33F4,TPEF,20,31,LC,,*55
$PGLOR,1,UNC,193206.00,0.015,8.0,3.3,0.12,0.25,6.2,5.1,-3.8*0C
$PGLOR,2,SAT,4,1,G18,023,1F,G21,030,1F,G26,040,1F,R02,025,3F,R17,030,33,G10,033,1F*4B
$PGLOR,2,SAT,4,2,G16,036,1F,R01,024,33,G29,030,1F,G20,027,1F,G15,025,13,R03,028,33*41
$PGLOR,2,SAT,4,3,G27,026,13,R16,009,30,R14,030,3F,R18,032,3F,G25,019,10,G13,014,11*29
$PGLOR,2,SAT,4,4,G31,007,10,R15,031,3*16
$PGLOR,2,SIO,TxERR,0,RxERR,0,TxCNT,461,RxCNT,5100,MLFRMPKT,0,DTMS,1001,DTIN,17,27,DTOUT,502,973,HATMD,78*24
$PGLOR,3,PWR,mA,26.6,RFTm,1001,OscTm,1000,MeasTm,1000,UTC,193206.00*3B
$GPGSV,3,1,12,18,75,145,23,21,62,011,30,26,56,266,40,10,43,200,35*75
$GPGSV,3,2,12,16,40,306,37,29,33,104,31,20,32,047,31,15,19,085,28*7C
$GPGSV,3,3,12,27,14,310,29,25,04,162,19,13,04,053,14,31,02,222,11*7A
$GLGSV,3,1,10,66,55,140,27,81,44,343,30,65,40,048,26,67,14,184,28*64
$GLGSV,3,2,10,80,13,318,19,78,12,219,31,82,09,303,32,79,25,262,31*66
$GLGSV,3,3,10,88,39,062,,87,04,097,*6F
$GPGSA,A,3,10,13,15,16,18,20,21,26,27,29,,,1.6,0.9,1.3*3C
$GNGSA,A,3,10,13,15,16,18,20,21,26,27,29,,,1.6,0.9,1.3*22
$GNGSA,A,3,66,67,78,82,,,,,,,,,1.6,0.9,1.3*24
$QZGSA,A,3,,,,,,,,,,,,,1.6,0.9,1.3*22
$IMGSA,A,3,,,,,,,,,,,,,1.6,0.9,1.3*2D
$PGLOR,1,FIX,1.0,1.0*20
$GPRMC,193206.00,A,3201.796014,N,03447.731493,E,037.4,311.8,290416,,,A*50
$PGLOR,SPL,20160429223204.6,POS,20160429193206.000,32.029934,34.795525,8,8,0,50,3,1.100000
$GPGGA,193207.00,3201.803164,N,03447.721856,E,1,13,0.8,31.1,M,19.1,M,,*51
$PGLOR,5,STA,193207.00,0.016,0.000,230,1,8,3,P,F,L,0,C,3,S,0002,366,2,R,33F4,TPEF,20,32,LC,,*54
$PGLOR,1,UNC,193207.00,0.014,8.0,3.4,0.13,0.26,6.5,4.6,-21.1*31
$PGLOR,2,SAT,4,1,G18,024,1F,G21,031,1F,G26,039,1F,R02,025,3F,R17,030,33,G10,032,1F*42
$PGLOR,2,SAT,4,2,R01,022,30,G16,035,1F,R24,015,30,G29,031,1F,G20,027,1F,G15,023,13*48
$PGLOR,2,SAT,4,3,R03,028,3F,G27,023,13,R16,019,30,R14,028,3F,R18,032,3F,G25,012,10*41
$PGLOR,2,SAT,4,4,G13,010,10,G31,007,10,R15,033,3*4D
$PGLOR,2,SIO,TxERR,0,RxERR,0,TxCNT,555,RxCNT,4301,MLFRMPKT,0,DTMS,994,DTIN,15,25,DTOUT,854,968,HATMD,72*1A
$PGLOR,3,PWR,mA,37.9,RFTm,993,OscTm,1000,MeasTm,1000,UTC,193207.00*06
$GPGSV,3,1,12,18,75,145,24,21,62,011,31,26,56,266,40,10,43,200,35*73
$GPGSV,3,2,12,16,40,306,37,29,33,104,31,20,32,047,30,15,19,085,28*7D
$GPGSV,3,3,12,27,14,310,28,25,04,162,19,13,04,053,13,31,02,222,11*7C
$GLGSV,3,1,10,66,55,140,27,81,44,343,30,65,40,048,26,88,39,062,15*6D
$GLGSV,3,2,10,67,14,184,28,80,13,318,19,78,12,219,30,82,09,303,32*69
$GLGSV,3,3,10,79,25,262,33,87,04,097,*6E
$GPGSA,A,3,10,15,16,18,20,21,26,27,29,,,,1.5,0.8,1.2*3D
$GNGSA,A,3,10,15,16,18,20,21,26,27,29,,,,1.5,0.8,1.2*23
$GNGSA,A,3,66,67,78,82,,,,,,,,,1.5,0.8,1.2*27
$QZGSA,A,3,,,,,,,,,,,,,1.5,0.8,1.2*21
$IMGSA,A,3,,,,,,,,,,,,,1.5,0.8,1.2*2E
$PGLOR,1,FIX,1.0,1.0*20
$GPRMC,193207.00,A,3201.803164,N,03447.721856,E,038.8,310.9,290416,,,A*53
$PGLOR,SPL,20160429223205.6,POS,20160429193207.000,32.030053,34.795364,8,8,0,50,3,1.100000
$GPGGA,193208.00,3201.810606,N,03447.714280,E,1,14,0.6,31.9,M,19.1,M,,*59
$PGLOR,5,STA,193208.00,0.016,0.000,230,1,6,3,P,F,L,0,C,3,S,0002,384,2,R,33F4,TPEF,20,33,LC,,*58
$PGLOR,1,UNC,193208.00,0.013,6.0,3.1,0.11,0.22,4.8,3.7,-28.3*36
$PGLOR,2,SAT,4,1,G18,024,1F,G21,034,1F,G26,040,1F,R02,026,3F,R17,031,13,G10,032,1F*49
$PGLOR,2,SAT,4,2,R01,022,33,G16,035,1F,R24,012,30,G29,033,1F,G20,027,1F,G15,021,13*4C
$PGLOR,2,SAT,4,3,R03,028,13,G27,024,13,R16,018,30,R14,029,1F,R18,032,1F,G25,007,10*35
$PGLOR,2,SAT,4,4,G13,007,10,G31,015,10,R15,034,1F*0B
$PGLOR,2,SIO,TxERR,0,RxERR,0,TxCNT,377,RxCNT,4236,MLFRMPKT,0,DTMS,1001,DTIN,14,21,DTOUT,488,979,HATMD,73*24
$PGLOR,3,PWR,mA,38.1,RFTm,1000,OscTm,1000,MeasTm,1000,UTC,193208.00*3C
$GPGSV,3,1,12,18,75,145,24,21,62,011,34,26,56,266,40,10,43,200,34*77
$GPGSV,3,2,12,16,40,306,37,29,33,104,33,20,32,047,30,15,19,085,27*70
$GPGSV,3,3,12,27,14,310,28,25,04,162,17,13,04,053,13,31,02,222,15*76
$GLGSV,3,1,10,66,55,140,27,81,44,343,31,65,40,048,26,88,39,062,14*6D
$GLGSV,3,2,10,67,14,184,28,80,13,318,19,78,12,219,30,82,09,303,32*69
$GLGSV,3,3,10,79,25,262,34,87,04,097,*69
$GPGSA,A,3,10,15,16,18,20,21,26,27,29,,,,1.6,0.9,1.3*3E
$GNGSA,A,3,10,15,16,18,20,21,26,27,29,,,,1.6,0.9,1.3*20
$GNGSA,A,3,66,67,78,79,82,,,,,,,,1.6,0.9,1.3*2A
$QZGSA,A,3,,,,,,,,,,,,,1.6,0.9,1.3*22
$IMGSA,A,3,,,,,,,,,,,,,1.6,0.9,1.3*2D
$PGLOR,1,FIX,1.0,1.0*20
$GPRMC,193208.00,A,3201.810606,N,03447.714280,E,038.6,310.5,290416,,,A*58
$PGLOR,SPL,20160429223206.6,POS,20160429193208.000,32.030177,34.795238,6,6,0,51,3,1.100000
$GPGGA,193209.00,3201.817503,N,03447.704388,E,1,13,0.6,33.0,M,19.1,M,,*5D
$PGLOR,5,STA,193209.00,0.016,0.000,230,1,6,3,P,F,L,0,C,3,S,0002,404,2,R,33F4,TPEF,21,34,LC,,*50
$PGLOR,1,UNC,193209.00,0.012,6.0,3.0,0.11,0.22,4.6,3.9,-28.6*32
$PGLOR,2,SAT,4,1,G18,025,1F,G21,035,1F,G26,040,1F,R02,026,3F,R17,031,13,G10,031,1F*4A
$PGLOR,2,SAT,4,2,G16,035,1F,R01,025,33,R24,019,30,G29,034,1F,G20,029,1F,R15,034,1F*2D
$PGLOR,2,SAT,4,3,G15,012,10,G27,024,13,R03,028,13,R14,028,13,R18,031,1F,G25,012,10*58
$PGLOR,2,SAT,4,4,G13,007,10,G31,007,10*32
$PGLOR,2,SIO,TxERR,0,RxERR,0,TxCNT,417,RxCNT,4448,MLFRMPKT,0,DTMS,997,DTIN,17,22,DTOUT,331,977,HATMD,70*15
$PGLOR,3,PWR,mA,37.0,RFTm,999,OscTm,1000,MeasTm,1000,UTC,193209.00*0B
$GPGSV,3,1,12,18,75,145,25,21,62,011,35,26,56,266,40,10,43,200,34*77
$GPGSV,3,2,12,16,40,306,36,29,33,104,34,20,32,047,30,15,19,085,25*74
$GPGSV,3,3,12,27,14,310,27,25,04,162,17,13,04,053,12,31,02,222,14*79
$GLGSV,3,1,10,66,55,140,27,81,44,343,31,65,40,048,26,88,39,062,19*60
$GLGSV,3,2,10,79,25,262,34,67,14,184,28,80,13,318,17,78,12,219,30*6D
$GLGSV,3,3,10,82,09,303,32,87,04,097,*63
$GPGSA,A,3,10,16,18,20,21,26,27,29,,,,,1.8,1.0,1.6*39
$GNGSA,A,3,10,16,18,20,21,26,27,29,,,,,1.8,1.0,1.6*27
$GNGSA,A,3,66,67,78,79,82,,,,,,,,1.8,1.0,1.6*29
$QZGSA,A,3,,,,,,,,,,,,,1.8,1.0,1.6*21
$IMGSA,A,3,,,,,,,,,,,,,1.8,1.0,1.6*2E
$PGLOR,1,FIX,1.0,1.0*20
$GPRMC,193209.00,A,3201.817503,N,03447.704388,E,038.8,310.1,290416,,,A*5A
$PGLOR,SPL,20160429223207.6,POS,20160429193209.000,32.030292,34.795073,6,6,0,52,3,1.100000
$GPGGA,193210.00,3201.824539,N,03447.694345,E,1,13,0.6,33.4,M,19.1,M,,*51
$PGLOR,5,STA,193210.00,0.016,0.000,230,1,6,3,P,F,L,0,C,3,S,0002,425,2,R,33F4,TPEF,21,35,LC,,*5A
$PGLOR,1,UNC,193210.00,0.011,6.0,3.0,0.48,0.99,4.5,4.0,30.6*1C
$PGLOR,2,SAT,4,1,G18,025,1F,G21,034,1F,G26,039,1F,R02,026,3F,R17,032,13,G10,030,1F*47
$PGLOR,2,SAT,4,2,G16,036,1F,R01,027,33,R24,021,30,G29,034,1F,G20,031,1F,R15,034,1F*2E
$PGLOR,2,SAT,4,3,G15,007,10,G27,024,13,R03,027,13,R14,027,13,R18,030,1F,G25,021,10*5D
$PGLOR,2,SAT,4,4,G13,007,10,G31,007,10*32
$PGLOR,2,SIO,TxERR,0,RxERR,0,TxCNT,516,RxCNT,4344,MLFRMPKT,0,DTMS,1002,DTIN,15,19,DTOUT,290,982,HATMD,72*22
$PGLOR,3,PWR,mA,38.8,RFTm,1002,OscTm,1000,MeasTm,1000,UTC,193210.00*3E
$GPGSV,3,1,12,18,75,145,25,21,62,011,35,26,56,266,40,10,43,200,34*77
$GPGSV,3,2,12,16,40,306,36,29,33,104,34,20,32,047,31,15,19,085,24*74
$GPGSV,3,3,12,27,14,310,27,25,04,162,21,13,04,053,12,31,02,222,13*7B
$GLGSV,3,1,10,66,55,140,27,81,44,343,32,65,40,048,27,88,39,062,21*69
$GLGSV,3,2,10,79,25,262,34,67,14,184,28,80,13,318,14,78,12,219,30*6E
$GLGSV,3,3,10,82,09,303,32,87,04,097,*63
$GPGSA,A,3,10,16,18,20,21,26,27,29,,,,,1.8,1.0,1.6*39
$GNGSA,A,3,10,16,18,20,21,26,27,29,,,,,1.8,1.0,1.6*27
$GNGSA,A,3,66,67,78,79,82,,,,,,,,1.8,1.0,1.6*29
$QZGSA,A,3,,,,,,,,,,,,,1.8,1.0,1.6*21
$IMGSA,A,3,,,,,,,,,,,,,1.8,1.0,1.6*2E
$PGLOR,1,FIX,1.0,1.0*20
$GPRMC,193210.00,A,3201.824539,N,03447.694345,E,039.2,309.6,290416,,,A*56
$PGLOR,SPL,20160429223208.6,POS,20160429193210.000,32.030409,34.794906,6,6,0,52,3,1.100000
$GPGGA,193211.00,3201.831346,N,03447.684179,E,1,13,0.6,34.0,M,19.1,M,,*55
$PGLOR,5,STA,193211.00,0.016,0.000,231,1,6,3,P,F,L,0,C,3,S,0002,445,2,R,33F4,TPEF,21,36,LC,,*5F
$PGLOR,1,UNC,193211.00,0.010,6.0,3.0,0.48,1.00,4.7,3.7,40.0*1E
$PGLOR,2,SAT,4,1,G18,024,1F,G21,036,1F,G26,039,1F,R02,027,3F,R17,033,13,G10,029,1F*4C
$PGLOR,2,SAT,4,2,R01,026,33,G16,036,1F,R24,017,30,G29,034,1F,G20,032,1F,R15,034,1F*29
$PGLOR,2,SAT,4,3,G15,026,10,R03,028,13,G27,022,13,R14,026,13,R18,029,1F,G25,013,10*5F
$PGLOR,2,SAT,4,4,G13,007,10,G31,007,10*32
$PGLOR,2,SIO,TxERR,0,RxERR,0,TxCNT,372,RxCNT,4290,MLFRMPKT,0,DTMS,998,DTIN,16,20,DTOUT,296,977,HATMD,70*12
$PGLOR,3,PWR,mA,35.7,RFTm,998,OscTm,1000,MeasTm,1000,UTC,193211.00*06
$GPGSV,3,1,12,18,75,145,25,21,62,011,36,26,56,266,40,10,43,200,33*73
$GPGSV,3,2,12,16,40,306,36,29,33,104,34,20,32,047,32,15,19,085,26*75
$GPGSV,3,3,12,27,14,310,26,25,04,162,20,13,04,053,11,31,02,222,13*78
$GLGSV,3,1,10,66,55,140,27,81,44,343,33,65,40,048,27,88,39,062,20*69
$GLGSV,3,2,10,79,25,262,34,67,14,184,28,78,12,219,29,82,09,303,32*61
$GLGSV,3,3,10,80,13,318,10,87,04,097,*60
$GPGSA,A,3,10,16,18,20,21,26,27,29,,,,,1.8,1.0,1.6*39
$GNGSA,A,3,10,16,18,20,21,26,27,29,,,,,1.8,1.0,1.6*27
$GNGSA,A,3,66,67,78,79,82,,,,,,,,1.8,1.0,1.6*29
$QZGSA,A,3,,,,,,,,,,,,,1.8,1.0,1.6*21
$IMGSA,A,3,,,,,,,,,,,,,1.8,1.0,1.6*2E
$PGLOR,1,FIX,1.0,1.0*20
$GPRMC,193211.00,A,3201.831346,N,03447.684179,E,039.1,308.3,290416,,,A*56
$PGLOR,SPL,20160429223209.6,POS,20160429193211.000,32.030522,34.794736,6,6,0,53,3,1.100000
$GPGGA,193212.00,3201.838317,N,03447.673957,E,1,13,0.4,34.6,M,19.1,M,,*53
$PGLOR,5,STA,193212.00,0.016,0.000,231,1,4,3,P,F,L,0,C,3,S,0002,466,2,R,33F4,TPEF,21,37,LC,,*5E
$PGLOR,1,UNC,193212.00,0.010,4.0,3.0,0.48,0.98,3.3,2.3,42.3*18
$PGLOR,2,SAT,4,1,G18,026,1F,G21,034,1F,G26,038,1F,R02,027,3F,R17,033,13,G10,029,1F*4D
$PGLOR,2,SAT,4,2,R01,025,33,G16,037,1F,R24,016,30,G29,032,1F,G20,034,1F,R15,033,1F*2D
$PGLOR,2,SAT,4,3,G15,021,10,R03,028,13,G27,021,13,R14,025,13,R18,029,1F,G25,019,10*52
$PGLOR,2,SAT,4,4,G13,007,10,G31,017,10*33
$PGLOR,2,SIO,TxERR,0,RxERR,0,TxCNT,436,RxCNT,4257,MLFRMPKT,0,DTMS,1000,DTIN,15,23,DTOUT,615,976,HATMD,70*29
$PGLOR,3,PWR,mA,26.9,RFTm,999,OscTm,1000,MeasTm,1000,UTC,193212.00*08
$GPGSV,3,1,12,18,75,145,26,21,62,011,36,26,56,266,40,10,43,200,33*70
$GPGSV,3,2,12,16,40,306,37,29,33,104,34,20,32,047,34,15,19,085,26*72
$GPGSV,3,3,12,27,14,310,26,25,04,162,20,13,04,053,11,31,02,222,17*7C
$GLGSV,3,1,10,66,55,140,27,81,44,343,33,65,40,048,27,88,39,062,20*69
$GLGSV,3,2,10,79,25,262,34,67,14,184,28,78,12,219,29,82,09,303,31*62
$GLGSV,3,3,10,80,13,318,,87,04,097,*61
$GPGSA,A,3,10,16,18,20,21,26,27,29,,,,,1.8,1.0,1.6*39
$GNGSA,A,3,10,16,18,20,21,26,27,29,,,,,1.8,1.0,1.6*27
$GNGSA,A,3,66,67,78,79,82,,,,,,,,1.8,1.0,1.6*29
$QZGSA,A,3,,,,,,,,,,,,,1.8,1.0,1.6*21
$IMGSA,A,3,,,,,,,,,,,,,1.8,1.0,1.6*2E
$PGLOR,1,FIX,1.0,1.0*20
$GPRMC,193212.00,A,3201.838317,N,03447.673957,E,039.9,308.1,290416,,,A*5E
$PGLOR,SPL,20160429223210.6,POS,20160429193212.000,32.030639,34.794566,4,4,0,54,3,1.100000
$GPGGA,193213.00,3201.845314,N,03447.663594,E,1,14,0.4,35.1,M,19.1,M,,*58
$PGLOR,5,STA,193213.00,0.016,0.000,232,1,4,3,P,F,L,0,C,3,S,0002,487,2,R,33F4,TPEF,21,38,LC,,*5C
$PGLOR,1,UNC,193213.00,0.010,4.0,3.0,0.48,0.97,3.3,2.2,43.1*14
$PGLOR,2,SAT,4,1,G18,026,1F,G21,030,1F,G26,037,1F,R02,026,3F,R17,033,13,G10,028,1F*46
$PGLOR,2,SAT,4,2,R01,020,30,G16,036,1F,R24,011,30,G29,030,1F,G20,033,1F,R15,029,1F*23
$PGLOR,2,SAT,4,3,G15,022,13,R03,027,13,G27,020,13,R14,023,13,R18,029,1F,G25,007,10*55
$PGLOR,2,SAT,4,4,G13,007,10,G31,007,10*32
$PGLOR,2,SIO,TxERR,0,RxERR,0,TxCNT,384,RxCNT,4104,MLFRMPKT,0,DTMS,1001,DTIN,18,26,DTOUT,874,974,HATMD,71*21
$PGLOR,3,PWR,mA,26.9,RFTm,1000,OscTm,1000,MeasTm,1000,UTC,193213.00*31
$GPGSV,3,1,12,18,75,145,26,21,62,011,35,26,56,266,40,10,43,200,32*72
$GPGSV,3,2,12,16,40,306,37,29,33,104,34,20,32,047,34,15,19,085,25*71
$GPGSV,3,3,12,27,14,310,25,25,04,162,19,13,04,053,10,31,02,221,16*76
$GLGSV,3,1,10,66,55,140,27,81,44,343,33,65,40,048,26,88,39,062,19*62
$GLGSV,3,2,10,79,25,262,34,67,14,184,28,78,12,219,28,82,09,303,31*63
$GLGSV,3,3,10,80,13,318,,87,04,097,*61
$GPGSA,A,3,10,15,16,18,20,21,26,27,29,,,,1.8,1.0,1.6*3D
$GNGSA,A,3,10,15,16,18,20,21,26,27,29,,,,1.8,1.0,1.6*23
$GNGSA,A,3,66,67,78,79,82,,,,,,,,1.8,1.0,1.6*29
$QZGSA,A,3,,,,,,,,,,,,,1.8,1.0,1.6*21
$IMGSA,A,3,,,,,,,,,,,,,1.8,1.0,1.6*2E
$PGLOR,1,FIX,1.0,1.0*20
$GPRMC,193213.00,A,3201.845314,N,03447.663594,E,040.7,307.7,290416,,,A*5D
$PGLOR,SPL,20160429223211.6,POS,20160429193213.000,32.030755,34.794393,4,4,0,54,3,1.100000
$GPGGA,193214.00,3201.852353,N,03447.653038,E,1,14,0.4,35.5,M,19.1,M,,*5E
$PGLOR,5,STA,193214.00,0.016,0.000,231,1,4,3,P,F,L,0,C,3,S,0002,508,2,R,33F4,TPEF,21,39,LC,,*5F
$PGLOR,1,UNC,193214.00,0.009,4.0,3.0,0.48,0.97,3.4,2.2,43.0*1D
$PGLOR,2,SAT,4,1,G18,029,1F,G21,029,1F,G26,037,1F,R02,028,3F,R17,034,13,G10,027,1F*47
$PGLOR,2,SAT,4,2,R01,018,33,G16,036,1F,R24,019,30,G29,029,1F,G20,033,1F,R15,027,1F*25
$PGLOR,2,SAT,4,3,G15,024,13,R03,026,13,G27,017,11,R14,022,13,R18,029,1F,G25,020,10*50
$PGLOR,2,SAT,4,4,G13,007,10,G31,007,10*32
$PGLOR,2,SIO,TxERR,0,RxERR,0,TxCNT,365,RxCNT,4133,MLFRMPKT,0,DTMS,1001,DTIN,16,20,DTOUT,563,979,HATMD,72*27
$PGLOR,3,PWR,mA,26.9,RFTm,1000,OscTm,1000,MeasTm,1000,UTC,193214.00*36
$GPGSV,3,1,12,18,75,145,29,21,62,011,34,26,56,266,39,10,43,200,32*72
$GPGSV,3,2,12,16,40,306,36,29,33,104,33,20,32,047,34,15,19,085,25*77
$GPGSV,3,3,12,27,14,310,24,25,04,162,20,13,04,053,10,31,02,221,15*7E
$GLGSV,3,1,10,66,55,140,28,81,44,343,34,65,40,048,25,88,39,062,19*69
$GLGSV,3,2,10,79,25,262,33,67,14,184,28,78,12,219,28,82,09,303,31*64
$GLGSV,3,3,10,80,13,318,,87,04,097,*61
$GPGSA,A,3,10,15,16,18,20,21,26,27,29,,,,1.8,1.0,1.5*3E
$GNGSA,A,3,10,15,16,18,20,21,26,27,29,,,,1.8,1.0,1.5*20
$GNGSA,A,3,66,67,78,79,82,,,,,,,,1.8,1.0,1.5*2A
$QZGSA,A,3,,,,,,,,,,,,,1.8,1.0,1.5*22
$IMGSA,A,3,,,,,,,,,,,,,1.8,1.0,1.5*2D
$PGLOR,1,FIX,1.0,1.0*20
$GPRMC,193214.00,A,3201.852353,N,03447.653038,E,041.1,307.6,290416,,,A*59
$PGLOR,SPL,20160429223212.6,POS,20160429193214.000,32.030873,34.794217,4,4,0,55,3,1.100000
$GPGGA,193215.00,3201.859400,N,03447.642001,E,1,14,0.6,35.6,M,19.1,M,,*5E
$PGLOR,5,STA,193215.00,0.016,0.000,231,1,6,3,P,F,L,0,C,3,S,0002,529,2,R,33F4,TPEF,21,40,LC,,*51
$PGLOR,1,UNC,193215.00,0.009,6.0,3.0,0.48,0.94,5.1,3.2,42.2*1C
$PGLOR,2,SAT,4,1,G18,029,1F,G21,032,1F,G26,037,1F,R02,028,3F,R17,033,13,G10,028,1F*45
$PGLOR,2,SAT,4,2,R01,022,33,G16,036,1F,R24,023,30,G29,031,1F,G20,034,1F,R15,026,1F*2A
$PGLOR,2,SAT,4,3,G15,025,13,R03,026,13,G27,017,13,R14,024,13,R18,028,1F,G25,015,10*52
$PGLOR,2,SAT,4,4,G13,007,10,G31,013,10*37
$PGLOR,2,SIO,TxERR,0,RxERR,0,TxCNT,493,RxCNT,4093,MLFRMPKT,0,DTMS,998,DTIN,16,20,DTOUT,878,979,HATMD,70*1F
$PGLOR,3,PWR,mA,26.9,RFTm,1000,OscTm,1000,MeasTm,1000,UTC,193215.00*37
$GPGSV,3,1,12,18,75,145,29,21,62,011,34,26,56,266,39,10,43,200,31*71
$GPGSV,3,2,12,16,40,306,36,29,33,104,33,20,32,047,34,15,19,085,25*77
$GPGSV,3,3,12,27,14,310,24,25,04,162,19,13,04,053,10,31,02,221,15*74
$GLGSV,3,1,10,66,55,140,28,81,44,343,34,65,40,048,25,88,39,062,23*60
$GLGSV,3,2,10,79,25,262,32,67,14,184,28,78,12,219,27,82,09,303,31*6A
$GLGSV,3,3,10,80,13,318,,87,04,097,*61
$GPGSA,A,3,10,15,16,18,20,21,26,27,29,,,,1.8,1.0,1.5*3E
$GNGSA,A,3,10,15,16,18,20,21,26,27,29,,,,1.8,1.0,1.5*20
$GNGSA,A,3,66,67,78,79,82,,,,,,,,1.8,1.0,1.5*2A
$QZGSA,A,3,,,,,,,,,,,,,1.8,1.0,1.5*22
$IMGSA,A,3,,,,,,,,,,,,,1.8,1.0,1.5*2D
$PGLOR,1,FIX,1.0,1.0*20
$GPRMC,193215.00,A,3201.859400,N,03447.642001,E,042.1,306.9,290416,,,A*55
$PGLOR,SPL,20160429223213.6,POS,20160429193215.000,32.030990,34.794033,6,6,0,55,3,1.100000
$GPGGA,193216.00,3201.866414,N,03447.631042,E,1,14,0.6,35.6,M,19.1,M,,*57
$PGLOR,5,STA,193216.00,0.016,0.000,231,1,6,3,P,F,L,0,C,3,S,0002,551,2,R,33F4,TPEF,21,41,LC,,*5C
$PGLOR,1,UNC,193216.00,0.009,6.0,3.0,0.48,0.94,5.1,3.2,42.0*1D
$PGLOR,2,SAT,4,1,G18,030,1F,G21,034,1F,G26,038,1F,R02,029,3F,R17,034,13,G10,029,1F*43
$PGLOR,2,SAT,4,2,R01,026,33,G16,035,1F,R24,015,30,G29,031,1F,G20,033,1F,R15,029,1F*20
$PGLOR,2,SAT,4,3,G15,023,13,R03,027,13,G27,021,13,R14,024,13,R18,030,1F,G25,010,10*5C
$PGLOR,2,SAT,4,4,G13,007,10,G31,007,10*32
$PGLOR,2,SIO,TxERR,0,RxERR,0,TxCNT,350,RxCNT,4178,MLFRMPKT,0,DTMS,1000,DTIN,14,18,DTOUT,563,981,HATMD,70*23
$PGLOR,3,PWR,mA,26.9,RFTm,1000,OscTm,1000,MeasTm,1000,UTC,193216.00*34
$GPGSV,3,1,12,18,75,145,30,21,62,011,34,26,56,266,39,10,43,200,31*79
$GPGSV,3,2,12,16,40,306,36,29,33,104,33,20,32,047,34,15,19,085,25*77
$GPGSV,3,3,12,27,14,310,23,25,04,162,18,13,04,053,09,31,02,221,14*7B
$GLGSV,3,1,10,66,55,140,29,81,44,343,34,65,40,048,26,88,39,062,23*62
$GLGSV,3,2,10,79,25,262,32,67,14,184,28,78,12,219,27,82,09,303,31*6A
$GLGSV,3,3,10,80,13,318,,87,04,097,*61
$GPGSA,A,3,10,15,16,18,20,21,26,27,29,,,,1.8,1.0,1.5*3E
$GNGSA,A,3,10,15,16,18,20,21,26,27,29,,,,1.8,1.0,1.5*20
$GNGSA,A,3,66,67,78,79,82,,,,,,,,1.8,1.0,1.5*2A
$QZGSA,A,3,,,,,,,,,,,,,1.8,1.0,1.5*22
$IMGSA,A,3,,,,,,,,,,,,,1.8,1.0,1.5*2D
$PGLOR,1,FIX,1.0,1.0*20
$GPRMC,193216.00,A,3201.866414,N,03447.631042,E,042.1,306.4,290416,,,A*51
$PGLOR,SPL,20160429223214.6,POS,20160429193216.000,32.031107,34.793851,6,6,0,55,3,1.100000
$GPGGA,193217.00,3201.873535,N,03447.619908,E,1,14,0.6,35.4,M,19.1,M,,*5F
$PGLOR,5,STA,193217.00,0.016,0.000,231,1,6,3,P,F,L,0,C,3,S,0002,573,2,R,33F4,TPEF,21,42,LC,,*5E
$PGLOR,1,UNC,193217.00,0.009,6.0,3.0,0.48,0.93,5.1,3.2,42.0*1B
$PGLOR,2,SAT,4,1,G18,031,1F,G21,033,1F,G26,037,1F,R02,031,3F,R17,034,13,G10,030,1F*4B
$PGLOR,2,SAT,4,2,R01,028,33,G16,036,1F,R24,011,30,G29,031,1F,G20,032,1F,R15,028,1F*29
$PGLOR,2,SAT,4,3,G15,021,13,R03,027,13,G27,023,13,R14,024,13,R18,029,1F,G25,007,10*52
$PGLOR,2,SAT,4,4,G13,007,10,G31,007,10*32
$PGLOR,2,SIO,TxERR,0,RxERR,0,TxCNT,401,RxCNT,4031,MLFRMPKT,0,DTMS,999,DTIN,14,19,DTOUT,879,979,HATMD,69*1C
$PGLOR,3,PWR,mA,26.9,RFTm,998,OscTm,1000,MeasTm,1000,UTC,193217.00*0C
$GPGSV,3,1,12,18,75,145,31,21,62,011,34,26,56,266,39,10,43,200,31*78
$GPGSV,3,2,12,16,40,306,36,29,33,104,33,20,32,047,34,15,19,085,25*77
$GPGSV,3,3,12,27,14,310,23,25,04,162,17,13,04,053,09,31,02,221,13*73
$GLGSV,3,1,10,66,55,140,31,81,44,343,34,65,40,048,28,88,39,062,21*67
$GLGSV,3,2,10,79,25,262,31,67,14,184,28,78,12,219,27,82,09,303,30*68
$GLGSV,3,3,10,80,13,318,,87,04,097,*61
$GPGSA,A,3,10,15,16,18,20,21,26,27,29,,,,1.8,1.0,1.5*3E
$GNGSA,A,3,10,15,16,18,20,21,26,27,29,,,,1.8,1.0,1.5*20
$GNGSA,A,3,66,67,78,79,82,,,,,,,,1.8,1.0,1.5*2A
$QZGSA,A,3,,,,,,,,,,,,,1.8,1.0,1.5*22
$IMGSA,A,3,,,,,,,,,,,,,1.8,1.0,1.5*2D
$PGLOR,1,FIX,1.0,1.0*20
$GPRMC,193217.00,A,3201.873535,N,03447.619908,E,042.5,306.0,290416,,,A*5B
$PGLOR,SPL,20160429223215.6,POS,20160429193217.000,32.031226,34.793665,6,6,0,54,3,1.100000
$GPGGA,193218.00,3201.880368,N,03447.608628,E,1,14,0.6,35.2,M,19.1,M,,*59
$PGLOR,5,STA,193218.00,0.016,0.000,231,1,6,3,P,F,L,0,C,3,S,0002,595,2,R,33F4,TPEF,21,43,LC,,*58
$PGLOR,1,UNC,193218.00,0.009,6.0,3.0,0.48,0.94,5.1,3.2,38.6*18
$PGLOR,2,SAT,4,1,G18,030,1F,G21,032,1F,G26,037,1F,R02,034,3F,R17,034,13,G10,029,1F*46
$PGLOR,2,SAT,4,2,R01,027,33,G16,036,1F,R24,007,30,G29,030,1F,G20,031,1F,R15,028,1F*23
$PGLOR,2,SAT,4,3,G15,021,13,R03,027,13,G27,023,13,R14,024,13,R18,028,1F,G25,014,10*51
$PGLOR,2,SAT,4,4,G13,007,10,G31,016,10*32
$PGLOR,2,SIO,TxERR,0,RxERR,0,TxCNT,349,RxCNT,4009,MLFRMPKT,0,DTMS,1000,DTIN,15,18,DTOUT,876,982,HATMD,69*2F
$PGLOR,3,PWR,mA,26.9,RFTm,1000,OscTm,1000,MeasTm,1000,UTC,193218.00*3A
$GPGSV,3,1,12,18,75,145,31,21,62,011,34,26,56,266,39,10,43,200,31*78
$GPGSV,3,2,12,16,40,306,36,29,33,104,32,20,32,047,33,15,19,085,24*70
$GPGSV,3,3,12,27,14,310,23,25,04,162,17,13,04,053,09,31,02,221,16*76
$GLGSV,3,1,10,66,55,140,34,81,44,343,34,65,40,048,28,88,39,062,20*63
$GLGSV,3,2,10,79,25,262,31,67,14,184,28,78,12,219,26,82,09,303,30*69
$GLGSV,3,3,10,80,13,318,,87,04,097,*61
$GPGSA,A,3,10,15,16,18,20,21,26,27,29,,,,1.8,1.0,1.5*3E
$GNGSA,A,3,10,15,16,18,20,21,26,27,29,,,,1.8,1.0,1.5*20
$GNGSA,A,3,66,67,78,79,82,,,,,,,,1.8,1.0,1.5*2A
$QZGSA,A,3,,,,,,,,,,,,,1.8,1.0,1.5*22
$IMGSA,A,3,,,,,,,,,,,,,1.8,1.0,1.5*2D
$PGLOR,1,FIX,1.0,1.0*20
$GPRMC,193218.00,A,3201.880368,N,03447.608628,E,042.6,305.5,290416,,,A*5E
$PGLOR,SPL,20160429223216.6,POS,20160429193218.000,32.031339,34.793477,6,6,0,54,3,1.100000
$GPGGA,193219.00,3201.887725,N,03447.596995,E,1,14,0.6,34.6,M,19.1,M,,*5A
$PGLOR,5,STA,193219.00,0.016,0.000,232,1,6,3,P,F,L,0,C,3,S,0002,617,2,R,33F4,TPEF,21,44,LC,,*54
$PGLOR,1,UNC,193219.00,0.011,6.0,3.0,0.51,0.98,5.1,3.1,37.9*17
$PGLOR,2,SAT,4,1,G18,030,1F,G21,033,1F,G26,037,1F,R02,034,3F,R17,033,13,G10,030,1F*48
$PGLOR,2,SAT,4,2,R01,028,33,G16,036,1F,R24,016,30,G29,032,1F,G20,031,1F,R15,027,1F*21
$PGLOR,2,SAT,4,3,G15,022,13,R03,028,13,G27,022,13,R14,023,13,R18,027,13,G25,007,10*23
$PGLOR,2,SAT,4,4,G13,007,10,G31,019,10*3D
$PGLOR,2,SIO,TxERR,0,RxERR,0,TxCNT,350,RxCNT,4053,MLFRMPKT,0,DTMS,1000,DTIN,18,22,DTOUT,528,978,HATMD,69*2F
$PGLOR,3,PWR,mA,26.9,RFTm,1000,OscTm,1000,MeasTm,1000,UTC,193219.00*3B
$GPGSV,3,1,12,18,75,145,31,21,62,011,34,26,56,266,38,10,43,200,31*79
$GPGSV,3,2,12,16,40,306,36,29,33,104,32,20,32,047,33,15,19,085,24*70
$GPGSV,3,3,12,27,14,310,23,25,04,162,16,13,04,053,09,31,02,221,19*78
$GLGSV,3,1,10,66,55,140,34,81,44,343,34,65,40,048,28,88,39,062,20*63
$GLGSV,3,2,10,79,25,262,31,67,14,184,28,78,12,219,26,82,09,303,30*69
$GLGSV,3,3,10,80,13,318,,87,04,097,*61
$GPGSA,A,3,10,15,16,18,20,21,26,27,29,,,,2.2,1.0,1.9*3B
$GNGSA,A,3,10,15,16,18,20,21,26,27,29,,,,2.2,1.0,1.9*25
$GNGSA,A,3,66,67,78,79,82,,,,,,,,2.2,1.0,1.9*2F
$QZGSA,A,3,,,,,,,,,,,,,2.2,1.0,1.9*27
