$GPGSV,3,1,11,02,53,122,25,06,34,059,28,12,54,341,31,15,09,202,29*7E
$GPGSV,3,2,11,19,22,043,25,24,74,194,36,25,27,303,35,29,21,237,24*70
$GPGSV,3,3,11,14,08,310,,17,,,,32,08,307,*7D
$GLGSV,2,1,07,82,78,358,34,80,62,355,28,79,45,118,24,83,38,217,30*6E
$GLGSV,2,2,07,81,26,029,21,78,04,133,,73,11,323,*5B
$BDGSV,2,1,05,202,28,116,,203,03,097,,205,45,137,,208,08,039,*65
$BDGSV,2,2,05,210,09,130,*65
$GNGNS,,,,,,NN,,,,,,*53
$GPVTG,,T,,M,,N,,K,N*2C
$GPGSA,A,1,,,,,,,,,,,,,,,*1E
$GNGSA,A,1,,,,,,,,,,,,,,,*00
$BDGSA,A,1,,,,,,,,,,,,,,,*0F
$GPGGA,,,,,,0,,,,,,,,*66
$GPRMC,,V,,,,,,,,,,N*53
$GPGSV,3,1,11,02,53,122,30,06,34,059,28,12,54,341,29,14,08,310,23*7B
$GPGSV,3,2,11,15,09,202,33,19,22,043,24,24,74,194,34,25,27,303,34*77
$GPGSV,3,3,11,29,21,237,23,32,08,307,28,17,,,*77
$GLGSV,2,1,07,78,04,133,19,73,11,323,23,82,78,358,32,80,63,355,23*61
$GLGSV,2,2,07,79,45,118,22,83,38,217,29,81,26,029,22*5C
$BDGSV,2,1,05,202,28,116,,203,03,097,,205,45,137,,208,08,039,*65
$BDGSV,2,2,05,210,09,130,*65
$GNGNS,,,,,,NN,,,,,,*53
$GPVTG,,T,,M,,N,,K,N*2C
$GPGSA,A,1,,,,,,,,,,,,,,,*1E
$GNGSA,A,1,,,,,,,,,,,,,,,*00
$BDGSA,A,1,,,,,,,,,,,,,,,*0F
$GPGGA,,,,,,0,,,,,,,,*66
$GPRMC,,V,,,,,,,,,,N*53
$GPGSV,3,1,11,02,53,122,29,06,34,059,29,12,54,341,26,14,08,310,22*7C
$GPGSV,3,2,11,15,09,202,29,19,22,043,26,24,74,194,34,25,27,303,31*7B
$GPGSV,3,3,11,29,21,237,31,32,08,307,23,17,,,*7F
$GLGSV,2,1,07,78,04,133,17,73,11,323,24,82,78,358,31,80,63,355,21*69
$GLGSV,2,2,07,79,45,118,23,83,38,217,33,81,26,029,22*56
$BDGSV,2,1,05,202,28,116,,203,03,097,,205,45,137,,208,08,039,*65
$BDGSV,2,2,05,210,09,130,*65
$GNGNS,,,,,,NN,,,,,,*53
$GPVTG,,T,,M,,N,,K,N*2C
$GPGSA,A,1,,,,,,,,,,,,,,,*1E
$GNGSA,A,1,,,,,,,,,,,,,,,*00
$BDGSA,A,1,,,,,,,,,,,,,,,*0F
$GPGGA,,,,,,0,,,,,,,,*66
$GPRMC,,V,,,,,,,,,,N*53
$GPGSV,3,1,11,02,53,122,28,06,34,059,28,12,54,341,25,14,08,310,21*7C
$GPGSV,3,2,11,15,09,202,27,19,22,043,25,24,74,194,31,25,27,303,30*72
$GPGSV,3,3,11,29,21,237,34,32,08,307,20,17,,,*79
$GLGSV,2,1,07,78,04,133,16,73,11,323,22,82,78,358,28,80,63,355,21*66
$GLGSV,2,2,07,79,45,118,23,83,38,217,28,81,26,029,23*5D
$BDGSV,2,1,05,202,28,116,,203,03,097,,205,45,137,,208,08,039,*65
$BDGSV,2,2,05,210,09,130,*65
$GNGNS,,,,,,NN,,,,,,*53
$GPVTG,,T,,M,,N,,K,N*2C
$GPGSA,A,1,,,,,,,,,,,,,,,*1E
$GNGSA,A,1,,,,,,,,,,,,,,,*00
$BDGSA,A,1,,,,,,,,,,,,,,,*0F
$GPGGA,,,,,,0,,,,,,,,*66
$GPRMC,,V,,,,,,,,,,N*53
$GPGSV,3,1,11,02,53,122,25,06,34,059,28,12,54,341,28,14,08,310,20*7D
$GPGSV,3,2,11,15,09,202,20,19,22,043,25,24,74,194,26,25,27,303,32*71
$GPGSV,3,3,11,29,21,237,34,32,08,307,27,17,,,*7E
$GLGSV,2,1,07,78,04,133,15,73,11,323,25,82,78,358,24,80,63,355,28*67
$GLGSV,2,2,07,79,45,118,26,83,38,217,28,81,26,029,23*58
$BDGSV,2,1,05,202,28,116,,203,03,097,,205,45,137,,208,08,039,*65
$BDGSV,2,2,05,210,09,130,*65
$GNGNS,,,,,,NN,,,,,,*53
$GPVTG,,T,,M,,N,,K,N*2C
$GPGSA,A,1,,,,,,,,,,,,,,,*1E
$GNGSA,A,1,,,,,,,,,,,,,,,*00
$BDGSA,A,1,,,,,,,,,,,,,,,*0F
$GPGGA,,,,,,0,,,,,,,,*66
$GPRMC,,V,,,,,,,,,,N*53
$GPGSV,3,1,11,02,53,122,29,06,34,059,24,12,54,341,30,14,08,310,21*75
$GPGSV,3,2,11,15,09,202,22,19,22,043,29,24,74,194,29,25,27,303,33*71
$GPGSV,3,3,11,29,21,237,28,32,08,307,19,17,,,*7E
$GLGSV,2,1,07,78,04,133,14,73,11,323,30,82,78,358,27,80,63,355,21*68
$GLGSV,2,2,07,79,45,118,30,83,38,217,32,81,26,029,19*5D
$BDGSV,2,1,05,202,28,116,,203,03,097,,205,45,137,,208,08,039,*65
$BDGSV,2,2,05,210,09,130,*65
$GNGNS,,,,,,NN,,,,,,*53
$GPVTG,,T,,M,,N,,K,N*2C
$GPGSA,A,1,,,,,,,,,,,,,,,*1E
$GNGSA,A,1,,,,,,,,,,,,,,,*00
$BDGSA,A,1,,,,,,,,,,,,,,,*0F
$GPGGA,,,,,,0,,,,,,,,*66
$GPRMC,,V,,,,,,,,,,N*53
$GPGSV,3,1,11,02,53,122,29,06,34,059,26,12,54,341,34,14,08,310,26*74
$GPGSV,3,2,11,15,09,202,22,19,22,043,35,24,74,194,33,25,27,303,39*7D
$GPGSV,3,3,11,29,21,237,32,32,08,307,27,17,,,*78
$GLGSV,2,1,07,78,04,133,14,73,11,323,30,82,78,358,29,80,63,355,25*62
$GLGSV,2,2,07,79,45,118,30,83,38,217,34,81,26,029,23*52
$BDGSV,2,1,05,202,28,116,,203,03,097,,205,45,137,,208,08,039,*65
$BDGSV,2,2,05,210,09,130,*65
$GPGGA,134125.0,3206.271290,N,03512.307398,E,1,07,1.0,647.9,M,19.0,M,,*55
$GNGNS,134125.0,3206.271290,N,03512.307398,E,AA,12,1.0,647.9,19.0,,*65
$GPVTG,304.2,T,304.2,M,0.0,N,0.0,K,A*23
$GPGSA,A,3,02,06,12,15,19,24,29,,,,,,1.6,1.0,1.2*31
$GNGSA,A,3,02,06,12,15,19,24,29,,,,,,1.6,1.0,1.2*2F
$GNGSA,A,3,82,80,79,83,81,,,,,,,,1.6,1.0,1.2*27
$BDGSA,A,3,,,,,,,,,,,,,1.6,1.0,1.2*26
$GPRMC,134125.0,A,3206.271290,N,03512.307398,E,0.0,304.2,030516,0.0,E,A*0A
$GPGSV,3,1,12,02,53,122,33,06,34,059,29,12,54,341,33,14,08,310,26*74
$GPGSV,3,2,12,15,09,202,23,19,22,043,31,24,74,194,31,25,27,303,35*75
$GPGSV,3,3,12,29,21,237,37,32,08,307,24,33,,,33,17,,,*7D
$GLGSV,2,1,07,78,04,133,14,73,11,323,27,82,78,358,32,80,63,355,26*6D
$GLGSV,2,2,07,79,45,118,27,83,38,217,30,81,26,029,25*56
$BDGSV,2,1,05,202,28,116,,203,03,097,,205,45,137,,208,08,039,*65
$BDGSV,2,2,05,210,09,130,*65
$GPGGA,134126.0,3206.271377,N,03512.307521,E,1,07,1.0,647.9,M,19.0,M,,*5A
$GNGNS,134126.0,3206.271377,N,03512.307521,E,AA,12,1.0,647.9,19.0,,*6A
$GPVTG,304.2,T,304.2,M,0.8,N,1.5,K,A*2F
$GPGSA,A,2,02,06,12,15,19,24,29,,,,,,1.2,1.0,0.8*3F
$GNGSA,A,2,02,06,12,15,19,24,29,,,,,,1.2,1.0,0.8*21
$GNGSA,A,2,79,80,81,82,83,,,,,,,,1.2,1.0,0.8*29
$BDGSA,A,2,,,,,,,,,,,,,1.2,1.0,0.8*28
$GPRMC,134126.0,A,3206.271377,N,03512.307521,E,0.8,304.2,030516,0.0,E,A*0D
$GPGSV,3,1,12,02,53,122,28,06,34,059,31,12,54,341,31,14,08,310,25*76
$GPGSV,3,2,12,15,09,202,31,19,22,043,34,24,74,194,32,25,27,303,32*77
$GPGSV,3,3,12,29,21,237,36,32,08,307,29,33,,,30,17,,,*72
$GLGSV,2,1,07,78,04,133,14,73,11,323,28,82,78,358,28,80,63,355,23*6C
$GLGSV,2,2,07,79,45,118,26,83,38,217,28,81,26,029,24*5F
$BDGSV,2,1,05,202,28,116,,203,03,097,,205,45,137,,208,08,039,*65
$BDGSV,2,2,05,210,09,130,*65
$GPGGA,134127.0,3206.273455,N,03512.307144,E,1,07,1.0,647.0,M,19.0,M,,*50
$GNGNS,134127.0,3206.273455,N,03512.307144,E,AA,12,1.0,647.0,19.0,,*60
$GPVTG,304.2,T,304.2,M,0.8,N,1.5,K,A*2F
$GPGSA,A,2,02,06,12,15,19,24,29,,,,,,1.2,1.0,0.8*3F
$GNGSA,A,2,02,06,12,15,19,24,29,,,,,,1.2,1.0,0.8*21
$GNGSA,A,2,79,80,81,82,83,,,,,,,,1.2,1.0,0.8*29
$BDGSA,A,2,,,,,,,,,,,,,1.2,1.0,0.8*28
$GPRMC,134127.0,A,3206.273455,N,03512.307144,E,0.8,304.2,030516,0.0,E,A*0E
$GPGSV,3,1,12,02,53,122,32,06,34,059,30,12,54,341,31,14,08,310,27*7E
$GPGSV,3,2,12,15,09,202,29,19,22,043,32,24,74,194,32,25,27,303,30*7A
$GPGSV,3,3,12,29,21,237,34,32,08,307,30,33,,,29,17,,,*70
$GLGSV,2,1,07,78,04,133,14,73,11,323,23,82,78,358,30,80,63,355,24*69
$GLGSV,2,2,07,79,45,118,24,83,38,217,27,81,26,029,26*50
$BDGSV,2,1,05,202,28,116,,203,03,097,,205,45,137,,208,08,039,*65
$BDGSV,2,2,05,210,09,130,*65
$GPGGA,134128.0,3206.272618,N,03512.307809,E,1,07,1.0,643.2,M,19.0,M,,*53
$GNGNS,134128.0,3206.272618,N,03512.307809,E,AA,12,1.0,643.2,19.0,,*63
$GPVTG,304.2,T,304.2,M,0.4,N,0.8,K,A*2F
$GPGSA,A,2,02,06,12,15,19,24,29,,,,,,1.2,1.0,0.8*3F
$GNGSA,A,2,02,06,12,15,19,24,29,,,,,,1.2,1.0,0.8*21
$GNGSA,A,2,79,80,81,82,83,,,,,,,,1.2,1.0,0.8*29
$BDGSA,A,2,,,,,,,,,,,,,1.2,1.0,0.8*28
$GPRMC,134128.0,A,3206.272618,N,03512.307809,E,0.4,304.2,030516,0.0,E,A*07
$GPGSV,3,1,12,02,53,122,34,06,34,059,31,12,54,341,32,14,08,310,23*7E
$GPGSV,3,2,12,15,09,202,28,19,22,043,34,24,74,194,37,25,27,303,28*71
$GPGSV,3,3,12,29,21,237,33,32,08,307,27,33,,,29,17,,,*71
$GLGSV,2,1,07,78,04,133,12,73,11,323,24,82,78,358,28,80,63,355,20*65
$GLGSV,2,2,07,79,45,118,28,83,38,217,32,81,26,029,32*5D
$BDGSV,2,1,05,202,28,116,,203,03,097,,205,45,137,,208,08,039,*65
$BDGSV,2,2,05,210,09,130,*65
$GPGGA,134129.0,3206.274305,N,03512.307685,E,1,08,0.8,643.5,M,19.0,M,,*56
$GNGNS,134129.0,3206.274305,N,03512.307685,E,AA,13,0.8,643.5,19.0,,*68
$GPVTG,10.9,T,10.9,M,1.5,N,2.8,K,A*2D
$GPGSA,A,2,02,06,12,15,19,24,25,29,,,,,1.1,0.8,0.8*32
$GNGSA,A,2,02,06,12,15,19,24,25,29,,,,,1.1,0.8,0.8*2C
$GNGSA,A,2,79,80,81,82,83,,,,,,,,1.1,0.8,0.8*23
$BDGSA,A,2,,,,,,,,,,,,,1.1,0.8,0.8*22
$GPRMC,134129.0,A,3206.274305,N,03512.307685,E,1.5,10.9,030516,0.0,E,A*3E
$GPGSV,3,1,12,02,53,122,34,06,34,059,31,12,54,341,26,14,08,310,23*7B
$GPGSV,3,2,12,15,09,202,28,19,22,043,32,24,74,194,37,25,27,303,29*76
$GPGSV,3,3,12,29,21,237,31,32,08,307,26,33,,,31,17,,,*7B
$GLGSV,2,1,07,78,04,133,12,73,11,323,21,82,78,358,24,80,63,355,22*6E
$GLGSV,2,2,07,79,45,118,29,83,38,217,34,81,26,029,30*58
$BDGSV,2,1,05,205,45,137,25,202,28,116,,203,03,097,,208,08,039,*62
$BDGSV,2,2,05,210,09,130,*65
$GPGGA,134130.0,3206.274638,N,03512.307442,E,1,08,0.8,643.4,M,19.0,M,,*5D
$GNGNS,134130.0,3206.274638,N,03512.307442,E,AA,13,0.8,643.4,19.0,,*63
$GPVTG,10.9,T,10.9,M,1.0,N,1.8,K,A*2B
$GPGSA,A,2,02,06,12,15,19,24,25,29,,,,,1.1,0.8,0.8*32
$GNGSA,A,2,02,06,12,15,19,24,25,29,,,,,1.1,0.8,0.8*2C
$GNGSA,A,2,79,80,81,82,83,,,,,,,,1.1,0.8,0.8*23
$BDGSA,A,2,,,,,,,,,,,,,1.1,0.8,0.8*22
$GPRMC,134130.0,A,3206.274638,N,03512.307442,E,1.0,10.9,030516,0.0,E,A*31
$GPGSV,3,1,12,02,53,122,35,06,34,059,30,12,54,341,34,14,08,310,23*78
$GPGSV,3,2,12,15,09,202,26,19,22,043,28,24,74,194,35,25,27,303,31*78
$GPGSV,3,3,12,29,21,237,31,32,08,307,24,33,,,30,17,,,*78
$GLGSV,2,1,07,78,04,133,12,73,11,323,24,82,78,358,21,80,63,355,21*6D
$GLGSV,2,2,07,79,45,118,25,83,38,217,30,81,26,029,29*58
$BDGSV,2,1,05,205,45,137,24,202,28,116,,203,03,097,,208,08,039,*63
$BDGSV,2,2,05,210,09,130,*65
$GPGGA,134131.0,3206.274123,N,03512.308526,E,1,08,0.8,644.7,M,19.0,M,,*59
$GNGNS,134131.0,3206.274123,N,03512.308526,E,AA,13,0.8,644.7,19.0,,*67
$GPVTG,108.3,T,108.3,M,1.7,N,3.2,K,A*24
$GPGSA,A,2,02,06,12,15,19,24,25,29,,,,,1.1,0.8,0.8*32
$GNGSA,A,2,02,06,12,15,19,24,25,29,,,,,1.1,0.8,0.8*2C
$GNGSA,A,2,79,80,81,82,83,,,,,,,,1.1,0.8,0.8*23
$BDGSA,A,2,,,,,,,,,,,,,1.1,0.8,0.8*22
$GPRMC,134131.0,A,3206.274123,N,03512.308526,E,1.7,108.3,030516,0.0,E,A*04
$GPGSV,4,1,13,02,53,122,34,06,34,059,30,12,54,341,36,14,08,310,23*7D
$GPGSV,4,2,13,15,09,202,30,19,22,043,30,24,74,194,32,25,27,303,27*70
$GPGSV,4,3,13,29,21,237,28,32,08,307,24,33,,,32,40,,,32*77
$GPGSV,4,4,13,17,,,*7D
$GLGSV,2,1,07,78,04,133,12,73,11,323,24,82,78,358,23,80,63,355,28*66
$GLGSV,2,2,07,79,45,118,27,83,38,217,33,81,26,029,33*52
$BDGSV,2,1,05,205,45,137,27,210,09,130,16,202,28,116,,203,03,097,*67
$BDGSV,2,2,05,208,08,039,*65
$GPGGA,134132.0,3206.275375,N,03512.308675,E,1,08,0.8,643.0,M,19.0,M,,*5F
$GNGNS,134132.0,3206.275375,N,03512.308675,E,AA,13,0.8,643.0,19.0,,*61
$GPVTG,6.9,T,6.9,M,1.5,N,2.7,K,A*22
$GPGSA,A,2,02,06,12,15,19,24,25,29,,,,,1.1,0.8,0.8*32
$GNGSA,A,2,02,06,12,15,19,24,25,29,,,,,1.1,0.8,0.8*2C
$GNGSA,A,2,79,80,81,82,83,,,,,,,,1.1,0.8,0.8*23
$BDGSA,A,2,,,,,,,,,,,,,1.1,0.8,0.8*22
$GPRMC,134132.0,A,3206.275375,N,03512.308675,E,1.5,6.9,030516,0.0,E,A*05
$GPGSV,4,1,13,02,53,122,30,06,34,059,34,12,54,341,34,14,08,310,24*78
$GPGSV,4,2,13,15,09,202,22,19,22,043,32,24,74,194,33,25,27,303,28*7F
$GPGSV,4,3,13,29,21,237,32,32,08,307,26,33,,,32,40,,,31*7D
$GPGSV,4,4,13,17,,,*7D
$GLGSV,2,1,07,78,04,133,12,73,11,323,25,82,78,358,23,80,63,355,21*6E
$GLGSV,2,2,07,79,45,118,26,83,38,217,30,81,26,029,28*5A
$BDGSV,2,1,05,205,45,137,27,210,09,130,15,202,28,116,,203,03,097,*64
$BDGSV,2,2,05,208,08,039,*65
$GPGGA,134133.0,3206.275880,N,03512.307998,E,1,08,0.8,643.2,M,19.0,M,,*5E
$GNGNS,134133.0,3206.275880,N,03512.307998,E,AA,13,0.8,643.2,19.0,,*60
$GPVTG,6.9,T,6.9,M,0.9,N,1.6,K,A*2D
$GPGSA,A,2,02,06,12,15,19,24,25,29,,,,,1.1,0.8,0.8*32
$GNGSA,A,2,02,06,12,15,19,24,25,29,,,,,1.1,0.8,0.8*2C
$GNGSA,A,2,79,80,81,82,83,,,,,,,,1.1,0.8,0.8*23
$BDGSA,A,2,,,,,,,,,,,,,1.1,0.8,0.8*22
$GPRMC,134133.0,A,3206.275880,N,03512.307998,E,0.9,6.9,030516,0.0,E,A*0B
$GPGSV,4,1,13,02,53,122,32,06,34,059,30,12,54,341,30,14,08,310,27*79
$GPGSV,4,2,13,15,09,202,29,19,22,043,33,24,74,194,29,25,27,303,30*77
$GPGSV,4,3,13,29,21,237,30,32,08,307,27,33,,,32,40,,,31*7E
$GPGSV,4,4,13,17,,,*7D
$GLGSV,2,1,07,78,04,133,12,73,11,323,27,82,78,358,30,80,63,355,24*6B
$GLGSV,2,2,07,79,45,118,26,83,38,217,26,81,26,029,27*52
$BDGSV,2,1,05,205,45,137,23,210,09,130,15,202,28,116,,203,03,097,*60
$BDGSV,2,2,05,208,08,039,*65
$GPGGA,134134.0,3206.276393,N,03512.307986,E,1,08,0.8,644.3,M,19.0,M,,*5A
$GNGNS,134134.0,3206.276393,N,03512.307986,E,AA,13,0.8,644.3,19.0,,*64
$GPVTG,6.9,T,6.9,M,0.0,N,0.0,K,A*23
$GPGSA,A,2,02,06,12,15,19,24,25,29,,,,,1.1,0.8,0.8*32
$GNGSA,A,2,02,06,12,15,19,24,25,29,,,,,1.1,0.8,0.8*2C
$GNGSA,A,2,79,80,81,82,83,,,,,,,,1.1,0.8,0.8*23
$BDGSA,A,2,,,,,,,,,,,,,1.1,0.8,0.8*22
$GPRMC,134134.0,A,3206.276393,N,03512.307986,E,0.0,6.9,030516,0.0,E,A*00
$GPGSV,4,1,13,02,53,122,30,06,34,059,33,12,54,341,32,14,08,310,25*78
$GPGSV,4,2,13,15,09,202,28,19,22,043,35,24,74,194,32,25,27,303,28*73
$GPGSV,4,3,13,29,21,237,35,32,08,307,28,33,,,29,40,,,29*77
$GPGSV,4,4,13,17,,,*7D
$GLGSV,2,1,07,78,04,133,12,73,11,323,23,82,78,358,26,80,63,355,26*6A
$GLGSV,2,2,07,79,45,118,25,83,38,217,27,81,26,029,30*56
$BDGSV,2,1,05,205,45,137,23,210,09,130,17,202,28,116,,203,03,097,*62
$BDGSV,2,2,05,208,08,039,*65
$GPGGA,134135.0,3206.276526,N,03512.308165,E,1,08,0.8,644.1,M,19.0,M,,*5B
$GNGNS,134135.0,3206.276526,N,03512.308165,E,AA,13,0.8,644.1,19.0,,*65
$GPVTG,6.9,T,6.9,M,1.2,N,2.2,K,A*20
$GPGSA,A,2,02,06,12,15,19,24,25,29,,,,,1.1,0.8,0.8*32
$GNGSA,A,2,02,06,12,15,19,24,25,29,,,,,1.1,0.8,0.8*2C
$GNGSA,A,2,79,80,81,82,83,,,,,,,,1.1,0.8,0.8*23
$BDGSA,A,2,,,,,,,,,,,,,1.1,0.8,0.8*22
$GPRMC,134135.0,A,3206.276526,N,03512.308165,E,1.2,6.9,030516,0.0,E,A*00
$GPGSV,4,1,13,02,53,122,31,06,34,059,32,12,54,341,34,14,08,310,21*7A
$GPGSV,4,2,13,15,09,202,27,19,22,043,35,24,74,194,34,25,27,303,28*7A
$GPGSV,4,3,13,29,21,237,32,32,08,307,24,33,,,29,40,,,30*74
$GPGSV,4,4,13,17,,,*7D
$GLGSV,2,1,07,78,04,133,12,73,11,323,25,82,78,358,25,80,63,355,24*6D
$GLGSV,2,2,07,79,45,118,26,83,38,217,30,81,26,029,30*53
$BDGSV,2,1,05,205,45,137,24,210,09,130,17,202,28,116,,203,03,097,*65
$BDGSV,2,2,05,208,08,039,*65
$GPGGA,134136.0,3206.276810,N,03512.308023,E,1,08,0.8,643.9,M,19.0,M,,*5C
$GNGNS,134136.0,3206.276810,N,03512.308023,E,AA,13,0.8,643.9,19.0,,*62
$GPVTG,6.9,T,6.9,M,1.4,N,2.7,K,A*23
$GPGSA,A,2,02,06,12,15,19,24,25,29,,,,,1.1,0.8,0.8*32
$GNGSA,A,2,02,06,12,15,19,24,25,29,,,,,1.1,0.8,0.8*2C
$GNGSA,A,2,79,80,81,82,83,,,,,,,,1.1,0.8,0.8*23
$BDGSA,A,2,,,,,,,,,,,,,1.1,0.8,0.8*22
$GPRMC,134136.0,A,3206.276810,N,03512.308023,E,1.4,6.9,030516,0.0,E,A*0E
$GPGSV,4,1,13,02,53,122,30,06,34,059,31,12,54,341,39,14,08,310,24*70
$GPGSV,4,2,13,15,09,202,28,19,22,043,32,24,74,194,33,25,27,303,33*7F
$GPGSV,4,3,13,29,21,237,30,32,08,307,25,33,,,29,40,,,32*75
$GPGSV,4,4,13,17,,,*7D
$GLGSV,2,1,07,78,04,133,12,73,11,323,28,82,78,358,24,80,63,355,28*6D
$GLGSV,2,2,07,79,45,118,23,83,38,217,27,81,26,029,28*59
$BDGSV,2,1,05,205,45,137,24,210,09,130,16,202,28,116,,203,03,097,*64
$BDGSV,2,2,05,208,08,039,*65
$GPGGA,134137.0,3206.277395,N,03512.307778,E,1,08,0.8,644.7,M,19.0,M,,*55
$GNGNS,134137.0,3206.277395,N,03512.307778,E,AA,13,0.8,644.7,19.0,,*6B
$GPVTG,6.9,T,6.9,M,2.0,N,3.8,K,A*2A
$GPGSA,A,2,02,06,12,15,19,24,25,29,,,,,1.1,0.8,0.8*32
$GNGSA,A,2,02,06,12,15,19,24,25,29,,,,,1.1,0.8,0.8*2C
$GNGSA,A,2,79,80,81,82,83,,,,,,,,1.1,0.8,0.8*23
$BDGSA,A,2,,,,,,,,,,,,,1.1,0.8,0.8*22
$GPRMC,134137.0,A,3206.277395,N,03512.307778,E,2.0,6.9,030516,0.0,E,A*09
$GPGSV,4,1,13,02,53,122,28,06,34,059,30,12,54,341,40,14,08,310,25*77
$GPGSV,4,2,13,15,09,202,27,19,22,043,34,24,74,194,32,25,27,303,32*76
$GPGSV,4,3,13,29,21,237,30,32,08,307,24,33,,,29,40,,,32*74
$GPGSV,4,4,13,17,,,*7D
$GLGSV,2,1,07,78,04,133,12,73,11,323,28,82,78,358,30,80,63,355,30*61
$GLGSV,2,2,07,79,45,118,24,83,38,217,27,81,26,029,28*5E
$BDGSV,2,1,05,205,45,137,23,210,09,130,18,202,28,116,,203,03,097,*6D
$BDGSV,2,2,05,208,08,039,*65
$GPGGA,134138.0,3206.278291,N,03512.307663,E,1,08,0.8,644.3,M,19.0,M,,*5F
$GNGNS,134138.0,3206.278291,N,03512.307663,E,AA,13,0.8,644.3,19.0,,*61
$GPVTG,0.6,T,0.6,M,2.1,N,4.0,K,A*24
$GPGSA,A,2,02,06,12,15,19,24,25,29,,,,,1.1,0.8,0.8*32
$GNGSA,A,2,02,06,12,15,19,24,25,29,,,,,1.1,0.8,0.8*2C
$GNGSA,A,2,79,80,81,82,83,,,,,,,,1.1,0.8,0.8*23
$BDGSA,A,2,,,,,,,,,,,,,1.1,0.8,0.8*22
$GPRMC,134138.0,A,3206.278291,N,03512.307663,E,2.1,0.6,030516,0.0,E,A*0F
$GPGSV,4,1,13,02,53,122,31,06,34,059,31,12,54,341,41,14,08,310,24*7E
$GPGSV,4,2,13,15,09,202,27,19,22,043,33,24,74,194,34,25,27,303,35*70
$GPGSV,4,3,13,29,21,237,31,32,08,307,29,33,,,29,40,,,32*78
$GPGSV,4,4,13,17,,,*7D
$GLGSV,2,1,07,78,04,133,12,73,11,323,29,82,78,358,34,80,63,355,29*6C
$GLGSV,2,2,07,79,45,118,26,83,38,217,28,81,26,029,28*53
$BDGSV,2,1,05,205,45,137,23,210,09,130,18,202,28,116,,203,03,097,*6D
$BDGSV,2,2,05,208,08,039,*65
$GPGGA,134139.0,3206.279316,N,03512.307636,E,1,08,0.8,644.2,M,19.0,M,,*50
$GNGNS,134139.0,3206.279316,N,03512.307636,E,AA,13,0.8,644.2,19.0,,*6E
$GPVTG,357.1,T,357.1,M,1.9,N,3.5,K,A*2D
$GPGSA,A,2,02,06,12,15,19,24,25,29,,,,,1.1,0.8,0.8*32
$GNGSA,A,2,02,06,12,15,19,24,25,29,,,,,1.1,0.8,0.8*2C
$GNGSA,A,2,79,80,81,82,83,,,,,,,,1.1,0.8,0.8*23
$BDGSA,A,2,,,,,,,,,,,,,1.1,0.8,0.8*22
$GPRMC,134139.0,A,3206.279316,N,03512.307636,E,1.9,357.1,030516,0.0,E,A*0C
$GPGSV,4,1,13,02,53,122,28,06,34,059,29,12,54,341,40,14,08,310,25*7F
$GPGSV,4,2,13,15,09,202,28,19,22,043,36,24,74,194,34,25,27,303,36*79
$GPGSV,4,3,13,29,21,237,30,32,08,307,31,33,,,29,40,,,29*7A
$GPGSV,4,4,13,17,,,*7D
$GLGSV,2,1,07,78,04,133,12,73,11,323,25,82,78,358,32,80,63,355,29*66
$GLGSV,2,2,07,79,45,118,23,83,38,217,30,81,26,029,31*57
$BDGSV,2,1,05,205,45,137,23,210,09,130,15,202,28,116,,203,03,097,*60
$BDGSV,2,2,05,208,08,039,*65
$GPGGA,134140.0,3206.280569,N,03512.307775,E,1,08,0.8,643.6,M,19.0,M,,*53
$GNGNS,134140.0,3206.280569,N,03512.307775,E,AA,13,0.8,643.6,19.0,,*6D
$GPVTG,0.6,T,0.6,M,1.9,N,3.5,K,A*2D
$GPGSA,A,2,02,06,12,15,19,24,25,29,,,,,1.1,0.8,0.8*32
$GNGSA,A,2,02,06,12,15,19,24,25,29,,,,,1.1,0.8,0.8*2C
$GNGSA,A,2,79,80,81,82,83,,,,,,,,1.1,0.8,0.8*23
$BDGSA,A,2,,,,,,,,,,,,,1.1,0.8,0.8*22
$GPRMC,134140.0,A,3206.280569,N,03512.307775,E,1.9,0.6,030516,0.0,E,A*0A
$GPGSV,4,1,13,02,53,122,27,06,34,059,35,12,54,341,41,14,08,310,26*7F
$GPGSV,4,2,13,15,09,202,26,19,22,043,38,24,74,194,36,25,27,303,37*7A
$GPGSV,4,3,13,29,21,237,31,32,08,307,28,33,,,31,40,,,30*72
$GPGSV,4,4,13,17,,,*7D
$GLGSV,2,1,07,78,04,133,12,73,11,323,30,82,78,358,31,80,63,355,29*61
$GLGSV,2,2,07,79,45,118,27,83,38,217,31,81,26,029,32*51
$BDGSV,2,1,05,205,45,137,25,210,09,130,15,202,28,116,,203,03,097,*66
$BDGSV,2,2,05,208,08,039,*65
$GPGGA,134141.0,3206.281033,N,03512.307914,E,1,08,0.8,642.0,M,19.0,M,,*57
$GNGNS,134141.0,3206.281033,N,03512.307914,E,AA,13,0.8,642.0,19.0,,*69
$GPVTG,0.6,T,0.6,M,1.4,N,2.7,K,A*23
$GPGSA,A,2,02,06,12,15,19,24,25,29,,,,,1.1,0.8,0.8*32
$GNGSA,A,2,02,06,12,15,19,24,25,29,,,,,1.1,0.8,0.8*2C
$GNGSA,A,2,79,80,81,82,83,,,,,,,,1.1,0.8,0.8*23
$BDGSA,A,2,,,,,,,,,,,,,1.1,0.8,0.8*22
$GPRMC,134141.0,A,3206.281033,N,03512.307914,E,1.4,0.6,030516,0.0,E,A*04
$GPGSV,4,1,13,02,53,122,31,06,34,059,36,12,54,341,43,14,08,310,20*7F
$GPGSV,4,2,13,15,09,202,27,19,22,043,39,24,74,194,39,25,27,303,39*7B
$GPGSV,4,3,13,29,21,237,29,32,08,307,26,33,,,31,40,,,29*7D
$GPGSV,4,4,13,17,,,*7D
$GLGSV,2,1,07,78,04,133,12,73,11,323,30,82,78,358,33,80,63,355,30*6B
$GLGSV,2,2,07,79,45,118,27,83,38,217,29,81,26,029,35*5F
$BDGSV,2,1,05,205,45,137,27,210,09,130,16,202,28,116,,203,03,097,*67
$BDGSV,2,2,05,208,08,039,*65
$GPGGA,134142.0,3206.281117,N,03512.308374,E,1,08,0.8,641.7,M,19.0,M,,*54
$GNGNS,134142.0,3206.281117,N,03512.308374,E,AA,13,0.8,641.7,19.0,,*6A
$GPVTG,0.6,T,0.6,M,0.7,N,1.2,K,A*27
$GPGSA,A,2,02,06,12,15,19,24,25,29,,,,,1.1,0.8,0.8*32
$GNGSA,A,2,02,06,12,15,19,24,25,29,,,,,1.1,0.8,0.8*2C
$GNGSA,A,2,79,80,81,82,83,,,,,,,,1.1,0.8,0.8*23
$BDGSA,A,2,,,,,,,,,,,,,1.1,0.8,0.8*22
$GPRMC,134142.0,A,3206.281117,N,03512.308374,E,0.7,0.6,030516,0.0,E,A*01
$GPGSV,4,1,13,02,53,122,34,06,34,059,41,12,54,341,42,14,08,310,25*7E
$GPGSV,4,2,13,15,09,202,27,19,22,043,39,24,74,194,37,25,27,303,36*7A
$GPGSV,4,3,13,29,21,237,28,32,08,307,26,33,,,31,40,,,32*76
$GPGSV,4,4,13,17,,,*7D
$GLGSV,2,1,07,78,04,133,12,73,11,323,26,82,78,358,30,80,63,355,29*67
$GLGSV,2,2,07,79,45,118,23,83,38,217,28,81,26,029,33*5C
$BDGSV,2,1,05,205,45,137,29,210,09,130,16,202,28,116,,203,03,097,*69
$BDGSV,2,2,05,208,08,039,*65
$GPGGA,134143.0,3206.281279,N,03512.308461,E,1,07,1.0,641.5,M,19.0,M,,*59
$GNGNS,134143.0,3206.281279,N,03512.308461,E,AA,12,1.0,641.5,19.0,,*69
$GPVTG,0.6,T,0.6,M,0.5,N,1.0,K,A*27
$GPGSA,A,2,02,06,12,15,19,24,29,,,,,,1.2,1.0,0.8*3F
$GNGSA,A,2,02,06,12,15,19,24,29,,,,,,1.2,1.0,0.8*21
$GNGSA,A,2,79,80,81,82,83,,,,,,,,1.2,1.0,0.8*29
$BDGSA,A,2,,,,,,,,,,,,,1.2,1.0,0.8*28
$GPRMC,134143.0,A,3206.281279,N,03512.308461,E,0.5,0.6,030516,0.0,E,A*0A
$GPGSV,4,1,13,02,53,122,34,06,34,059,39,12,54,341,43,14,08,310,28*7D
$GPGSV,4,2,13,15,09,202,26,19,22,043,36,24,74,194,35,25,27,303,36*76
$GPGSV,4,3,13,29,21,237,33,32,08,307,24,33,,,31,40,,,32*7E
$GPGSV,4,4,13,17,,,*7D
$GLGSV,2,1,07,78,04,133,12,73,11,323,32,82,78,358,30,80,63,355,30*6A
$GLGSV,2,2,07,79,45,118,28,83,38,217,26,81,26,029,33*59
$BDGSV,2,1,05,205,45,137,25,210,09,130,16,202,28,116,,203,03,097,*65
$BDGSV,2,2,05,208,08,039,*65
$GPGGA,134144.0,3206.282135,N,03512.308966,E,1,07,1.0,641.2,M,19.0,M,,*5B
$GNGNS,134144.0,3206.282135,N,03512.308966,E,AA,12,1.0,641.2,19.0,,*6B
$GPVTG,46.6,T,46.6,M,2.0,N,3.8,K,A*2A
$GPGSA,A,2,02,06,12,15,19,24,29,,,,,,1.2,1.0,0.8*3F
$GNGSA,A,2,02,06,12,15,19,24,29,,,,,,1.2,1.0,0.8*21
$GNGSA,A,2,79,80,81,82,83,,,,,,,,1.2,1.0,0.8*29
$BDGSA,A,2,,,,,,,,,,,,,1.2,1.0,0.8*28
$GPRMC,134144.0,A,3206.282135,N,03512.308966,E,2.0,46.6,030516,0.0,E,A*3A
$GPGSV,4,1,13,02,53,122,38,06,34,059,40,12,54,341,42,14,08,310,27*71
$GPGSV,4,2,13,15,09,202,28,19,22,043,37,24,74,194,34,25,27,303,34*7A
$GPGSV,4,3,13,29,21,237,30,32,08,307,27,33,,,31,40,,,32*7E
$GPGSV,4,4,13,17,,,*7D
$GLGSV,2,1,07,78,04,133,12,73,11,323,29,82,78,358,32,80,63,355,32*60
$GLGSV,2,2,07,79,45,118,29,83,38,217,29,81,26,029,31*55
$BDGSV,2,1,05,205,45,137,28,210,09,130,14,202,28,116,,203,03,097,*6A
$BDGSV,2,2,05,208,08,039,*65
$GPGGA,134145.0,3206.282675,N,03512.309600,E,1,07,1.0,641.0,M,19.0,M,,*55
$GNGNS,134145.0,3206.282675,N,03512.309600,E,AA,12,1.0,641.0,19.0,,*65
$GPVTG,46.6,T,46.6,M,1.2,N,2.2,K,A*20
$GPGSA,A,2,02,06,12,15,19,24,29,,,,,,1.2,1.0,0.8*3F
$GNGSA,A,2,02,06,12,15,19,24,29,,,,,,1.2,1.0,0.8*21
$GNGSA,A,2,79,80,81,82,83,,,,,,,,1.2,1.0,0.8*29
$BDGSA,A,2,,,,,,,,,,,,,1.2,1.0,0.8*28
$GPRMC,134145.0,A,3206.282675,N,03512.309600,E,1.2,46.6,030516,0.0,E,A*37
$GPGSV,4,1,13,02,53,122,40,06,34,059,41,12,54,341,42,14,08,310,24*7C
$GPGSV,4,2,13,15,09,202,22,19,22,043,36,24,74,194,36,25,27,303,35*72
$GPGSV,4,3,13,29,21,237,28,32,08,307,27,33,,,31,40,,,33*76
$GPGSV,4,4,13,17,,,*7D
$GLGSV,2,1,07,78,04,133,12,73,11,323,25,82,78,358,33,80,63,355,32*6D
$GLGSV,2,2,07,79,45,118,31,83,38,217,29,81,26,029,30*5D
$BDGSV,2,1,05,205,45,137,30,210,09,130,18,202,28,116,,203,03,097,*6F
$BDGSV,2,2,05,208,08,039,*65
$GPGGA,134146.0,3206.282965,N,03512.309942,E,1,07,1.0,641.0,M,19.0,M,,*51
$GNGNS,134146.0,3206.282965,N,03512.309942,E,AA,12,1.0,641.0,19.0,,*61
$GPVTG,80.3,T,80.3,M,1.6,N,2.9,K,A*2F
$GPGSA,A,2,02,06,12,15,19,24,29,,,,,,1.2,1.0,0.8*3F
$GNGSA,A,2,02,06,12,15,19,24,29,,,,,,1.2,1.0,0.8*21
$GNGSA,A,2,79,80,81,82,83,,,,,,,,1.2,1.0,0.8*29
$BDGSA,A,2,,,,,,,,,,,,,1.2,1.0,0.8*28
$GPRMC,134146.0,A,3206.282965,N,03512.309942,E,1.6,80.3,030516,0.0,E,A*38
$GPGSV,4,1,13,02,53,122,39,06,34,059,40,12,54,341,41,14,08,310,28*7C
$GPGSV,4,2,13,15,09,202,25,19,22,043,37,24,74,194,38,25,27,303,39*76
$GPGSV,4,3,13,29,21,237,30,32,08,307,31,33,,,31,40,,,33*78
$GPGSV,4,4,13,17,,,*7D
$GLGSV,2,1,07,78,04,133,12,73,11,323,25,82,78,358,34,80,63,355,30*68
$GLGSV,2,2,07,79,45,118,31,83,38,217,28,81,26,029,32*5E
$BDGSV,2,1,05,205,45,137,30,210,09,130,17,202,28,116,,203,03,097,*60
$BDGSV,2,2,05,208,08,039,*65
$GPGGA,134147.0,3206.283509,N,03512.310378,E,1,07,1.0,640.2,M,19.0,M,,*5F
$GNGNS,134147.0,3206.283509,N,03512.310378,E,AA,12,1.0,640.2,19.0,,*6F
$GPVTG,78.7,T,78.7,M,1.7,N,3.1,K,A*27
$GPGSA,A,2,02,06,12,15,19,24,29,,,,,,1.2,1.0,0.8*3F
$GNGSA,A,2,02,06,12,15,19,24,29,,,,,,1.2,1.0,0.8*21
$GNGSA,A,2,79,80,81,82,83,,,,,,,,1.2,1.0,0.8*29
$BDGSA,A,2,,,,,,,,,,,,,1.2,1.0,0.8*28
$GPRMC,134147.0,A,3206.283509,N,03512.310378,E,1.7,78.7,030516,0.0,E,A*37
$GPGSV,4,1,13,02,53,122,39,06,34,059,39,12,54,341,42,14,08,310,28*71
$GPGSV,4,2,13,15,09,202,21,19,22,043,36,24,74,194,41,25,27,303,40*73
$GPGSV,4,3,13,29,21,237,32,32,08,307,33,33,,,31,40,,,32*79
$GPGSV,4,4,13,17,,,*7D
$GLGSV,2,1,07,78,04,133,12,73,11,323,22,82,78,358,32,80,63,355,31*68
$GLGSV,2,2,07,79,45,118,30,83,38,217,27,81,26,029,33*51
$BDGSV,2,1,05,205,45,137,29,210,09,130,16,202,28,116,,203,03,097,*69
$BDGSV,2,2,05,208,08,039,*65
$GPGGA,134148.0,3206.283712,N,03512.310939,E,1,07,1.0,640.2,M,19.0,M,,*57
$GNGNS,134148.0,3206.283712,N,03512.310939,E,AA,12,1.0,640.2,19.0,,*67
$GPVTG,75.2,T,75.2,M,1.6,N,2.9,K,A*2F
$GPGSA,A,2,02,06,12,15,19,24,29,,,,,,1.2,1.0,0.8*3F
$GNGSA,A,2,02,06,12,15,19,24,29,,,,,,1.2,1.0,0.8*21
$GNGSA,A,2,79,80,81,82,83,,,,,,,,1.2,1.0,0.8*29
$BDGSA,A,2,,,,,,,,,,,,,1.2,1.0,0.8*28
$GPRMC,134148.0,A,3206.283712,N,03512.310939,E,1.6,75.2,030516,0.0,E,A*36
$GPGSV,4,1,13,02,53,122,37,06,34,059,40,12,54,341,41,14,08,310,28*72
$GPGSV,4,2,13,15,09,202,27,19,22,043,34,24,74,194,39,25,27,303,41*79
$GPGSV,4,3,13,29,21,237,29,32,08,307,31,33,,,31,40,,,30*73
$GPGSV,4,4,13,17,,,*7D
$GLGSV,2,1,07,78,04,133,12,73,11,323,20,82,78,358,33,80,63,355,32*68
$GLGSV,2,2,07,79,45,118,32,83,38,217,26,81,26,029,28*58
$BDGSV,2,1,05,205,45,137,26,210,09,130,16,202,28,116,,203,03,097,*66
$BDGSV,2,2,05,208,08,039,*65
$GPGGA,134149.0,3206.284117,N,03512.311465,E,1,07,1.0,640.5,M,19.0,M,,*50
$GNGNS,134149.0,3206.284117,N,03512.311465,E,AA,12,1.0,640.5,19.0,,*60
$GPVTG,75.6,T,75.6,M,2.1,N,3.8,K,A*2B
$GPGSA,A,2,02,06,12,15,19,24,29,,,,,,1.2,1.0,0.8*3F
$GNGSA,A,2,02,06,12,15,19,24,29,,,,,,1.2,1.0,0.8*21
$GNGSA,A,2,79,80,81,82,83,,,,,,,,1.2,1.0,0.8*29
$BDGSA,A,2,,,,,,,,,,,,,1.2,1.0,0.8*28
$GPRMC,134149.0,A,3206.284117,N,03512.311465,E,2.1,75.6,030516,0.0,E,A*36
$GPGSV,4,1,13,02,53,122,38,06,34,059,40,12,54,341,43,14,08,310,24*73
$GPGSV,4,2,13,15,09,202,21,19,22,043,38,24,74,194,39,25,27,303,41*73
$GPGSV,4,3,13,29,21,237,22,32,08,307,24,33,,,31,40,,,35*79
$GPGSV,4,4,13,17,,,*7D
$GLGSV,2,1,07,73,11,323,22,82,78,358,33,80,63,355,32,79,45,118,32*65
$GLGSV,2,2,07,83,38,217,26,81,26,029,30,,04,133,*52
$BDGSV,2,1,05,205,45,137,30,210,09,130,17,202,28,116,,203,03,097,*60
$BDGSV,2,2,05,208,08,039,*65
$GPGGA,134150.0,3206.284309,N,03512.311898,E,1,07,1.0,640.5,M,19.0,M,,*5B
$GNGNS,134150.0,3206.284309,N,03512.311898,E,AA,12,1.0,640.5,19.0,,*6B
$GPVTG,84.3,T,84.3,M,1.8,N,3.3,K,A*2A
$GPGSA,A,2,02,06,12,15,19,24,29,,,,,,1.2,1.0,0.8*3F
$GNGSA,A,2,02,06,12,15,19,24,29,,,,,,1.2,1.0,0.8*21
$GNGSA,A,2,79,80,81,82,83,,,,,,,,1.2,1.0,0.8*29
$BDGSA,A,2,,,,,,,,,,,,,1.2,1.0,0.8*28
$GPRMC,134150.0,A,3206.284309,N,03512.311898,E,1.8,84.3,030516,0.0,E,A*3C
$GPGSV,4,1,13,02,53,122,35,06,34,059,38,12,54,341,40,15,09,202,22*76
$GPGSV,4,2,13,19,22,043,40,24,74,194,39,25,27,303,39,29,21,237,25*74
$GPGSV,4,3,13,32,08,307,28,33,,,31,40,,,30,14,08,310,*71
$GPGSV,4,4,13,17,,,*7D
$GLGSV,2,1,07,73,11,323,22,82,78,358,31,80,63,355,29,79,45,118,27*69
$GLGSV,2,2,07,83,38,217,28,81,26,029,30,78,04,133,*53
$BDGSV,2,1,05,205,45,137,30,210,09,130,17,202,28,116,,203,03,097,*60
$BDGSV,2,2,05,208,08,039,*65
$GPGGA,134151.0,3206.284404,N,03512.312431,E,1,07,1.0,640.2,M,19.0,M,,*5B
$GNGNS,134151.0,3206.284404,N,03512.312431,E,AA,12,1.0,640.2,19.0,,*6B
$GPVTG,84.3,T,84.3,M,1.4,N,2.6,K,A*22
$GPGSA,A,2,02,06,12,15,19,24,29,,,,,,1.2,1.0,0.8*3F
$GNGSA,A,2,02,06,12,15,19,24,29,,,,,,1.2,1.0,0.8*21
$GNGSA,A,2,79,80,81,82,83,,,,,,,,1.2,1.0,0.8*29
$BDGSA,A,2,,,,,,,,,,,,,1.2,1.0,0.8*28
$GPRMC,134151.0,A,3206.284404,N,03512.312431,E,1.4,84.3,030516,0.0,E,A*37
$GPGSV,4,1,13,02,53,122,32,06,34,059,33,12,54,341,42,14,08,310,20*78
$GPGSV,4,2,13,15,09,202,22,19,22,043,37,24,74,194,39,25,27,303,39*70
$GPGSV,4,3,13,29,21,237,26,32,08,307,21,33,,,31,40,,,30*7D
$GPGSV,4,4,13,17,,,*7D
$GLGSV,2,1,07,73,11,323,22,82,78,358,33,80,63,355,30,79,45,118,26*62
$GLGSV,2,2,07,83,38,217,30,81,26,029,33,78,04,133,*59
$BDGSV,2,1,05,205,45,137,29,210,09,130,15,202,28,116,,203,03,097,*6A
$BDGSV,2,2,05,208,08,039,*65
$GPGGA,134152.0,3206.284622,N,03512.313013,E,1,07,1.0,640.5,M,19.0,M,,*5C
$GNGNS,134152.0,3206.284622,N,03512.313013,E,AA,12,1.0,640.5,19.0,,*6C
$GPVTG,84.3,T,84.3,M,1.4,N,2.5,K,A*21
$GPGSA,A,2,02,06,12,15,19,24,29,,,,,,1.2,1.0,0.8*3F
$GNGSA,A,2,02,06,12,15,19,24,29,,,,,,1.2,1.0,0.8*21
$GNGSA,A,2,79,80,81,82,83,,,,,,,,1.2,1.0,0.8*29
$BDGSA,A,2,,,,,,,,,,,,,1.2,1.0,0.8*28
$GPRMC,134152.0,A,3206.284622,N,03512.313013,E,1.4,84.3,030516,0.0,E,A*37
$GPGSV,4,1,13,02,53,122,34,06,34,059,32,12,54,341,39,14,08,310,22*71
$GPGSV,4,2,13,15,09,202,21,19,22,043,28,24,74,194,35,25,27,303,38*70
$GPGSV,4,3,13,29,21,237,32,32,08,307,23,33,,,31,40,,,34*7E
$GPGSV,4,4,13,17,,,*7D
$GLGSV,2,1,07,73,11,323,18,82,78,358,33,80,63,355,29,79,45,118,28*6D
$GLGSV,2,2,07,83,38,217,32,81,26,029,27,78,04,133,*5E
$BDGSV,2,1,05,205,45,137,28,210,09,130,15,202,28,116,,203,03,097,*6B
$BDGSV,2,2,05,208,08,039,*65
$GPGGA,134153.0,3206.284440,N,03512.312859,E,1,07,1.0,639.5,M,19.0,M,,*52
$GNGNS,134153.0,3206.284440,N,03512.312859,E,AA,12,1.0,639.5,19.0,,*62
$GPVTG,84.3,T,84.3,M,0.9,N,1.7,K,A*2C
$GPGSA,A,2,02,06,12,15,19,24,29,,,,,,1.2,1.0,0.8*3F
$GNGSA,A,2,02,06,12,15,19,24,29,,,,,,1.2,1.0,0.8*21
$GNGSA,A,2,79,80,81,82,83,,,,,,,,1.2,1.0,0.8*29
$BDGSA,A,2,,,,,,,,,,,,,1.2,1.0,0.8*28
$GPRMC,134153.0,A,3206.284440,N,03512.312859,E,0.9,84.3,030516,0.0,E,A*3B
$GPGSV,4,1,13,02,53,122,34,06,34,059,37,12,54,341,42,14,08,310,20*7A
$GPGSV,4,2,13,15,09,202,24,19,22,043,32,24,74,194,39,25,27,303,35*7F
$GPGSV,4,3,13,29,21,237,25,32,08,307,22,33,,,31,40,,,35*78
$GPGSV,4,4,13,17,,,*7D
$GLGSV,2,1,07,73,11,323,18,82,78,358,35,80,63,355,33,79,45,118,28*60
$GLGSV,2,2,07,83,38,217,33,81,26,029,29,78,04,133,*51
$BDGSV,2,1,05,205,45,137,28,210,09,130,15,202,28,116,,203,03,097,*6B
$BDGSV,2,2,05,208,08,039,*65
$GPGGA,134154.0,3206.284442,N,03512.313126,E,1,07,1.0,639.3,M,19.0,M,,*51
$GNGNS,134154.0,3206.284442,N,03512.313126,E,AA,12,1.0,639.3,19.0,,*61
$GPVTG,75.7,T,75.7,M,1.5,N,2.9,K,A*2C
$GPGSA,A,2,02,06,12,15,19,24,29,,,,,,1.2,1.0,0.8*3F
$GNGSA,A,2,02,06,12,15,19,24,29,,,,,,1.2,1.0,0.8*21
$GNGSA,A,2,79,80,81,82,83,,,,,,,,1.2,1.0,0.8*29
$BDGSA,A,2,,,,,,,,,,,,,1.2,1.0,0.8*28
$GPRMC,134154.0,A,3206.284442,N,03512.313126,E,1.5,75.7,030516,0.0,E,A*39
$GPGSV,4,1,13,02,53,122,33,06,34,059,34,12,54,341,40,15,09,202,26*78
$GPGSV,4,2,13,19,22,043,34,24,74,194,33,25,27,303,37,29,21,237,26*70
$GPGSV,4,3,13,32,08,307,21,33,,,31,40,,,31,14,08,310,*79
$GPGSV,4,4,13,17,,,*7D
$GLGSV,2,1,07,73,11,323,19,82,78,358,35,80,63,355,32,79,45,118,27*6F
$GLGSV,2,2,07,83,38,217,34,81,26,029,33,78,04,133,*5D
$BDGSV,2,1,05,205,45,137,25,210,09,130,15,202,28,116,,203,03,097,*66
$BDGSV,2,2,05,208,08,039,*65
$GPGGA,134155.0,3206.284273,N,03512.313136,E,1,07,1.0,638.2,M,19.0,M,,*55
$GNGNS,134155.0,3206.284273,N,03512.313136,E,AA,12,1.0,638.2,19.0,,*65
$GPVTG,75.7,T,75.7,M,0.8,N,1.6,K,A*2C
$GPGSA,A,2,02,06,12,15,19,24,29,,,,,,1.2,1.0,0.8*3F
$GNGSA,A,2,02,06,12,15,19,24,29,,,,,,1.2,1.0,0.8*21
$GNGSA,A,2,79,80,81,82,83,,,,,,,,1.2,1.0,0.8*29
$BDGSA,A,2,,,,,,,,,,,,,1.2,1.0,0.8*28
$GPRMC,134155.0,A,3206.284273,N,03512.313136,E,0.8,75.7,030516,0.0,E,A*31
$GPGSV,4,1,13,02,53,122,33,06,34,059,36,12,54,341,41,15,09,202,22*7F
$GPGSV,4,2,13,19,22,043,36,24,74,194,35,25,27,303,36,29,21,237,24*77
$GPGSV,4,3,13,32,08,307,21,33,,,31,40,,,31,14,08,310,*79
$GPGSV,4,4,13,17,,,*7D
$GLGSV,2,1,07,73,11,323,20,82,78,358,33,80,63,355,31,79,45,118,27*60
$GLGSV,2,2,07,83,38,217,31,81,26,029,34,78,04,133,*5F
$BDGSV,2,1,05,205,45,137,25,210,09,130,15,202,28,116,,203,03,097,*66
$BDGSV,2,2,05,208,08,039,*65
$GPGGA,134156.0,3206.284574,N,03512.313851,E,1,07,1.0,638.0,M,19.0,M,,*5C
$GNGNS,134156.0,3206.284574,N,03512.313851,E,AA,12,1.0,638.0,19.0,,*6C
$GPVTG,71.4,T,71.4,M,1.5,N,2.7,K,A*22
$GPGSA,A,2,02,06,12,15,19,24,29,,,,,,1.2,1.0,0.8*3F
$GNGSA,A,2,02,06,12,15,19,24,29,,,,,,1.2,1.0,0.8*21
$GNGSA,A,2,79,80,81,82,83,,,,,,,,1.2,1.0,0.8*29
$BDGSA,A,2,,,,,,,,,,,,,1.2,1.0,0.8*28
$GPRMC,134156.0,A,3206.284574,N,03512.313851,E,1.5,71.4,030516,0.0,E,A*31
$GPGSV,4,1,13,02,53,122,36,06,34,059,38,12,54,341,41,14,08,310,18*7F
$GPGSV,4,2,13,15,09,202,23,19,22,043,39,24,74,194,40,25,27,303,35*7D
$GPGSV,4,3,13,29,21,237,29,32,08,307,21,33,,,31,40,,,35*77
$GPGSV,4,4,13,17,,,*7D
$GLGSV,2,1,07,73,11,323,22,82,78,358,33,80,63,355,32,79,45,118,30*67
$GLGSV,2,2,07,83,38,217,36,81,26,029,34,78,04,133,*58
$BDGSV,2,1,05,205,45,137,27,210,09,130,15,202,28,116,,203,03,097,*64
$BDGSV,2,2,05,208,08,039,*65
$GPGGA,134157.0,3206.284483,N,03512.314314,E,1,07,1.0,637.3,M,19.0,M,,*55
$GNGNS,134157.0,3206.284483,N,03512.314314,E,AA,12,1.0,637.3,19.0,,*65
$GPVTG,87.0,T,87.0,M,1.8,N,3.3,K,A*2A
$GPGSA,A,2,02,06,12,15,19,24,29,,,,,,1.2,1.0,0.8*3F
$GNGSA,A,2,02,06,12,15,19,24,29,,,,,,1.2,1.0,0.8*21
$GNGSA,A,2,79,80,81,82,83,,,,,,,,1.2,1.0,0.8*29
$BDGSA,A,2,,,,,,,,,,,,,1.2,1.0,0.8*28
$GPRMC,134157.0,A,3206.284483,N,03512.314314,E,1.8,87.0,030516,0.0,E,A*34
$GPGSV,4,1,13,02,53,122,39,06,34,059,40,12,54,341,43,14,08,310,19*7C
$GPGSV,4,2,13,15,09,202,23,19,22,043,36,24,74,194,40,25,27,303,35*72
$GPGSV,4,3,13,29,21,237,32,32,08,307,24,33,,,31,40,,,34*79
$GPGSV,4,4,13,17,,,*7D
$GLGSV,2,1,07,73,11,323,20,82,78,358,33,80,63,355,31,79,45,118,30*66
$GLGSV,2,2,07,83,38,217,32,81,26,029,32,78,04,133,*5A
$BDGSV,2,1,05,205,45,137,30,210,09,130,15,202,28,116,,203,03,097,*62
$BDGSV,2,2,05,208,08,039,*65
$GPGGA,134158.0,3206.284694,N,03512.314973,E,1,07,1.0,637.6,M,19.0,M,,*50
$GNGNS,134158.0,3206.284694,N,03512.314973,E,AA,12,1.0,637.6,19.0,,*60
$GPVTG,87.5,T,87.5,M,1.7,N,3.1,K,A*27
$GPGSA,A,2,02,06,12,15,19,24,29,,,,,,1.2,1.0,0.8*3F
$GNGSA,A,2,02,06,12,15,19,24,29,,,,,,1.2,1.0,0.8*21
$GNGSA,A,2,79,80,81,82,83,,,,,,,,1.2,1.0,0.8*29
$BDGSA,A,2,,,,,,,,,,,,,1.2,1.0,0.8*28
$GPRMC,134158.0,A,3206.284694,N,03512.314973,E,1.7,87.5,030516,0.0,E,A*3E
$GPGSV,4,1,13,02,53,122,35,06,34,059,43,12,54,341,40,14,08,310,19*70
$GPGSV,4,2,13,15,09,202,23,19,22,043,39,24,74,194,41,25,27,303,34*7D
$GPGSV,4,3,13,29,21,237,32,32,08,307,21,33,,,31,40,,,30*78
$GPGSV,4,4,13,17,,,*7D
$GLGSV,2,1,07,73,11,323,21,82,78,358,33,80,63,355,31,79,45,118,28*6E
$GLGSV,2,2,07,83,38,217,32,81,26,029,32,78,04,133,*5A
$BDGSV,2,1,05,205,45,137,26,210,09,130,15,202,28,116,,203,03,097,*65
$BDGSV,2,2,05,208,08,039,*65
$GPGGA,134159.0,3206.284834,N,03512.315671,E,1,07,1.0,637.9,M,19.0,M,,*56
$GNGNS,134159.0,3206.284834,N,03512.315671,E,AA,12,1.0,637.9,19.0,,*66
$GPVTG,87.4,T,87.4,M,1.8,N,3.3,K,A*2A
$GPGSA,A,2,02,06,12,15,19,24,29,,,,,,1.2,1.0,0.8*3F
$GNGSA,A,2,02,06,12,15,19,24,29,,,,,,1.2,1.0,0.8*21
$GNGSA,A,2,79,80,81,82,83,,,,,,,,1.2,1.0,0.8*29
$BDGSA,A,2,,,,,,,,,,,,,1.2,1.0,0.8*28
$GPRMC,134159.0,A,3206.284834,N,03512.315671,E,1.8,87.4,030516,0.0,E,A*39
$GPGSV,4,1,13,02,53,122,36,06,34,059,41,12,54,341,42,14,08,310,19*73
$GPGSV,4,2,13,15,09,202,20,19,22,043,36,24,74,194,41,25,27,303,33*76
$GPGSV,4,3,13,29,21,237,33,32,08,307,22,33,,,31,40,,,30*7A
$GPGSV,4,4,13,17,,,*7D
$GLGSV,2,1,07,73,11,323,21,82,78,358,33,80,63,355,31,79,45,118,25*63
$GLGSV,2,2,07,83,38,217,32,81,26,029,29,78,04,133,*50
$BDGSV,2,1,05,205,45,137,29,210,09,130,15,202,28,116,,203,03,097,*6A
$BDGSV,2,2,05,208,08,039,*65
$GPGGA,134200.0,3206.285299,N,03512.316162,E,1,07,1.0,638.9,M,19.0,M,,*5C
$GNGNS,134200.0,3206.285299,N,03512.316162,E,AA,12,1.0,638.9,19.0,,*6C
$GPVTG,83.2,T,83.2,M,1.7,N,3.1,K,A*27
$GPGSA,A,2,02,06,12,15,19,24,29,,,,,,1.2,1.0,0.8*3F
$GNGSA,A,2,02,06,12,15,19,24,29,,,,,,1.2,1.0,0.8*21
$GNGSA,A,2,79,80,81,82,83,,,,,,,,1.2,1.0,0.8*29
$BDGSA,A,2,,,,,,,,,,,,,1.2,1.0,0.8*28
$GPRMC,134200.0,A,3206.285299,N,03512.316162,E,1.7,83.2,030516,0.0,E,A*31
$GPGSV,4,1,13,02,53,122,37,06,34,059,38,12,54,341,42,14,08,310,20*76
$GPGSV,4,2,13,15,09,202,22,19,22,043,35,24,74,194,40,25,27,303,32*77
$GPGSV,4,3,13,29,21,237,32,32,08,307,23,33,,,31,40,,,29*72
$GPGSV,4,4,13,17,,,*7D
$GLGSV,2,1,07,73,11,323,23,82,78,358,32,80,63,355,31,79,45,118,27*62
$GLGSV,2,2,07,83,38,217,31,81,26,029,31,78,04,133,*5A
$BDGSV,2,1,05,205,45,137,29,210,09,130,15,202,28,116,,203,03,097,*6A
$BDGSV,2,2,05,208,08,039,*65
$GPGGA,134201.0,3206.285124,N,03512.316964,E,1,07,1.0,638.9,M,19.0,M,,*56
$GNGNS,134201.0,3206.285124,N,03512.316964,E,AA,12,1.0,638.9,19.0,,*66
$GPVTG,93.1,T,93.1,M,1.7,N,3.2,K,A*24
$GPGSA,A,2,02,06,12,15,19,24,29,,,,,,1.2,1.0,0.8*3F
$GNGSA,A,2,02,06,12,15,19,24,29,,,,,,1.2,1.0,0.8*21
$GNGSA,A,2,79,80,81,82,83,,,,,,,,1.2,1.0,0.8*29
$BDGSA,A,2,,,,,,,,,,,,,1.2,1.0,0.8*28
$GPRMC,134201.0,A,3206.285124,N,03512.316964,E,1.7,93.1,030516,0.0,E,A*39
$GPGSV,3,1,12,02,53,122,37,06,34,059,41,12,54,341,42,14,08,310,25*7B
$GPGSV,3,2,12,15,09,202,21,19,22,043,36,24,74,194,40,25,27,303,33*70
$GPGSV,3,3,12,29,21,237,29,32,08,307,25,33,,,29,17,,,*78
$GLGSV,2,1,07,73,11,323,26,82,78,358,33,80,63,355,33,79,45,118,25*66
$GLGSV,2,2,07,83,38,217,30,81,26,029,30,78,04,133,*5A
$BDGSV,2,1,05,205,45,137,23,210,09,130,12,202,28,116,,203,03,097,*67
$BDGSV,2,2,05,208,08,039,*65
$GPGGA,134202.0,3206.285041,N,03512.317626,E,1,07,1.0,639.5,M,19.0,M,,*52
$GNGNS,134202.0,3206.285041,N,03512.317626,E,AA,12,1.0,639.5,19.0,,*62
$GPVTG,85.4,T,85.4,M,1.9,N,3.5,K,A*2D
$GPGSA,A,2,02,06,12,15,19,24,29,,,,,,1.2,1.0,0.8*3F
$GNGSA,A,2,02,06,12,15,19,24,29,,,,,,1.2,1.0,0.8*21
$GNGSA,A,2,79,80,81,82,83,,,,,,,,1.2,1.0,0.8*29
$BDGSA,A,2,,,,,,,,,,,,,1.2,1.0,0.8*28
$GPRMC,134202.0,A,3206.285041,N,03512.317626,E,1.9,85.4,030516,0.0,E,A*3C
$GPGSV,3,1,12,02,53,122,38,06,34,059,38,12,54,341,40,14,08,310,22*7F
$GPGSV,3,2,12,15,09,202,21,19,22,043,38,24,74,194,40,25,27,303,33*7E
$GPGSV,3,3,12,29,21,237,30,32,08,307,23,33,,,29,17,,,*76
$GLGSV,2,1,07,73,11,323,27,82,78,358,32,80,63,355,31,79,45,118,33*63
$GLGSV,2,2,07,83,38,217,25,81,26,029,34,78,04,133,*5A
$BDGSV,2,1,05,205,45,137,25,210,09,130,12,202,28,116,,203,03,097,*61
$BDGSV,2,2,05,208,08,039,*65
$GPGGA,134203.0,3206.284771,N,03512.318350,E,1,07,1.0,638.9,M,19.0,M,,*50
$GNGNS,134203.0,3206.284771,N,03512.318350,E,AA,12,1.0,638.9,19.0,,*60
$GPVTG,103.3,T,103.3,M,1.5,N,2.8,K,A*2D
$GPGSA,A,2,02,06,12,15,19,24,29,,,,,,1.2,1.0,0.8*3F
$GNGSA,A,2,02,06,12,15,19,24,29,,,,,,1.2,1.0,0.8*21
$GNGSA,A,2,79,80,81,82,83,,,,,,,,1.2,1.0,0.8*29
$BDGSA,A,2,,,,,,,,,,,,,1.2,1.0,0.8*28
$GPRMC,134203.0,A,3206.284771,N,03512.318350,E,1.5,103.3,030516,0.0,E,A*07
$GPGSV,4,1,13,02,53,122,38,06,34,059,40,12,54,341,41,14,08,310,24*71
$GPGSV,4,2,13,15,09,202,22,19,22,043,42,24,74,194,40,25,27,303,33*76
$GPGSV,4,3,13,29,21,237,26,32,08,307,24,33,,,29,41,,,34*74
$GPGSV,4,4,13,17,,,*7D
$GLGSV,2,1,07,73,11,323,25,82,78,358,33,80,63,355,32,79,45,118,30*60
$GLGSV,2,2,07,83,38,217,29,81,26,029,36,78,04,133,*54
$BDGSV,1,1,04,205,45,137,31,202,28,116,,203,03,097,,208,08,039,*65
$GPGGA,134204.0,3206.284626,N,03512.318888,E,1,07,1.0,638.1,M,19.0,M,,*52
$GNGNS,134204.0,3206.284626,N,03512.318888,E,AA,12,1.0,638.1,19.0,,*62
$GPVTG,113.0,T,113.0,M,1.5,N,2.8,K,A*2D
$GPGSA,A,2,02,06,12,15,19,24,29,,,,,,1.2,1.0,0.8*3F
$GNGSA,A,2,02,06,12,15,19,24,29,,,,,,1.2,1.0,0.8*21
$GNGSA,A,2,79,80,81,82,83,,,,,,,,1.2,1.0,0.8*29
$BDGSA,A,2,,,,,,,,,,,,,1.2,1.0,0.8*28
$GPRMC,134204.0,A,3206.284626,N,03512.318888,E,1.5,113.0,030516,0.0,E,A*0F
$GPGSV,4,1,13,02,53,122,37,06,34,059,38,12,54,341,41,14,08,310,24*71
$GPGSV,4,2,13,15,09,202,22,19,22,043,36,24,74,194,39,25,27,303,33*7B
$GPGSV,4,3,13,29,21,237,31,32,08,307,27,33,,,29,41,,,36*73
$GPGSV,4,4,13,17,,,*7D
$GLGSV,2,1,07,73,11,323,28,82,78,358,32,80,63,355,31,79,45,118,30*6F
$GLGSV,2,2,07,83,38,217,30,81,26,029,33,78,04,133,*59
$BDGSV,2,1,05,205,45,137,28,202,28,116,,203,03,097,,208,08,039,*6F
$BDGSV,2,2,05,210,09,130,*65
$GPGGA,134205.0,3206.284640,N,03512.319442,E,1,07,1.0,637.8,M,19.0,M,,*5E
$GNGNS,134205.0,3206.284640,N,03512.319442,E,AA,12,1.0,637.8,19.0,,*6E
$GPVTG,102.2,T,102.2,M,1.6,N,3.0,K,A*27
$GPGSA,A,2,02,06,12,15,19,24,29,,,,,,1.2,1.0,0.8*3F
$GNGSA,A,2,02,06,12,15,19,24,29,,,,,,1.2,1.0,0.8*21
$GNGSA,A,2,79,80,81,82,83,,,,,,,,1.2,1.0,0.8*29
$BDGSA,A,2,,,,,,,,,,,,,1.2,1.0,0.8*28
$GPRMC,134205.0,A,3206.284640,N,03512.319442,E,1.6,102.2,030516,0.0,E,A*04
$GPGSV,4,1,13,02,53,122,35,06,34,059,39,12,54,341,42,14,08,310,26*73
$GPGSV,4,2,13,15,09,202,23,19,22,043,35,24,74,194,40,25,27,303,33*77
$GPGSV,4,3,13,29,21,237,30,32,08,307,26,33,,,29,41,,,32*77
$GPGSV,4,4,13,17,,,*7D
$GLGSV,2,1,07,73,11,323,30,82,78,358,33,80,63,355,33,79,45,118,30*65
$GLGSV,2,2,07,83,38,217,29,81,26,029,33,78,04,133,*51
$BDGSV,2,1,05,205,45,137,27,202,28,116,,203,03,097,,208,08,039,*60
$BDGSV,2,2,05,210,09,130,*65
$GPGGA,134206.0,3206.284506,N,03512.320009,E,1,07,1.0,636.8,M,19.0,M,,*5C
$GNGNS,134206.0,3206.284506,N,03512.320009,E,AA,12,1.0,636.8,19.0,,*6C
$GPVTG,109.3,T,109.3,M,1.6,N,3.0,K,A*27
$GPGSA,A,2,02,06,12,15,19,24,29,,,,,,1.2,1.0,0.8*3F
$GNGSA,A,2,02,06,12,15,19,24,29,,,,,,1.2,1.0,0.8*21
$GNGSA,A,2,79,80,81,82,83,,,,,,,,1.2,1.0,0.8*29
$BDGSA,A,2,,,,,,,,,,,,,1.2,1.0,0.8*28
$GPRMC,134206.0,A,3206.284506,N,03512.320009,E,1.6,109.3,030516,0.0,E,A*0D
$GPGSV,4,1,13,02,53,122,32,06,34,059,42,12,54,341,44,14,08,310,25*7D
$GPGSV,4,2,13,15,09,202,27,19,22,043,41,24,74,194,38,25,27,303,40*7B
$GPGSV,4,3,13,29,21,237,34,32,08,307,28,33,,,30,41,,,31*76
$GPGSV,4,4,13,17,,,*7D
$GLGSV,2,1,07,73,11,323,31,82,78,358,36,80,63,355,34,79,45,118,28*6F
$GLGSV,2,2,07,83,38,217,28,81,26,029,32,78,04,133,*51
$BDGSV,2,1,05,205,45,137,27,202,28,116,,203,03,097,,208,08,039,*60
$BDGSV,2,2,05,210,09,130,*65
$GPGGA,134207.0,3206.284433,N,03512.320333,E,1,07,1.0,636.6,M,19.0,M,,*5E
$GNGNS,134207.0,3206.284433,N,03512.320333,E,AA,12,1.0,636.6,19.0,,*6E
$GPVTG,109.3,T,109.3,M,1.4,N,2.7,K,A*23
$GPGSA,A,2,02,06,12,15,19,24,29,,,,,,1.2,1.0,0.8*3F
$GNGSA,A,2,02,06,12,15,19,24,29,,,,,,1.2,1.0,0.8*21
$GNGSA,A,2,79,80,81,82,83,,,,,,,,1.2,1.0,0.8*29
$BDGSA,A,2,,,,,,,,,,,,,1.2,1.0,0.8*28
$GPRMC,134207.0,A,3206.284433,N,03512.320333,E,1.4,109.3,030516,0.0,E,A*03
$GPGSV,4,1,13,02,53,122,35,06,34,059,40,12,54,341,44,15,09,202,27*78
$GPGSV,4,2,13,19,22,043,39,24,74,194,36,25,27,303,41,29,21,237,35*7B
$GPGSV,4,3,13,32,08,307,28,33,,,30,41,,,30,14,08,310,*71
$GPGSV,4,4,13,17,,,*7D
$GLGSV,2,1,07,73,11,323,31,82,78,358,35,80,63,355,34,79,45,118,29*6D
$GLGSV,2,2,07,83,38,217,27,81,26,029,35,78,04,133,*59
$BDGSV,2,1,05,205,45,137,23,202,28,116,,203,03,097,,208,08,039,*64
$BDGSV,2,2,05,210,09,130,*65
$GPGGA,134208.0,3206.284758,N,03512.320969,E,1,07,1.0,636.5,M,19.0,M,,*59
$GNGNS,134208.0,3206.284758,N,03512.320969,E,AA,12,1.0,636.5,19.0,,*69
$GPVTG,109.3,T,109.3,M,1.5,N,2.7,K,A*22
$GPGSA,A,2,02,06,12,15,19,24,29,,,,,,1.2,1.0,0.8*3F
$GNGSA,A,2,02,06,12,15,19,24,29,,,,,,1.2,1.0,0.8*21
$GNGSA,A,2,79,80,81,82,83,,,,,,,,1.2,1.0,0.8*29
$BDGSA,A,2,,,,,,,,,,,,,1.2,1.0,0.8*28
$GPRMC,134208.0,A,3206.284758,N,03512.320969,E,1.5,109.3,030516,0.0,E,A*06
$GPGSV,4,1,13,02,53,122,34,06,34,059,39,12,54,341,42,15,09,202,23*75
$GPGSV,4,2,13,19,22,043,38,24,74,194,35,25,27,303,40,29,21,237,34*79
$GPGSV,4,3,13,32,08,307,27,33,,,29,41,,,34,14,08,310,*72
$GPGSV,4,4,13,17,,,*7D
$GLGSV,2,1,07,73,11,323,27,82,78,358,33,80,63,355,31,79,45,118,31*60
$GLGSV,2,2,07,83,38,217,31,81,26,029,33,78,04,133,*58
$BDGSV,2,1,05,205,45,137,28,202,28,116,,203,03,097,,208,08,039,*6F
$BDGSV,2,2,05,210,09,130,*65
$GPGGA,134209.0,3206.284968,N,03512.321585,E,1,07,1.0,636.1,M,19.0,M,,*5E
$GNGNS,134209.0,3206.284968,N,03512.321585,E,AA,12,1.0,636.1,19.0,,*6E
$GPVTG,96.5,T,96.5,M,1.8,N,3.4,K,A*2D
$GPGSA,A,2,02,06,12,15,19,24,29,,,,,,1.2,1.0,0.8*3F
$GNGSA,A,2,02,06,12,15,19,24,29,,,,,,1.2,1.0,0.8*21
$GNGSA,A,2,79,80,81,82,83,,,,,,,,1.2,1.0,0.8*29
$BDGSA,A,2,,,,,,,,,,,,,1.2,1.0,0.8*28
$GPRMC,134209.0,A,3206.284968,N,03512.321585,E,1.8,96.5,030516,0.0,E,A*39
$GPGSV,4,1,13,02,53,122,39,06,34,059,42,12,54,341,41,14,08,310,29*7F
$GPGSV,4,2,13,15,09,202,25,19,22,043,38,24,74,194,35,25,27,303,36*7B
$GPGSV,4,3,13,29,21,237,33,32,08,307,28,33,,,29,41,,,36*7E
$GPGSV,4,4,13,17,,,*7D
$GLGSV,2,1,07,73,11,323,23,82,78,358,34,80,63,355,32,79,45,118,33*62
$GLGSV,2,2,07,83,38,217,27,81,26,029,34,78,04,133,*58
$BDGSV,2,1,05,205,45,137,29,202,28,116,,203,03,097,,208,08,039,*6E
$BDGSV,2,2,05,210,09,130,*65
$GPGGA,134210.0,3206.284661,N,03512.321977,E,1,07,1.0,636.1,M,19.0,M,,*51
$GNGNS,134210.0,3206.284661,N,03512.321977,E,AA,12,1.0,636.1,19.0,,*61
$GPVTG,135.9,T,135.9,M,1.5,N,2.8,K,A*2D
$GPGSA,A,2,02,06,12,15,19,24,29,,,,,,1.2,1.0,0.8*3F
$GNGSA,A,2,02,06,12,15,19,24,29,,,,,,1.2,1.0,0.8*21
$GNGSA,A,2,79,80,81,82,83,,,,,,,,1.2,1.0,0.8*29
$BDGSA,A,2,,,,,,,,,,,,,1.2,1.0,0.8*28
$GPRMC,134210.0,A,3206.284661,N,03512.321977,E,1.5,135.9,030516,0.0,E,A*0F
$GPGSV,4,1,13,02,53,122,41,06,34,059,37,12,54,341,42,14,08,310,25*7D
$GPGSV,4,2,13,15,09,202,25,19,22,043,37,24,74,194,39,25,27,303,35*7B
$GPGSV,4,3,13,29,21,237,31,32,08,307,26,33,,,31,41,,,36*7B
$GPGSV,4,4,13,17,,,*7D
$GLGSV,2,1,07,73,11,323,27,82,77,000,33,80,63,355,32,79,45,118,34*67
$GLGSV,2,2,07,83,38,217,22,81,26,029,36,78,04,133,*5F
$BDGSV,2,1,05,205,45,137,33,202,28,116,,203,03,097,,208,08,039,*65
$BDGSV,2,2,05,210,09,130,*65
$GPGGA,134211.0,3206.284894,N,03512.322574,E,1,07,1.0,636.4,M,19.0,M,,*5D
$GNGNS,134211.0,3206.284894,N,03512.322574,E,AA,12,1.0,636.4,19.0,,*6D
$GPVTG,87.3,T,87.3,M,1.5,N,2.8,K,A*2D
$GPGSA,A,2,02,06,12,15,19,24,29,,,,,,1.2,1.0,0.8*3F
$GNGSA,A,2,02,06,12,15,19,24,29,,,,,,1.2,1.0,0.8*21
$GNGSA,A,2,79,80,81,82,83,,,,,,,,1.2,1.0,0.8*29
$BDGSA,A,2,,,,,,,,,,,,,1.2,1.0,0.8*28
$GPRMC,134211.0,A,3206.284894,N,03512.322574,E,1.5,87.3,030516,0.0,E,A*34
$GPGSV,4,1,13,02,53,122,41,06,34,059,40,12,54,341,41,14,08,310,27*7C
$GPGSV,4,2,13,15,09,202,21,19,22,043,34,24,74,194,36,25,27,303,32*74
$GPGSV,4,3,13,29,21,237,28,32,08,307,26,33,,,31,41,,,32*77
$GPGSV,4,4,13,17,,,*7D
$GLGSV,2,1,07,73,11,323,28,82,77,000,32,80,63,355,31,79,45,118,33*6D
$GLGSV,2,2,07,83,38,217,23,81,26,029,34,78,04,133,*5C
$BDGSV,2,1,05,205,45,137,32,202,28,116,,203,03,097,,208,08,039,*64
$BDGSV,2,2,05,210,09,130,*65
$GPGGA,134212.0,3206.284810,N,03512.323130,E,1,07,1.0,637.1,M,19.0,M,,*53
$GNGNS,134212.0,3206.284810,N,03512.323130,E,AA,12,1.0,637.1,19.0,,*63
$GPVTG,95.9,T,95.9,M,2.0,N,3.7,K,A*25
$GPGSA,A,2,02,06,12,15,19,24,29,,,,,,1.2,1.0,0.8*3F
$GNGSA,A,2,02,06,12,15,19,24,29,,,,,,1.2,1.0,0.8*21
$GNGSA,A,2,79,80,81,82,83,,,,,,,,1.2,1.0,0.8*29
$BDGSA,A,2,,,,,,,,,,,,,1.2,1.0,0.8*28
$GPRMC,134212.0,A,3206.284810,N,03512.323130,E,2.0,95.9,030516,0.0,E,A*31
$GPGSV,4,1,13,02,53,122,39,06,34,059,41,12,54,341,41,14,08,310,24*71
$GPGSV,4,2,13,15,09,202,23,19,22,043,36,24,74,194,39,25,27,303,32*7B
$GPGSV,4,3,13,29,21,237,27,32,08,307,25,33,,,31,41,,,33*7A
$GPGSV,4,4,13,17,,,*7D
$GLGSV,2,1,07,73,11,323,30,82,77,000,33,80,63,355,31,79,45,118,32*64
$GLGSV,2,2,07,83,38,217,25,81,26,029,32,78,04,133,*5C
$BDGSV,2,1,05,205,45,137,32,202,28,116,,203,03,097,,208,08,039,*64
$BDGSV,2,2,05,210,09,130,*65
$GPGGA,134213.0,3206.284808,N,03512.323744,E,1,07,1.0,637.0,M,19.0,M,,*5F
$GNGNS,134213.0,3206.284808,N,03512.323744,E,AA,12,1.0,637.0,19.0,,*6F
$GPVTG,95.8,T,95.8,M,2.0,N,3.6,K,A*24
$GPGSA,A,2,02,06,12,15,19,24,29,,,,,,1.2,1.0,0.8*3F
$GNGSA,A,2,02,06,12,15,19,24,29,,,,,,1.2,1.0,0.8*21
$GNGSA,A,2,79,80,81,82,83,,,,,,,,1.2,1.0,0.8*29
$BDGSA,A,2,,,,,,,,,,,,,1.2,1.0,0.8*28
$GPRMC,134213.0,A,3206.284808,N,03512.323744,E,2.0,95.8,030516,0.0,E,A*3D
$GPGSV,4,1,13,02,53,122,40,06,34,059,38,12,54,341,44,14,08,310,26*76
$GPGSV,4,2,13,15,09,202,26,19,22,043,37,24,74,194,37,25,27,303,35*76
$GPGSV,4,3,13,29,21,237,27,32,08,307,28,33,,,31,41,,,31*75
$GPGSV,4,4,13,17,,,*7D
$GLGSV,2,1,07,73,11,323,33,82,77,000,32,80,63,355,30,79,45,118,34*61
$GLGSV,2,2,07,83,38,217,28,81,26,029,31,78,04,133,*52
$BDGSV,2,1,05,205,45,137,31,202,28,116,,203,03,097,,208,08,039,*67
$BDGSV,2,2,05,210,09,130,*65
$GPGGA,134214.0,3206.284793,N,03512.324225,E,1,07,1.0,636.7,M,19.0,M,,*56
$GNGNS,134214.0,3206.284793,N,03512.324225,E,AA,12,1.0,636.7,19.0,,*66
$GPVTG,96.7,T,96.7,M,1.7,N,3.1,K,A*27
$GPGSA,A,2,02,06,12,15,19,24,29,,,,,,1.2,1.0,0.8*3F
$GNGSA,A,2,02,06,12,15,19,24,29,,,,,,1.2,1.0,0.8*21
$GNGSA,A,2,79,80,81,82,83,,,,,,,,1.2,1.0,0.8*29
$BDGSA,A,2,,,,,,,,,,,,,1.2,1.0,0.8*28
$GPRMC,134214.0,A,3206.284793,N,03512.324225,E,1.7,96.7,030516,0.0,E,A*3A
$GPGSV,4,1,13,02,53,122,37,06,34,059,40,12,54,341,43,14,08,310,26*7E
$GPGSV,4,2,13,15,09,202,27,19,22,043,32,24,74,194,41,25,27,303,36*70
$GPGSV,4,3,13,29,21,237,24,32,08,307,27,33,,,31,41,,,30*78
$GPGSV,4,4,13,17,,,*7D
$GLGSV,2,1,07,73,11,323,35,82,77,000,35,80,63,355,32,79,45,118,34*62
$GLGSV,2,2,07,83,38,217,27,81,26,029,30,78,04,133,*5C
$BDGSV,2,1,05,205,45,137,29,202,28,116,,203,03,097,,208,08,039,*6E
$BDGSV,2,2,05,210,09,130,*65
$GPGGA,134215.0,3206.284647,N,03512.324757,E,1,07,1.0,637.2,M,19.0,M,,*5B
$GNGNS,134215.0,3206.284647,N,03512.324757,E,AA,12,1.0,637.2,19.0,,*6B
$GPVTG,98.0,T,98.0,M,1.8,N,3.3,K,A*2A
$GPGSA,A,2,02,06,12,15,19,24,29,,,,,,1.2,1.0,0.8*3F
$GNGSA,A,2,02,06,12,15,19,24,29,,,,,,1.2,1.0,0.8*21
$GNGSA,A,2,79,80,81,82,83,,,,,,,,1.2,1.0,0.8*29
$BDGSA,A,2,,,,,,,,,,,,,1.2,1.0,0.8*28
$GPRMC,134215.0,A,3206.284647,N,03512.324757,E,1.8,98.0,030516,0.0,E,A*35
$GPGSV,4,1,13,02,53,122,39,06,34,059,37,12,54,341,41,14,08,310,31*74
$GPGSV,4,2,13,15,09,202,23,19,22,043,39,24,74,194,39,25,27,303,39*7F
$GPGSV,4,3,13,29,21,237,24,32,08,307,28,33,,,31,41,,,30*77
$GPGSV,4,4,13,17,,,*7D
$GLGSV,2,1,07,73,11,323,34,82,77,000,35,80,63,355,32,79,45,118,34*63
$GLGSV,2,2,07,83,38,217,31,81,26,029,31,78,04,133,*5A
$BDGSV,2,1,05,205,45,137,25,202,28,116,,203,03,097,,208,08,039,*62
$BDGSV,2,2,05,210,09,130,*65
$GPGGA,134216.0,3206.284532,N,03512.325154,E,1,07,1.0,636.7,M,19.0,M,,*59
$GNGNS,134216.0,3206.284532,N,03512.325154,E,AA,12,1.0,636.7,19.0,,*69
$GPVTG,91.7,T,91.7,M,1.5,N,2.7,K,A*22
$GPGSA,A,2,02,06,12,15,19,24,29,,,,,,1.2,1.0,0.8*3F
$GNGSA,A,2,02,06,12,15,19,24,29,,,,,,1.2,1.0,0.8*21
$GNGSA,A,2,79,80,81,82,83,,,,,,,,1.2,1.0,0.8*29
$BDGSA,A,2,,,,,,,,,,,,,1.2,1.0,0.8*28
$GPRMC,134216.0,A,3206.284532,N,03512.325154,E,1.5,91.7,030516,0.0,E,A*30
$GPGSV,4,1,13,02,53,122,37,06,34,059,34,12,54,341,41,14,08,310,27*7E
$GPGSV,4,2,13,15,09,202,27,19,22,043,38,24,74,194,40,25,27,303,41*7B
$GPGSV,4,3,13,29,21,237,26,32,08,307,30,40,,,37,41,,,29*76
$GPGSV,4,4,13,17,,,*7D
$GLGSV,2,1,07,73,11,323,32,82,77,000,35,80,63,355,31,79,45,118,33*61
$GLGSV,2,2,07,83,38,217,36,81,26,029,31,78,04,133,*5D
$BDGSV,2,1,05,205,45,137,25,202,28,116,,203,03,097,,208,08,039,*62
$BDGSV,2,2,05,210,09,130,*65
$GPGGA,134217.0,3206.284435,N,03512.325431,E,1,07,1.0,636.8,M,19.0,M,,*57
$GNGNS,134217.0,3206.284435,N,03512.325431,E,AA,12,1.0,636.8,19.0,,*67
$GPVTG,91.7,T,91.7,M,1.3,N,2.4,K,A*27
$GPGSA,A,2,02,06,12,15,19,24,29,,,,,,1.2,1.0,0.8*3F
$GNGSA,A,2,02,06,12,15,19,24,29,,,,,,1.2,1.0,0.8*21
$GNGSA,A,2,79,80,81,82,83,,,,,,,,1.2,1.0,0.8*29
$BDGSA,A,2,,,,,,,,,,,,,1.2,1.0,0.8*28
$GPRMC,134217.0,A,3206.284435,N,03512.325431,E,1.3,91.7,030516,0.0,E,A*37
$GPGSV,4,1,13,02,53,122,39,06,34,059,35,12,54,341,40,14,08,310,28*7F
$GPGSV,4,2,13,15,09,202,30,19,22,043,41,24,74,194,39,25,27,303,42*7E
$GPGSV,4,3,13,29,21,237,28,32,08,307,34,40,,,36,41,,,29*7D
$GPGSV,4,4,13,17,,,*7D
$GLGSV,2,1,07,73,11,323,34,82,77,000,37,80,63,355,33,79,45,118,32*66
$GLGSV,2,2,07,83,38,217,34,81,26,029,33,78,04,133,*5D
$BDGSV,2,1,05,205,45,137,30,210,09,130,15,202,28,116,,203,03,097,*62
$BDGSV,2,2,05,208,08,039,*65
$GPGGA,134218.0,3206.284462,N,03512.325883,E,1,07,1.0,636.9,M,19.0,M,,*5E
$GNGNS,134218.0,3206.284462,N,03512.325883,E,AA,12,1.0,636.9,19.0,,*6E
$GPVTG,81.7,T,81.7,M,1.5,N,2.7,K,A*22
$GPGSA,A,2,02,06,12,15,19,24,29,,,,,,1.2,1.0,0.8*3F
$GNGSA,A,2,02,06,12,15,19,24,29,,,,,,1.2,1.0,0.8*21
$GNGSA,A,2,79,80,81,82,83,,,,,,,,1.2,1.0,0.8*29
$BDGSA,A,2,,,,,,,,,,,,,1.2,1.0,0.8*28
$GPRMC,134218.0,A,3206.284462,N,03512.325883,E,1.5,81.7,030516,0.0,E,A*38
$GPGSV,4,1,13,02,53,122,38,06,34,059,37,12,54,341,42,14,08,310,31*76
$GPGSV,4,2,13,15,09,202,26,19,22,043,34,24,74,194,40,25,27,303,37*77
$GPGSV,4,3,13,29,21,237,28,32,08,307,29,40,,,34,41,,,31*7A
$GPGSV,4,4,13,17,,,*7D
$GLGSV,2,1,07,73,11,323,33,82,77,000,34,80,63,355,29,79,45,118,28*62
$GLGSV,2,2,07,83,38,217,35,81,26,029,32,78,04,133,*5D
$BDGSV,2,1,05,205,45,137,30,210,09,130,15,202,28,116,,203,03,097,*62
$BDGSV,2,2,05,208,08,039,*65
$GPGGA,134219.0,3206.284340,N,03512.326390,E,1,07,1.0,636.6,M,19.0,M,,*5D
$GNGNS,134219.0,3206.284340,N,03512.326390,E,AA,12,1.0,636.6,19.0,,*6D
$GPVTG,93.4,T,93.4,M,1.6,N,3.0,K,A*27
$GPGSA,A,2,02,06,12,15,19,24,29,,,,,,1.2,1.0,0.8*3F
$GNGSA,A,2,02,06,12,15,19,24,29,,,,,,1.2,1.0,0.8*21
$GNGSA,A,2,79,80,81,82,83,,,,,,,,1.2,1.0,0.8*29
$BDGSA,A,2,,,,,,,,,,,,,1.2,1.0,0.8*28
$GPRMC,134219.0,A,3206.284340,N,03512.326390,E,1.6,93.4,030516,0.0,E,A*37
$GPGSV,4,1,13,02,53,122,36,06,34,059,39,12,54,341,44,14,08,310,32*73
$GPGSV,4,2,13,15,09,202,26,19,22,043,36,24,74,194,40,25,27,303,36*74
$GPGSV,4,3,13,29,21,237,24,32,08,307,31,40,,,31,41,,,31*7A
$GPGSV,4,4,13,17,,,*7D
$GLGSV,2,1,07,73,11,323,33,82,77,000,32,80,63,355,31,79,45,118,29*6C
$GLGSV,2,2,07,83,38,217,33,81,26,029,34,78,04,133,*5D
$BDGSV,2,1,05,205,45,137,32,210,09,130,19,202,28,116,,203,03,097,*6C
$BDGSV,2,2,05,208,08,039,*65
$GPGGA,134220.0,3206.284149,N,03512.326758,E,1,07,1.0,636.4,M,19.0,M,,*5E
$GNGNS,134220.0,3206.284149,N,03512.326758,E,AA,12,1.0,636.4,19.0,,*6E
$GPVTG,88.6,T,88.6,M,1.6,N,3.0,K,A*27
$GPGSA,A,2,02,06,12,15,19,24,29,,,,,,1.2,1.0,0.8*3F
$GNGSA,A,2,02,06,12,15,19,24,29,,,,,,1.2,1.0,0.8*21
$GNGSA,A,2,79,80,81,82,83,,,,,,,,1.2,1.0,0.8*29
$BDGSA,A,2,,,,,,,,,,,,,1.2,1.0,0.8*28
$GPRMC,134220.0,A,3206.284149,N,03512.326758,E,1.6,88.6,030516,0.0,E,A*3E
$GPGSV,4,1,13,02,53,122,33,06,34,059,40,12,54,341,44,14,08,310,32*78
$GPGSV,4,2,13,15,09,202,25,19,22,043,38,24,74,194,38,25,27,303,38*78
$GPGSV,4,3,13,29,21,237,29,32,08,307,28,40,,,32,41,,,30*7D
$GPGSV,4,4,13,17,,,*7D
$GLGSV,2,1,07,73,11,323,31,82,77,000,33,80,63,355,32,79,45,118,28*6D
$GLGSV,2,2,07,83,38,217,34,81,26,029,35,78,04,133,*5B
$BDGSV,2,1,05,205,45,137,28,210,09,130,19,202,28,116,,203,03,097,*67
$BDGSV,2,2,05,208,08,039,*65
$GPGGA,134221.0,3206.284181,N,03512.327203,E,1,07,1.0,636.3,M,19.0,M,,*56
$GNGNS,134221.0,3206.284181,N,03512.327203,E,AA,12,1.0,636.3,19.0,,*66
$GPVTG,88.6,T,88.6,M,1.4,N,2.7,K,A*23
$GPGSA,A,2,02,06,12,15,19,24,29,,,,,,1.2,1.0,0.8*3F
$GNGSA,A,2,02,06,12,15,19,24,29,,,,,,1.2,1.0,0.8*21
$GNGSA,A,2,79,80,81,82,83,,,,,,,,1.2,1.0,0.8*29
$BDGSA,A,2,,,,,,,,,,,,,1.2,1.0,0.8*28
$GPRMC,134221.0,A,3206.284181,N,03512.327203,E,1.4,88.6,030516,0.0,E,A*33
$GPGSV,4,1,13,02,53,122,31,06,34,059,39,12,54,341,43,14,08,310,29*79
$GPGSV,4,2,13,15,09,202,25,19,22,043,40,24,74,194,36,25,27,303,38*79
$GPGSV,4,3,13,29,21,237,27,32,08,307,30,40,,,32,41,,,29*72
$GPGSV,4,4,13,17,,,*7D
$GLGSV,2,1,07,73,11,323,27,82,77,000,30,80,63,355,31,79,45,118,26*64
$GLGSV,2,2,07,83,38,217,35,81,26,029,34,78,04,133,*5B
$BDGSV,2,1,05,205,45,137,26,210,09,130,19,202,28,116,,203,03,097,*69
$BDGSV,2,2,05,208,08,039,*65
$GPGGA,134222.0,3206.284138,N,03512.327791,E,1,07,1.0,636.1,M,19.0,M,,*5B
$GNGNS,134222.0,3206.284138,N,03512.327791,E,AA,12,1.0,636.1,19.0,,*6B
$GPVTG,92.9,T,92.9,M,1.9,N,3.5,K,A*2D
$GPGSA,A,2,02,06,12,15,19,24,29,,,,,,1.2,1.0,0.8*3F
$GNGSA,A,2,02,06,12,15,19,24,29,,,,,,1.2,1.0,0.8*21
$GNGSA,A,2,79,80,81,82,83,,,,,,,,1.2,1.0,0.8*29
$BDGSA,A,2,,,,,,,,,,,,,1.2,1.0,0.8*28
$GPRMC,134222.0,A,3206.284138,N,03512.327791,E,1.9,92.9,030516,0.0,E,A*35
$GPGSV,4,1,13,02,53,122,41,06,34,059,43,12,54,341,44,14,08,310,30*7C
$GPGSV,4,2,13,15,09,202,21,19,22,043,35,24,74,194,36,25,27,303,34*73
$GPGSV,4,3,13,29,21,237,28,32,08,307,31,40,,,30,41,,,30*76
$GPGSV,4,4,13,17,,,*7D
$GLGSV,2,1,07,73,11,323,26,82,77,000,31,80,63,355,30,79,45,118,34*66
$GLGSV,2,2,07,83,38,217,34,81,26,029,32,78,04,133,*5C
$BDGSV,2,1,05,205,45,137,25,210,09,130,20,202,28,116,,203,03,097,*60
$BDGSV,2,2,05,208,08,039,*65
$GPGGA,134223.0,3206.284195,N,03512.328421,E,1,07,1.0,635.6,M,19.0,M,,*5E
$GNGNS,134223.0,3206.284195,N,03512.328421,E,AA,12,1.0,635.6,19.0,,*6E
$GPVTG,96.6,T,96.6,M,1.5,N,2.8,K,A*2D
$GPGSA,A,2,02,06,12,15,19,24,29,,,,,,1.2,1.0,0.8*3F
$GNGSA,A,2,02,06,12,15,19,24,29,,,,,,1.2,1.0,0.8*21
$GNGSA,A,2,79,80,81,82,83,,,,,,,,1.2,1.0,0.8*29
$BDGSA,A,2,,,,,,,,,,,,,1.2,1.0,0.8*28
$GPRMC,134223.0,A,3206.284195,N,03512.328421,E,1.5,96.6,030516,0.0,E,A*33
$GPGSV,4,1,13,02,53,122,35,06,34,059,42,12,54,341,42,14,08,310,29*70
$GPGSV,4,2,13,15,09,202,24,19,22,043,35,24,74,194,32,25,27,303,30*76
$GPGSV,4,3,13,29,21,237,30,32,08,307,31,40,,,30,41,,,30*7F
$GPGSV,4,4,13,17,,,*7D
$GLGSV,2,1,07,73,11,323,26,82,77,000,31,80,63,355,31,79,45,118,32*61
$GLGSV,2,2,07,83,38,217,30,81,26,029,29,78,04,133,*52
$BDGSV,2,1,05,205,45,137,28,210,09,130,21,202,28,116,,203,03,097,*6C
$BDGSV,2,2,05,208,08,039,*65
$GPGGA,134224.0,3206.284073,N,03512.328850,E,1,07,1.0,635.7,M,19.0,M,,*5B
$GNGNS,134224.0,3206.284073,N,03512.328850,E,AA,12,1.0,635.7,19.0,,*6B
$GPVTG,96.6,T,96.6,M,1.4,N,2.5,K,A*21
$GPGSA,A,2,02,06,12,15,19,24,29,,,,,,1.2,1.0,0.8*3F
$GNGSA,A,2,02,06,12,15,19,24,29,,,,,,1.2,1.0,0.8*21
$GNGSA,A,2,79,80,81,82,83,,,,,,,,1.2,1.0,0.8*29
$BDGSA,A,2,,,,,,,,,,,,,1.2,1.0,0.8*28
$GPRMC,134224.0,A,3206.284073,N,03512.328850,E,1.4,96.6,030516,0.0,E,A*36
$GPGSV,4,1,13,02,53,122,42,06,34,059,43,12,54,341,44,14,08,310,29*77
$GPGSV,4,2,13,15,09,202,25,19,22,043,35,24,74,194,39,25,27,303,29*74
$GPGSV,4,3,13,29,21,237,28,32,08,307,29,40,,,29,41,,,31*76
$GPGSV,4,4,13,17,,,*7D
$GLGSV,2,1,07,73,11,323,29,82,77,000,35,80,63,355,35,79,45,118,39*65
$GLGSV,2,2,07,83,38,217,33,81,26,029,37,78,04,133,*5E
$BDGSV,2,1,05,205,45,137,30,210,09,130,27,202,28,116,,203,03,097,*63
$BDGSV,2,2,05,208,08,039,*65
$GPGGA,134225.0,3206.283951,N,03512.329329,E,1,08,0.8,635.1,M,19.0,M,,*50
$GNGNS,134225.0,3206.283951,N,03512.329329,E,AA,13,0.8,635.1,19.0,,*6E
$GPVTG,103.6,T,103.6,M,1.6,N,3.0,K,A*27
$GPGSA,A,2,02,06,12,15,19,24,25,29,,,,,1.1,0.8,0.8*32
$GNGSA,A,2,02,06,12,15,19,24,25,29,,,,,1.1,0.8,0.8*2C
$GNGSA,A,2,79,80,81,82,83,,,,,,,,1.1,0.8,0.8*23
$BDGSA,A,2,,,,,,,,,,,,,1.1,0.8,0.8*22
$GPRMC,134225.0,A,3206.283951,N,03512.329329,E,1.6,103.6,030516,0.0,E,A*02
$GPGSV,4,1,13,02,53,122,41,06,34,059,42,12,54,341,43,14,08,310,26*7D
$GPGSV,4,2,13,15,09,202,29,19,22,043,36,24,74,194,38,25,27,303,29*7A
$GPGSV,4,3,13,29,21,237,29,32,08,307,29,40,,,33,41,,,37*7A
$GPGSV,4,4,13,17,,,*7D
$GLGSV,2,1,07,73,11,323,30,82,77,000,39,80,63,355,37,79,45,118,37*6D
$GLGSV,2,2,07,83,38,217,31,81,26,029,38,78,04,133,*53
$BDGSV,2,1,05,205,45,137,29,210,09,130,27,202,28,116,,203,03,097,*6B
$BDGSV,2,2,05,208,08,039,*65
$GPGGA,134226.0,3206.283933,N,03512.329861,E,1,08,0.8,635.1,M,19.0,M,,*50
$GNGNS,134226.0,3206.283933,N,03512.329861,E,AA,13,0.8,635.1,19.0,,*6E
$GPVTG,98.0,T,98.0,M,1.6,N,3.0,K,A*27
$GPGSA,A,2,02,06,12,15,19,24,25,29,,,,,1.1,0.8,0.8*32
$GNGSA,A,2,02,06,12,15,19,24,25,29,,,,,1.1,0.8,0.8*2C
$GNGSA,A,2,79,80,81,82,83,,,,,,,,1.1,0.8,0.8*23
$BDGSA,A,2,,,,,,,,,,,,,1.1,0.8,0.8*22
$GPRMC,134226.0,A,3206.283933,N,03512.329861,E,1.6,98.0,030516,0.0,E,A*37
$GPGSV,4,1,13,02,53,122,42,06,34,059,42,12,54,341,45,14,08,310,27*79
$GPGSV,4,2,13,15,09,202,28,19,22,043,38,24,74,194,41,25,27,303,31*72
$GPGSV,4,3,13,29,21,237,26,32,08,307,29,40,,,33,41,,,32*70
$GPGSV,4,4,13,17,,,*7D
$GLGSV,2,1,07,73,11,323,32,82,77,000,38,80,63,355,35,79,45,118,35*6E
$GLGSV,2,2,07,83,38,217,28,81,26,029,37,78,04,133,*54
$BDGSV,2,1,05,205,45,137,29,210,09,130,26,202,28,116,,203,03,097,*6A
$BDGSV,2,2,05,208,08,039,*65
$GPGGA,134227.0,3206.283934,N,03512.330316,E,1,08,0.8,635.2,M,19.0,M,,*56
