$GPGGA,153752.00,3201.766327,N,03448.116401,E,1,12,1.2,146.6,M,19.1,M,,*6E
$PGLOR,5,STA,153752.00,0.005,0.000,363,1,12,1,P,F,L,0,C,2,S,0002,0,1,R,33F4,TPEF,20,28,LC,,*6B
$PGLOR,1,UNC,153752.00,0.036,12.0,7.4,0.21,180.00,8.5,8.5,0.0*15
$PGLOR,2,SAT,3,1,R21,036,3F,R10,016,3B,G12,028,1B,G25,032,1F,R11,024,3F,G29,023,1F*24
$PGLOR,2,SAT,3,2,G02,021,1F,G24,014,1F,R22,036,3F,G05,029,1B,G31,011,10,G20,014,13*2F
$PGLOR,2,SAT,3,3,G21,013,13*6A
$PGLOR,2,SIO,TxERR,0,RxERR,0,TxCNT,266,RxCNT,3769,MLFRMPKT,0,DTMS,999,DTIN,13,19,DTOUT,387,980,HATMD,10*13
$PGLOR,3,PWR,mA,36.2,RFTm,1000,OscTm,1000,MeasTm,1000,UTC,153752.00*37
$GPGSV,3,1,12,12,61,072,28,25,61,342,35,29,49,284,32,02,47,052,24*79
$GPGSV,3,2,12,24,30,177,17,05,19,118,30,31,13,321,12,20,09,164,14*71
$GPGSV,3,3,12,21,07,211,13,14,07,273,,06,06,038,,32,04,270,*71
$GLGSV,2,1,07,85,64,311,37,74,61,158,20,75,59,326,30,86,26,245,39*6A
$GLGSV,2,2,07,84,34,027,,73,11,152,,69,02,082,*59
$QZGSV,1,1,01,01,05,056,*53
$GPGSA,A,3,02,05,12,20,21,24,25,29,,,,,4.9,1.9,4.5*39
$GNGSA,A,3,02,05,12,20,21,24,25,29,,,,,4.9,1.9,4.5*27
$GNGSA,A,3,74,75,85,86,,,,,,,,,4.9,1.9,4.5*2A
$QZGSA,A,3,,,,,,,,,,,,,4.9,1.9,4.5*2A
$IMGSA,A,3,,,,,,,,,,,,,4.9,1.9,4.5*25
$PGLOR,1,FIX,1.0,1.0*20
$GPRMC,153752.00,A,3201.766327,N,03448.116401,E,000.0,,270416,,,A*78
$PGLOR,SPL,20160427183750.5,POS,20160427153751.999,32.029439,34.801940,12,12,0,166,7,1.100000
$GPGGA,153753.00,3201.766327,N,03448.116401,E,1,11,3.2,147.7,M,19.1,M,,*6E
$PGLOR,5,STA,153753.00,0.005,0.000,363,1,32,1,P,F,L,0,C,2,S,0002,0,1,R,33F4,TPEF,20,29,LC,,*69
$PGLOR,1,UNC,153753.00,0.036,32.0,7.5,0.22,180.00,22.6,22.6,0.0*14
$PGLOR,2,SAT,3,1,R21,037,3F,R10,019,3B,G12,028,1B,G25,031,1F,R11,020,3F,G29,020,1F*2E
$PGLOR,2,SAT,3,2,G02,022,1F,G24,013,10,R22,037,3F,G05,028,1B,G31,010,10,G20,014,13*5C
$PGLOR,2,SAT,3,3,G21,013,13*6A
$PGLOR,2,SIO,TxERR,0,RxERR,0,TxCNT,317,RxCNT,3880,MLFRMPKT,0,DTMS,1000,DTIN,15,23,DTOUT,426,976,HATMD,10*2E
$PGLOR,3,PWR,mA,37.1,RFTm,999,OscTm,1000,MeasTm,1000,UTC,153753.00*0C
$GPGSV,3,1,12,12,61,072,28,25,61,342,35,29,49,284,30,02,47,052,24*7B
$GPGSV,3,2,12,24,30,177,17,05,19,118,30,31,13,321,12,20,09,164,14*71
$GPGSV,3,3,12,21,07,211,13,14,07,273,,06,06,038,,32,04,270,*71
$GLGSV,2,1,07,85,64,311,37,74,61,158,20,75,59,326,29,86,26,245,39*62
$GLGSV,2,2,07,84,34,027,,73,11,152,,69,02,081,*5A
$QZGSV,1,1,01,01,05,056,*53
$GPGSA,A,3,02,05,12,20,21,25,29,,,,,,12.0,7.1,9.7*00
$GNGSA,A,3,02,05,12,20,21,25,29,,,,,,12.0,7.1,9.7*1E
$GNGSA,A,3,74,75,85,86,,,,,,,,,12.0,7.1,9.7*15
$QZGSA,A,3,,,,,,,,,,,,,12.0,7.1,9.7*15
$IMGSA,A,3,,,,,,,,,,,,,12.0,7.1,9.7*1A
$PGLOR,1,FIX,1.0,1.0*20
$GPRMC,153753.00,A,3201.766327,N,03448.116401,E,000.0,,270416,,,A*79
$PGLOR,SPL,20160427183751.5,POS,20160427153752.999,32.029439,34.801940,32,32,0,167,8,1.100000
$GPGGA,153754.00,3201.766327,N,03448.116401,E,1,11,3.2,148.0,M,19.1,M,,*61
$PGLOR,5,STA,153754.00,0.005,0.000,363,1,32,1,P,F,L,0,C,2,S,0002,0,1,R,33F4,TPEF,20,30,LC,,*66
$PGLOR,1,UNC,153754.00,0.036,32.0,7.5,0.37,180.00,22.6,22.6,0.0*17
$PGLOR,2,SAT,3,1,R21,036,3F,R10,021,3B,G12,028,1B,G25,030,1F,R11,020,3F,G29,020,1F*25
$PGLOR,2,SAT,3,2,G02,021,1F,G24,012,10,R22,036,3F,G05,026,13,G31,010,10,G20,015,13*21
$PGLOR,2,SAT,3,3,G21,013,13*6A
$PGLOR,2,SIO,TxERR,0,RxERR,0,TxCNT,425,RxCNT,3831,MLFRMPKT,0,DTMS,1001,DTIN,15,23,DTOUT,630,979,HATMD,11*28
$PGLOR,3,PWR,mA,34.9,RFTm,1001,OscTm,1000,MeasTm,1000,UTC,153754.00*39
$GPGSV,3,1,12,12,61,072,28,25,61,342,34,29,49,284,29,02,47,052,23*75
$GPGSV,3,2,12,24,30,177,16,05,19,118,29,31,13,321,12,20,09,164,15*79
$GPGSV,3,3,12,21,07,211,13,14,07,273,,06,06,038,,32,04,270,*71
$GLGSV,2,1,07,85,64,311,37,74,61,158,21,75,59,326,28,86,26,245,39*62
$GLGSV,2,2,07,84,34,027,,73,11,152,,69,02,081,*5A
$QZGSV,1,1,01,01,05,056,*53
$GPGSA,A,3,02,05,12,20,21,25,29,,,,,,12.1,7.2,9.7*02
$GNGSA,A,3,02,05,12,20,21,25,29,,,,,,12.1,7.2,9.7*1C
$GNGSA,A,3,74,75,85,86,,,,,,,,,12.1,7.2,9.7*17
$QZGSA,A,3,,,,,,,,,,,,,12.1,7.2,9.7*17
$IMGSA,A,3,,,,,,,,,,,,,12.1,7.2,9.7*18
$PGLOR,1,FIX,1.0,1.0*20
$GPRMC,153754.00,A,3201.766327,N,03448.116401,E,000.0,,270416,,,A*7E
$PGLOR,SPL,20160427183752.5,POS,20160427153753.999,32.029439,34.801940,32,32,0,167,8,1.100000
$GPGGA,153755.00,3201.766327,N,03448.116401,E,1,11,3.2,147.2,M,19.1,M,,*6D
$PGLOR,5,STA,153755.00,0.005,0.000,363,1,32,1,P,F,L,0,C,2,S,0002,0,1,R,33F4,TPEF,20,31,LC,,*66
$PGLOR,1,UNC,153755.00,0.036,32.0,7.5,0.41,180.00,22.6,22.6,0.0*17
$PGLOR,2,SAT,4,1,R21,034,3F,R10,022,3B,G25,030,1F,G12,027,1B,R11,020,3F,G29,019,1F*26
$PGLOR,2,SAT,4,2,G02,022,1F,R20,020,30,G24,011,10,R22,036,3F,G05,023,13,G31,010,10*31
$PGLOR,2,SAT,4,3,R09,007,30,G20,015,13,G21,012,13,G14,007,10,G06,007,10,Q01,007,30*3B
$PGLOR,2,SAT,4,4,G32,007,10,R05,007,30*21
$PGLOR,2,SIO,TxERR,0,RxERR,0,TxCNT,597,RxCNT,4525,MLFRMPKT,0,DTMS,1018,DTIN,22,29,DTOUT,846,988,HATMD,29*23
$PGLOR,3,PWR,mA,38.1,RFTm,1018,OscTm,1000,MeasTm,1000,UTC,153755.00*34
$GPGSV,3,1,12,25,61,342,34,12,61,072,28,29,49,284,28,02,47,052,23*74
$GPGSV,3,2,12,24,30,177,16,05,19,118,29,31,13,321,11,20,09,164,15*7A
$GPGSV,3,3,12,21,07,211,13,14,07,273,07,06,06,038,07,32,04,270,07*76
$GLGSV,2,1,07,85,64,311,36,74,61,158,22,75,59,326,27,84,34,027,20*60
$GLGSV,2,2,07,86,26,245,39,73,11,152,07,69,02,081,07*57
$QZGSV,1,1,01,01,05,056,07*54
$GPGSA,A,3,02,05,12,20,21,25,29,,,,,,12.1,7.2,9.7*02
$GNGSA,A,3,02,05,12,20,21,25,29,,,,,,12.1,7.2,9.7*1C
$GNGSA,A,3,74,75,85,86,,,,,,,,,12.1,7.2,9.7*17
$QZGSA,A,3,,,,,,,,,,,,,12.1,7.2,9.7*17
$IMGSA,A,3,,,,,,,,,,,,,12.1,7.2,9.7*18
$PGLOR,1,FIX,1.0,1.0*20
$GPRMC,153755.00,A,3201.766327,N,03448.116401,E,000.0,,270416,,,A*7F
$PGLOR,SPL,20160427183753.5,POS,20160427153754.999,32.029439,34.801940,32,32,0,166,8,1.100000
$GPGGA,153756.00,3201.766327,N,03448.116401,E,1,11,3.2,147.2,M,19.1,M,,*6E
$PGLOR,5,STA,153756.00,0.005,0.000,363,1,32,1,P,F,L,0,C,2,S,0002,0,1,R,33F4,TPEF,20,32,LC,,*66
$PGLOR,1,UNC,153756.00,0.036,32.0,7.6,0.31,180.00,22.6,22.6,0.0*10
$PGLOR,2,SAT,4,1,R21,035,3F,R10,024,3B,G25,030,1F,G12,027,1B,R11,020,3F,G29,019,1F*21
$PGLOR,2,SAT,4,2,G02,022,1F,R20,018,30,G24,012,10,R22,036,3F,G05,022,13,G31,010,10*38
$PGLOR,2,SAT,4,3,R09,007,30,G20,014,13,G21,011,13,G14,013,10,G06,007,10,Q01,007,30*3C
$PGLOR,2,SAT,4,4,G32,007,10,R05,007,30*21
$PGLOR,2,SIO,TxERR,0,RxERR,0,TxCNT,407,RxCNT,4214,MLFRMPKT,0,DTMS,997,DTIN,15,22,DTOUT,871,976,HATMD,26*14
$PGLOR,3,PWR,mA,38.0,RFTm,998,OscTm,1000,MeasTm,1000,UTC,153756.00*06
$GPGSV,3,1,12,25,61,342,33,12,61,072,28,29,49,284,28,02,47,052,23*73
$GPGSV,3,2,12,24,30,177,15,05,19,118,28,31,13,321,11,20,09,164,15*78
$GPGSV,3,3,12,21,07,211,13,14,07,273,13,06,06,038,07,32,04,270,07*73
$GLGSV,2,1,07,85,64,311,36,74,61,158,24,75,59,326,26,84,34,027,20*67
$GLGSV,2,2,07,86,26,245,38,73,10,152,07,69,02,081,07*57
$QZGSV,1,1,01,01,05,056,07*54
$GPGSA,A,3,02,05,12,20,21,25,29,,,,,,12.1,7.2,9.7*02
$GNGSA,A,3,02,05,12,20,21,25,29,,,,,,12.1,7.2,9.7*1C
$GNGSA,A,3,74,75,85,86,,,,,,,,,12.1,7.2,9.7*17
$QZGSA,A,3,,,,,,,,,,,,,12.1,7.2,9.7*17
$IMGSA,A,3,,,,,,,,,,,,,12.1,7.2,9.7*18
$PGLOR,1,FIX,1.0,1.0*20
$GPRMC,153756.00,A,3201.766327,N,03448.116401,E,000.0,,270416,,,A*7C
$PGLOR,SPL,20160427183754.5,POS,20160427153755.999,32.029439,34.801940,32,32,0,166,8,1.100000
$GPGGA,153757.00,3201.766327,N,03448.116401,E,1,13,2.4,146.9,M,19.1,M,,*60
$PGLOR,5,STA,153757.00,0.005,0.000,363,1,24,1,P,F,L,0,C,2,S,0002,0,1,R,33F4,TPEF,20,33,LC,,*61
$PGLOR,1,UNC,153757.00,0.034,24.0,7.4,0.28,180.00,17.0,17.0,0.0*1E
$PGLOR,2,SAT,4,1,R21,037,3F,R10,025,3B,G25,030,1F,G12,027,1B,R11,021,3F,G29,021,1F*28
$PGLOR,2,SAT,4,2,G02,019,1F,R20,015,3F,G24,011,1B,R22,037,3F,G05,025,13,G31,013,10*3F
$PGLOR,2,SAT,4,3,R09,007,30,G20,015,13,G21,011,13,G14,007,10,G06,007,10,Q01,007,30*38
$PGLOR,2,SAT,4,4,G32,016,10,R05,007,30*21
$PGLOR,2,SIO,TxERR,0,RxERR,0,TxCNT,364,RxCNT,4275,MLFRMPKT,0,DTMS,1000,DTIN,13,22,DTOUT,720,977,HATMD,26*2B
$PGLOR,3,PWR,mA,38.0,RFTm,999,OscTm,1000,MeasTm,1000,UTC,153757.00*06
$GPGSV,3,1,12,25,61,342,33,12,61,072,28,29,49,284,27,02,47,052,23*7C
$GPGSV,3,2,12,24,30,177,15,05,19,118,28,31,13,321,13,20,09,164,15*7A
$GPGSV,3,3,12,21,07,211,13,14,07,273,13,06,06,038,07,32,04,270,16*73
$GLGSV,2,1,07,85,64,311,37,74,61,158,25,75,59,326,26,84,34,027,19*6D
$GLGSV,2,2,07,86,26,245,38,73,10,152,07,69,02,081,07*57
$QZGSV,1,1,01,01,05,056,07*54
$GPGSA,A,3,02,05,12,20,21,24,25,29,,,,,4.0,2.8,2.9*38
$GNGSA,A,3,02,05,12,20,21,24,25,29,,,,,4.0,2.8,2.9*26
$GNGSA,A,3,74,75,84,85,86,,,,,,,,4.0,2.8,2.9*27
$QZGSA,A,3,,,,,,,,,,,,,4.0,2.8,2.9*2B
$IMGSA,A,3,,,,,,,,,,,,,4.0,2.8,2.9*24
$PGLOR,1,FIX,1.0,1.0*20
$GPRMC,153757.00,A,3201.766327,N,03448.116401,E,000.0,,270416,,,A*7D
$PGLOR,SPL,20160427183755.5,POS,20160427153756.999,32.029439,34.801940,24,24,0,166,7,1.100000
$GPGGA,153758.00,3201.766327,N,03448.116401,E,1,13,4.8,146.9,M,19.1,M,,*65
$PGLOR,5,STA,153758.00,0.005,0.000,363,1,48,1,P,F,L,0,C,3,S,0002,0,1,R,33F4,TPEF,20,34,LC,,*62
$PGLOR,1,UNC,153758.00,0.033,48.0,7.9,0.42,180.00,33.9,33.9,0.0*1D
$PGLOR,2,SAT,4,1,R21,037,3F,R10,025,3F,G25,029,1F,G12,026,1F,R11,018,3F,G29,025,1F*2F
$PGLOR,2,SAT,4,2,G02,018,1F,R20,015,3F,G24,011,1F,R22,038,3F,G05,023,13,G31,007,10*36
$PGLOR,2,SAT,4,3,R09,007,30,G20,015,13,G21,011,13,G14,007,10,G06,007,10,Q01,007,30*38
$PGLOR,2,SAT,4,4,G32,007,10,R05,007,30*21
$PGLOR,2,SIO,TxERR,0,RxERR,0,TxCNT,378,RxCNT,4332,MLFRMPKT,0,DTMS,1002,DTIN,18,29,DTOUT,715,972,HATMD,28*2B
$PGLOR,3,PWR,mA,38.1,RFTm,1002,OscTm,1000,MeasTm,1000,UTC,153758.00*32
$GPGSV,3,1,12,25,61,342,33,12,61,072,27,29,49,284,27,02,47,052,22*72
$GPGSV,3,2,12,24,30,177,14,05,19,118,27,31,13,321,12,20,09,164,15*75
$GPGSV,3,3,12,21,07,211,13,14,07,273,12,06,06,038,07,32,04,270,15*71
$GLGSV,2,1,07,85,64,311,37,74,61,158,25,75,59,326,25,84,34,027,19*6E
$GLGSV,2,2,07,86,26,245,38,73,10,152,07,69,02,081,07*57
$QZGSV,1,1,01,01,05,056,07*54
$GPGSA,A,3,02,05,12,20,21,24,25,29,,,,,2.3,1.0,2.1*3E
$GNGSA,A,3,02,05,12,20,21,24,25,29,,,,,2.3,1.0,2.1*20
$GNGSA,A,3,74,75,84,85,86,,,,,,,,2.3,1.0,2.1*21
$QZGSA,A,3,,,,,,,,,,,,,2.3,1.0,2.1*2D
$IMGSA,A,3,,,,,,,,,,,,,2.3,1.0,2.1*22
$PGLOR,1,FIX,1.0,1.0*20
$GPRMC,153758.00,A,3201.766327,N,03448.116401,E,000.0,,270416,,,A*72
$PGLOR,SPL,20160427183756.5,POS,20160427153757.999,32.029439,34.801940,48,48,0,166,8,1.100000
$GPGGA,153759.00,3201.766327,N,03448.116401,E,1,13,2.4,146.8,M,19.1,M,,*6F
$PGLOR,5,STA,153759.00,0.005,0.000,363,1,24,1,P,F,L,0,C,2,S,0002,0,1,R,33F4,TPEF,20,35,LC,,*69
$PGLOR,1,UNC,153759.00,0.031,24.0,8.0,0.30,180.00,17.0,17.0,0.0*17
$PGLOR,2,SAT,4,1,R21,037,3F,R10,024,3B,G25,030,1F,G12,024,1F,R11,017,3B,G29,027,1F*29
$PGLOR,2,SAT,4,2,G02,023,1F,R20,017,3F,G24,010,1B,R22,036,3F,G05,023,13,G31,018,10*39
$PGLOR,2,SAT,4,3,R09,007,30,G20,016,13,G21,010,13,G14,011,10,G06,007,10,Q01,007,30*3D
$PGLOR,2,SAT,4,4,G32,013,10,R05,009,30*2A
$PGLOR,2,SIO,TxERR,0,RxERR,0,TxCNT,484,RxCNT,4335,MLFRMPKT,0,DTMS,1000,DTIN,15,20,DTOUT,625,980,HATMD,28*21
$PGLOR,3,PWR,mA,38.1,RFTm,1000,OscTm,1000,MeasTm,1000,UTC,153759.00*31
$GPGSV,3,1,12,25,61,342,32,12,61,072,27,29,49,284,27,02,47,052,23*72
$GPGSV,3,2,12,24,30,177,14,05,19,118,27,31,13,321,18,20,09,164,16*7C
$GPGSV,3,3,12,21,07,211,12,14,07,273,12,06,06,038,07,32,04,270,15*70
$GLGSV,2,1,07,85,64,311,37,74,61,158,25,75,59,326,24,84,34,027,19*6F
$GLGSV,2,2,07,86,26,245,38,73,10,152,07,69,02,081,09*59
$QZGSV,1,1,01,01,05,056,07*54
$GPGSA,A,3,02,05,12,20,21,24,25,29,,,,,3.1,1.9,2.4*31
$GNGSA,A,3,02,05,12,20,21,24,25,29,,,,,3.1,1.9,2.4*2F
$GNGSA,A,3,74,75,84,85,86,,,,,,,,3.1,1.9,2.4*2E
$QZGSA,A,3,,,,,,,,,,,,,3.1,1.9,2.4*22
$IMGSA,A,3,,,,,,,,,,,,,3.1,1.9,2.4*2D
$PGLOR,1,FIX,1.0,1.0*20
$GPRMC,153759.00,A,3201.766327,N,03448.116401,E,000.0,,270416,,,A*73
$PGLOR,SPL,20160427183757.5,POS,20160427153758.999,32.029439,34.801940,24,24,0,166,8,1.100000
$GPGGA,153800.00,3201.766327,N,03448.116401,E,1,11,2.4,146.8,M,19.1,M,,*6E
$PGLOR,5,STA,153800.00,0.005,0.000,364,1,24,1,P,F,L,0,C,3,S,0002,0,1,R,33F4,TPEF,20,36,LC,,*6F
$PGLOR,1,UNC,153800.00,0.030,24.0,8.2,0.43,180.00,17.0,17.0,0.0*13
$PGLOR,2,SAT,4,1,R21,036,3F,R10,022,3B,G25,032,1F,G12,026,1F,R11,019,3F,G29,026,1F*25
$PGLOR,2,SAT,4,2,G02,022,1F,R20,016,3F,G24,009,10,R22,035,3F,G05,025,13,G31,011,10*4F
$PGLOR,2,SAT,4,3,R09,007,30,G20,015,13,G21,016,10,G14,007,10,G06,007,10,Q01,007,30*3C
$PGLOR,2,SAT,4,4,G32,015,10,R05,007,30*22
$PGLOR,2,SIO,TxERR,0,RxERR,0,TxCNT,468,RxCNT,4347,MLFRMPKT,0,DTMS,998,DTIN,17,22,DTOUT,860,976,HATMD,26*17
$PGLOR,3,PWR,mA,26.7,RFTm,998,OscTm,1000,MeasTm,1000,UTC,153800.00*02
$GPGSV,3,1,12,25,61,342,32,12,61,072,27,29,49,284,27,02,47,052,23*72
$GPGSV,3,2,12,24,30,177,14,05,19,118,27,31,13,321,18,20,09,164,16*7C
$GPGSV,3,3,12,21,07,211,16,14,07,273,12,06,06,038,07,32,04,270,15*74
$GLGSV,2,1,07,85,64,311,37,74,61,158,25,75,59,326,24,84,34,027,18*6E
$GLGSV,2,2,07,86,26,245,38,73,10,152,07,69,02,081,09*59
$QZGSV,1,1,01,01,05,056,07*54
$GPGSA,A,3,02,05,12,20,25,29,,,,,,,3.0,1.8,2.4*34
$GNGSA,A,3,02,05,12,20,25,29,,,,,,,3.0,1.8,2.4*2A
$GNGSA,A,3,74,75,84,85,86,,,,,,,,3.0,1.8,2.4*2E
$QZGSA,A,3,,,,,,,,,,,,,3.0,1.8,2.4*22
$IMGSA,A,3,,,,,,,,,,,,,3.0,1.8,2.4*2D
$PGLOR,1,FIX,1.0,1.0*20
$GPRMC,153800.00,A,3201.766327,N,03448.116401,E,000.0,,270416,,,A*70
$PGLOR,SPL,20160427183758.5,POS,20160427153759.999,32.029439,34.801940,24,24,0,166,8,1.100000
$GPGGA,153801.00,3201.766327,N,03448.116401,E,1,12,2.4,146.7,M,19.1,M,,*63
$PGLOR,5,STA,153801.00,0.005,0.000,364,1,24,1,P,F,L,0,C,3,S,0002,0,1,R,33F4,TPEF,20,37,LC,,*6F
$PGLOR,1,UNC,153801.00,0.030,24.0,8.4,0.46,180.00,17.0,17.0,0.0*11
$PGLOR,2,SAT,4,1,R21,037,3F,R10,020,3B,G25,033,1F,G12,025,1F,R11,018,3F,G29,024,1F*27
$PGLOR,2,SAT,4,2,G02,023,1F,R20,017,3F,G24,010,1B,R22,036,3F,G05,027,13,G31,012,10*37
$PGLOR,2,SAT,4,3,R09,007,30,G20,015,13,G21,010,10,G14,007,10,G06,007,10,Q01,007,30*3A
$PGLOR,2,SAT,4,4,G32,011,10,R05,013,30*23
$PGLOR,2,SIO,TxERR,0,RxERR,0,TxCNT,362,RxCNT,4255,MLFRMPKT,0,DTMS,1001,DTIN,19,26,DTOUT,870,974,HATMD,27*28
$PGLOR,3,PWR,mA,26.7,RFTm,1001,OscTm,1000,MeasTm,1000,UTC,153801.00*3B
$GPGSV,3,1,12,25,61,342,33,12,61,072,27,29,49,284,27,02,47,052,23*73
$GPGSV,3,2,12,24,30,177,13,05,19,118,27,31,13,321,17,20,09,164,16*74
$GPGSV,3,3,12,21,08,211,16,14,07,273,11,06,06,038,07,32,04,270,15*78
$GLGSV,2,1,07,85,64,311,37,74,61,158,24,75,59,326,23,84,34,027,18*68
$GLGSV,2,2,07,86,26,245,38,73,10,152,07,69,02,081,13*52
$QZGSV,1,1,01,01,05,056,07*54
$GPGSA,A,3,02,05,12,20,24,25,29,,,,,,3.0,1.8,2.4*32
$GNGSA,A,3,02,05,12,20,24,25,29,,,,,,3.0,1.8,2.4*2C
$GNGSA,A,3,74,75,84,85,86,,,,,,,,3.0,1.8,2.4*2E
$QZGSA,A,3,,,,,,,,,,,,,3.0,1.8,2.4*22
$IMGSA,A,3,,,,,,,,,,,,,3.0,1.8,2.4*2D
$PGLOR,1,FIX,1.0,1.0*20
$GPRMC,153801.00,A,3201.766327,N,03448.116401,E,000.0,,270416,,,A*71
$PGLOR,SPL,20160427183759.5,POS,20160427153800.999,32.029439,34.801940,24,24,0,166,8,1.100000
$GPGGA,153802.00,3201.766327,N,03448.116401,E,1,13,2.4,146.7,M,19.1,M,,*61
$PGLOR,5,STA,153802.00,0.005,0.000,364,1,24,1,P,F,L,0,C,3,S,0002,0,1,R,33F4,TPEF,20,38,LC,,*63
$PGLOR,1,UNC,153802.00,0.029,24.0,8.6,0.50,180.00,17.0,17.0,0.0*1F
$PGLOR,2,SAT,4,1,R21,037,3F,R10,021,3B,G25,033,1F,G12,024,1F,R11,020,3F,G29,023,1F*2B
$PGLOR,2,SAT,4,2,G02,023,1F,R20,016,3F,G24,011,1B,R22,038,3F,G05,027,13,G31,011,13*39
$PGLOR,2,SAT,4,3,R09,007,30,G20,015,13,G21,007,10,G14,007,10,G06,010,10,Q01,007,30*3A
$PGLOR,2,SAT,4,4,G32,007,10,R05,007,30*21
$PGLOR,2,SIO,TxERR,0,RxERR,0,TxCNT,350,RxCNT,4327,MLFRMPKT,0,DTMS,1001,DTIN,15,21,DTOUT,874,980,HATMD,28*26
$PGLOR,3,PWR,mA,26.7,RFTm,1001,OscTm,1000,MeasTm,1000,UTC,153802.00*38
$GPGSV,3,1,12,25,61,342,33,12,61,072,27,29,49,285,26,02,47,052,23*73
$GPGSV,3,2,12,24,30,177,13,05,19,118,27,31,13,321,16,20,09,164,16*75
$GPGSV,3,3,12,21,08,211,15,14,07,273,11,06,06,038,10,32,04,270,14*7C
$GLGSV,2,1,07,85,64,311,37,74,61,158,24,75,59,326,23,84,34,027,18*68
$GLGSV,2,2,07,86,26,245,38,73,10,152,07,69,02,081,13*52
$QZGSV,1,1,01,01,05,056,07*54
$GPGSA,A,3,02,05,12,20,24,25,29,31,,,,,3.0,1.8,2.4*30
$GNGSA,A,3,02,05,12,20,24,25,29,31,,,,,3.0,1.8,2.4*2E
$GNGSA,A,3,74,75,84,85,86,,,,,,,,3.0,1.8,2.4*2E
$QZGSA,A,3,,,,,,,,,,,,,3.0,1.8,2.4*22
$IMGSA,A,3,,,,,,,,,,,,,3.0,1.8,2.4*2D
$PGLOR,1,FIX,1.0,1.0*20
$GPRMC,153802.00,A,3201.766327,N,03448.116401,E,000.0,,270416,,,A*72
$PGLOR,SPL,20160427183800.5,POS,20160427153801.999,32.029439,34.801940,24,24,0,166,9,1.100000
$GPGGA,153803.00,3201.766327,N,03448.116401,E,1,13,1.6,146.6,M,19.1,M,,*60
$PGLOR,5,STA,153803.00,0.005,0.000,363,1,16,1,P,F,L,0,C,3,S,0002,0,1,R,33F4,TPEF,20,39,LC,,*65
$PGLOR,1,UNC,153803.00,0.029,16.0,8.7,0.73,180.00,12.1,10.4,63.2*2F
$PGLOR,2,SAT,4,1,R21,035,3F,R10,022,3B,G25,035,1F,G12,023,1F,R11,029,3F,G29,027,1F*26
$PGLOR,2,SAT,4,2,G02,026,1F,R20,019,3F,G24,012,1B,R22,036,3F,G05,024,13,G31,012,13*3E
$PGLOR,2,SAT,4,3,R09,007,30,G20,014,13,G21,013,10,G14,007,10,G06,010,10,Q01,007,30*3E
$PGLOR,2,SAT,4,4,G32,007,10,R05,007,30*21
$PGLOR,2,SIO,TxERR,0,RxERR,0,TxCNT,398,RxCNT,4255,MLFRMPKT,0,DTMS,998,DTIN,15,26,DTOUT,872,972,HATMD,26*1C
$PGLOR,3,PWR,mA,26.7,RFTm,998,OscTm,1000,MeasTm,1000,UTC,153803.00*01
$GPGSV,3,1,12,25,61,342,35,12,61,072,26,29,49,285,27,02,47,052,26*70
$GPGSV,3,2,12,24,30,177,13,05,19,118,27,31,13,321,16,20,09,164,15*76
$GPGSV,3,3,12,21,08,211,15,14,07,273,10,06,06,038,10,32,04,270,13*7A
$GLGSV,2,1,07,85,64,311,37,74,61,158,24,75,59,326,29,84,34,027,19*63
$GLGSV,2,2,07,86,26,245,37,73,10,152,07,69,02,081,12*5C
$QZGSV,1,1,01,01,05,056,07*54
$GPGSA,A,3,02,05,12,20,24,25,29,31,,,,,3.0,1.8,2.4*30
$GNGSA,A,3,02,05,12,20,24,25,29,31,,,,,3.0,1.8,2.4*2E
$GNGSA,A,3,74,75,84,85,86,,,,,,,,3.0,1.8,2.4*2E
$QZGSA,A,3,,,,,,,,,,,,,3.0,1.8,2.4*22
$IMGSA,A,3,,,,,,,,,,,,,3.0,1.8,2.4*2D
$PGLOR,1,FIX,1.0,1.0*20
$GPRMC,153803.00,A,3201.766327,N,03448.116401,E,000.0,,270416,,,A*73
$PGLOR,SPL,20160427183801.5,POS,20160427153802.999,32.029439,34.801940,16,16,0,166,9,1.100000
$GPGGA,153804.00,3201.766327,N,03448.116401,E,1,13,1.6,146.5,M,19.1,M,,*64
$PGLOR,5,STA,153804.00,0.005,0.000,363,1,16,1,P,F,L,0,C,3,S,0002,0,1,R,33F4,TPEF,20,40,LC,,*6C
$PGLOR,1,UNC,153804.00,0.028,16.0,8.7,0.27,180.00,12.1,10.4,63.2*28
$PGLOR,2,SAT,4,1,R21,032,1F,R10,025,3B,G25,034,1F,G12,028,1F,R11,036,3F,G29,027,1F*20
$PGLOR,2,SAT,4,2,G02,024,1F,R20,023,3F,G24,013,1B,R22,038,3F,G05,025,13,G31,013,13*3A
$PGLOR,2,SAT,4,3,R09,014,30,G20,014,13,G21,009,10,G14,007,10,G06,010,10,Q01,007,30*37
$PGLOR,2,SAT,4,4,G32,007,10,R05,007,30*21
$PGLOR,2,SIO,TxERR,0,RxERR,0,TxCNT,470,RxCNT,4352,MLFRMPKT,0,DTMS,1002,DTIN,14,20,DTOUT,875,981,HATMD,28*22
$PGLOR,3,PWR,mA,26.7,RFTm,1002,OscTm,1000,MeasTm,1000,UTC,153804.00*3D
$GPGSV,3,1,12,25,61,342,35,12,61,072,28,29,49,285,27,02,47,052,26*7E
$GPGSV,3,2,12,24,30,177,13,05,19,118,27,31,13,321,16,20,09,164,15*76
$GPGSV,3,3,12,21,08,211,14,14,07,273,10,06,06,038,10,32,04,270,13*7B
$GLGSV,2,1,07,85,64,311,36,74,61,158,25,75,59,326,36,84,34,027,23*64
$GLGSV,2,2,07,86,26,245,38,73,10,152,14,69,02,081,12*51
$QZGSV,1,1,01,01,05,056,07*54
$GPGSA,A,3,02,05,12,20,24,25,29,31,,,,,3.0,1.8,2.4*30
$GNGSA,A,3,02,05,12,20,24,25,29,31,,,,,3.0,1.8,2.4*2E
$GNGSA,A,3,74,75,84,85,86,,,,,,,,3.0,1.8,2.4*2E
$QZGSA,A,3,,,,,,,,,,,,,3.0,1.8,2.4*22
$IMGSA,A,3,,,,,,,,,,,,,3.0,1.8,2.4*2D
$PGLOR,1,FIX,1.0,1.0*20
$GPRMC,153804.00,A,3201.766327,N,03448.116401,E,000.0,,270416,,,A*74
$PGLOR,SPL,20160427183802.5,POS,20160427153803.999,32.029439,34.801940,16,16,0,166,9,1.100000
$GPGGA,153805.00,3201.769432,N,03448.113974,E,1,13,1.6,146.4,M,19.1,M,,*62
$PGLOR,5,STA,153805.00,0.005,0.000,363,1,16,1,P,F,L,0,C,3,S,0002,0,1,R,33F4,TPEF,20,41,LC,,*6C
$PGLOR,1,UNC,153805.00,0.028,16.0,8.7,0.21,180.00,11.3,11.3,0.0*1F
$PGLOR,2,SAT,4,1,R21,029,1F,R10,026,3B,G25,035,1F,G12,027,1F,R11,035,3F,G29,030,1F*22
$PGLOR,2,SAT,4,2,G02,026,1F,R20,024,3F,G24,015,1B,R22,039,3F,G05,025,13,G31,013,13*38
$PGLOR,2,SAT,4,3,R09,019,30,G20,013,13,G21,008,10,G14,014,10,G06,009,10,Q01,017,30*37
$PGLOR,2,SAT,4,4,G32,007,10,R05,007,30*21
$PGLOR,2,SIO,TxERR,0,RxERR,0,TxCNT,395,RxCNT,4346,MLFRMPKT,0,DTMS,999,DTIN,16,22,DTOUT,870,978,HATMD,27*1D
$PGLOR,3,PWR,mA,26.7,RFTm,1000,OscTm,1000,MeasTm,1000,UTC,153805.00*3E
$GPGSV,3,1,12,25,61,342,35,12,61,072,28,29,49,285,30,02,47,052,26*78
$GPGSV,3,2,12,24,30,177,15,05,19,118,27,31,13,321,15,20,09,164,15*73
$GPGSV,3,3,12,21,08,211,13,14,07,273,14,06,06,038,10,32,04,270,12*79
$GLGSV,2,1,07,85,64,311,36,74,61,158,26,75,59,326,36,84,34,027,24*60
$GLGSV,2,2,07,86,26,245,39,73,10,152,19,69,02,081,11*5E
$QZGSV,1,1,01,01,05,056,17*55
$GPGSA,A,3,02,05,12,20,24,25,29,31,,,,,3.0,1.8,2.4*30
$GNGSA,A,3,02,05,12,20,24,25,29,31,,,,,3.0,1.8,2.4*2E
$GNGSA,A,3,74,75,84,85,86,,,,,,,,3.0,1.8,2.4*2E
$QZGSA,A,3,,,,,,,,,,,,,3.0,1.8,2.4*22
$IMGSA,A,3,,,,,,,,,,,,,3.0,1.8,2.4*2D
$PGLOR,1,FIX,1.0,1.0*20
$GPRMC,153805.00,A,3201.769432,N,03448.113974,E,000.0,,270416,,,A*73
$PGLOR,SPL,20160427183803.5,POS,20160427153804.999,32.029491,34.801900,16,16,0,166,9,1.100000
$GPGGA,153806.00,3201.769432,N,03448.113974,E,1,13,1.6,146.3,M,19.1,M,,*66
$PGLOR,5,STA,153806.00,0.005,0.000,363,1,16,1,P,F,L,1,C,3,S,0002,0,1,R,33F4,TPEF,20,42,LC,,*6D
$PGLOR,1,UNC,153806.00,0.027,16.0,8.8,0.35,180.00,11.3,11.3,0.0*19
$PGLOR,2,SAT,4,1,R21,029,1F,R10,024,3B,G25,034,1F,G12,023,1F,R11,033,3F,G29,032,1F*21
$PGLOR,2,SAT,4,2,G02,027,1F,R20,022,3F,G24,019,1B,R22,039,3F,G05,025,1B,G31,012,13*43
$PGLOR,2,SAT,4,3,R09,012,30,G20,013,1B,G21,007,10,G14,007,10,G06,010,10,Q01,011,30*4E
$PGLOR,2,SAT,4,4,G32,007,10,R05,007,30*21
$PGLOR,2,SIO,TxERR,0,RxERR,0,TxCNT,348,RxCNT,4329,MLFRMPKT,0,DTMS,1001,DTIN,15,24,DTOUT,873,976,HATMD,28*2A
$PGLOR,3,PWR,mA,26.7,RFTm,1000,OscTm,1000,MeasTm,1000,UTC,153806.00*3D
$GPGSV,3,1,12,25,61,342,34,12,61,072,23,29,49,285,32,02,47,052,27*71
$GPGSV,3,2,12,24,30,177,19,05,19,118,25,31,13,321,12,20,09,164,13*7C
$GPGSV,3,3,12,21,08,211,07,14,07,273,07,06,06,038,10,32,03,270,07*7D
$GLGSV,2,1,07,85,64,311,29,74,61,158,24,75,59,326,33,84,34,027,22*6F
$GLGSV,2,2,07,86,26,245,39,73,10,152,12,69,02,081,07*52
$QZGSV,1,1,01,01,05,056,11*53
$GPGSA,A,3,02,05,12,20,24,25,29,31,,,,,3.0,1.8,2.4*30
$GNGSA,A,3,02,05,12,20,24,25,29,31,,,,,3.0,1.8,2.4*2E
$GNGSA,A,3,74,75,84,85,86,,,,,,,,3.0,1.8,2.4*2E
$QZGSA,A,3,,,,,,,,,,,,,3.0,1.8,2.4*22
$IMGSA,A,3,,,,,,,,,,,,,3.0,1.8,2.4*2D
$PGLOR,1,FIX,1.0,1.0*20
$GPRMC,153806.00,A,3201.769432,N,03448.113974,E,000.0,,270416,,,A*70
$PGLOR,SPL,20160427183804.5,POS,20160427153805.999,32.029491,34.801900,16,16,0,165,9,1.100000
$GPGGA,153807.00,3201.769432,N,03448.113974,E,1,13,3.2,145.5,M,19.1,M,,*64
$PGLOR,5,STA,153807.00,0.005,0.000,363,1,32,1,P,F,L,0,C,3,S,0002,6,1,R,33F4,TPEF,20,43,LC,,*6C
$PGLOR,1,UNC,153807.00,0.025,32.0,8.8,0.40,180.00,22.6,22.6,0.0*1E
$PGLOR,2,SAT,4,1,R21,028,1F,R10,021,3B,G25,035,1F,G12,020,1F,R11,035,3F,G29,034,1F*27
$PGLOR,2,SAT,4,2,G02,027,1F,R20,021,3F,G24,020,1B,R22,039,3F,G05,025,1F,G31,014,1F*3D
$PGLOR,2,SAT,4,3,R09,014,30,G20,013,13,G21,007,10,G14,007,10,G06,007,10,Q01,007,30*38
$PGLOR,2,SAT,4,4,G32,011,10,R05,010,30*20
$PGLOR,2,SIO,TxERR,0,RxERR,0,TxCNT,413,RxCNT,4236,MLFRMPKT,0,DTMS,998,DTIN,18,23,DTOUT,869,974,HATMD,26*19
$PGLOR,3,PWR,mA,26.7,RFTm,998,OscTm,1000,MeasTm,1000,UTC,153807.00*05
$GPGSV,3,1,12,25,61,342,35,12,61,072,20,29,49,285,34,02,47,052,27*75
$GPGSV,3,2,12,24,30,177,20,05,19,118,25,31,13,321,14,20,09,164,13*70
$GPGSV,3,3,12,21,08,211,07,14,07,273,07,06,06,038,07,32,03,270,11*7C
$GLGSV,2,1,07,85,64,311,28,74,61,158,21,75,59,326,35,84,33,027,21*69
$GLGSV,2,2,07,86,26,245,39,73,10,152,14,69,02,081,10*52
$QZGSV,1,1,01,01,05,056,07*54
$GPGSA,A,3,02,05,12,20,24,25,29,31,,,,,1.7,1.0,1.4*3E
$GNGSA,A,3,02,05,12,20,24,25,29,31,,,,,1.7,1.0,1.4*20
$GNGSA,A,3,74,75,84,85,86,,,,,,,,1.7,1.0,1.4*20
$QZGSA,A,3,,,,,,,,,,,,,1.7,1.0,1.4*2C
$IMGSA,A,3,,,,,,,,,,,,,1.7,1.0,1.4*23
$PGLOR,1,FIX,1.0,1.0*20
$GPRMC,153807.00,A,3201.769432,N,03448.113974,E,000.5,,270416,,,A*74
$PGLOR,SPL,20160427183805.5,POS,20160427153806.999,32.029491,34.801900,32,32,0,165,9,1.100000
$GPGGA,153808.00,3201.769432,N,03448.113974,E,1,13,3.2,145.4,M,19.1,M,,*6A
$PGLOR,5,STA,153808.00,0.005,0.000,363,1,32,1,P,F,L,0,C,3,S,0002,6,1,R,33F4,TPEF,20,44,LC,,*64
$PGLOR,1,UNC,153808.00,0.024,32.0,9.0,0.29,180.00,22.6,22.6,0.0*16
$PGLOR,2,SAT,4,1,R21,028,1F,R10,021,3B,G25,038,1F,G12,023,1F,R11,036,3F,G29,035,1F*2B
$PGLOR,2,SAT,4,2,G02,028,1F,R20,017,3F,G24,019,1B,R22,038,1F,G05,023,1B,G31,014,13*49
$PGLOR,2,SAT,4,3,R09,013,3B,G20,012,10,G21,014,10,G14,017,10,Q01,007,30,G06,007,10*4C
$PGLOR,2,SAT,4,4,G32,013,10,R05,007,30*24
$PGLOR,2,SIO,TxERR,0,RxERR,0,TxCNT,349,RxCNT,4310,MLFRMPKT,0,DTMS,1002,DTIN,16,24,DTOUT,874,975,HATMD,28*25
$PGLOR,3,PWR,mA,26.7,RFTm,1001,OscTm,1000,MeasTm,1000,UTC,153808.00*32
$GPGSV,3,1,12,25,61,342,38,12,61,072,23,29,49,285,35,02,47,052,28*75
$GPGSV,3,2,12,24,30,177,20,05,19,118,25,31,13,321,14,20,09,164,13*70
$GPGSV,3,3,12,21,08,212,14,14,07,273,17,06,05,038,07,32,03,270,13*7D
$GLGSV,2,1,07,85,64,311,28,74,61,158,21,75,59,326,36,84,33,027,21*6A
$GLGSV,2,2,07,86,26,245,39,73,10,152,14,69,02,081,10*52
$QZGSV,1,1,01,01,05,056,07*54
$GPGSA,A,3,02,05,12,24,25,29,31,,,,,,3.0,1.8,2.4*32
$GNGSA,A,3,02,05,12,24,25,29,31,,,,,,3.0,1.8,2.4*2C
$GNGSA,A,3,73,74,75,84,85,86,,,,,,,3.0,1.8,2.4*2A
$QZGSA,A,3,,,,,,,,,,,,,3.0,1.8,2.4*22
$IMGSA,A,3,,,,,,,,,,,,,3.0,1.8,2.4*2D
$PGLOR,1,FIX,1.0,1.0*20
$GPRMC,153808.00,A,3201.769432,N,03448.113974,E,000.0,,270416,,,A*7E
$PGLOR,SPL,20160427183806.5,POS,20160427153807.999,32.029491,34.801900,32,32,0,164,9,1.100000
$GPGGA,153809.00,3201.769432,N,03448.113974,E,1,13,2.4,144.4,M,19.1,M,,*6D
$PGLOR,5,STA,153809.00,0.005,0.000,364,1,24,1,P,F,L,1,C,3,S,0002,6,1,R,33F4,TPEF,20,45,LC,,*65
$PGLOR,1,UNC,153809.00,0.024,24.0,8.9,0.53,180.00,17.0,17.0,0.0*15
$PGLOR,2,SAT,4,1,R21,032,1F,R10,021,3B,G25,036,1F,G12,026,1F,R11,034,3F,G29,033,1F*2F
$PGLOR,2,SAT,4,2,G02,026,1F,R20,018,3F,G24,017,1B,R22,036,1F,G05,021,1B,G31,013,13*4D
$PGLOR,2,SAT,4,3,R09,013,3B,G20,007,10,G21,018,10,G14,007,10,Q01,007,30,G06,013,10*40
$PGLOR,2,SAT,4,4,G32,012,10,R05,007,30*25
$PGLOR,2,SIO,TxERR,0,RxERR,0,TxCNT,509,RxCNT,4229,MLFRMPKT,0,DTMS,998,DTIN,16,23,DTOUT,871,975,HATMD,26*1B
$PGLOR,3,PWR,mA,26.7,RFTm,999,OscTm,1000,MeasTm,1000,UTC,153809.00*0A
$GPGSV,3,1,12,25,61,342,38,12,61,072,26,29,49,285,35,02,47,052,28*70
$GPGSV,3,2,12,24,30,177,20,05,19,118,25,31,13,321,14,20,09,164,12*71
$GPGSV,3,3,12,21,08,212,18,14,07,273,16,06,05,038,13,32,03,270,13*75
$GLGSV,2,1,07,85,64,311,32,74,61,158,21,75,59,326,36,84,33,027,20*60
$GLGSV,2,2,07,86,26,245,38,73,10,152,14,69,02,081,10*53
$QZGSV,1,1,01,01,05,056,07*54
$GPGSA,A,3,02,05,12,24,25,29,31,,,,,,3.0,1.8,2.4*32
$GNGSA,A,3,02,05,12,24,25,29,31,,,,,,3.0,1.8,2.4*2C
$GNGSA,A,3,73,74,75,84,85,86,,,,,,,3.0,1.8,2.4*2A
$QZGSA,A,3,,,,,,,,,,,,,3.0,1.8,2.4*22
$IMGSA,A,3,,,,,,,,,,,,,3.0,1.8,2.4*2D
$PGLOR,1,FIX,1.0,1.0*20
$GPRMC,153809.00,A,3201.769432,N,03448.113974,E,000.6,,270416,,,A*79
$PGLOR,SPL,20160427183807.5,POS,20160427153808.999,32.029491,34.801900,24,24,0,163,9,1.100000
$GPGGA,153810.00,3201.769432,N,03448.113974,E,1,12,2.4,144.2,M,19.1,M,,*62
$PGLOR,5,STA,153810.00,0.005,0.000,364,1,24,1,P,F,L,0,C,3,S,0002,6,1,R,33F4,TPEF,20,46,LC,,*6F
$PGLOR,1,UNC,153810.00,0.024,24.0,9.0,0.65,180.00,17.0,17.0,0.0*10
$PGLOR,2,SAT,4,1,R21,031,1F,R10,023,3B,G25,032,1F,G12,030,1F,R11,031,3F,G29,033,1F*28
$PGLOR,2,SAT,4,2,G02,028,1F,R20,017,3F,G24,018,1B,R22,034,1F,G05,021,1F,G31,013,1F*30
$PGLOR,2,SAT,4,3,R09,010,30,G20,012,10,G21,017,10,G14,013,10,Q01,007,30,G06,007,10*3A
$PGLOR,2,SAT,4,4,G32,012,10,R05,007,30*25
$PGLOR,2,SIO,TxERR,0,RxERR,0,TxCNT,349,RxCNT,4892,MLFRMPKT,0,DTMS,1001,DTIN,17,25,DTOUT,440,976,HATMD,27*20
$PGLOR,3,PWR,mA,26.5,RFTm,1001,OscTm,1000,MeasTm,1000,UTC,153810.00*39
$GPGSV,3,1,12,25,61,342,37,12,61,073,30,29,49,285,35,02,47,052,28*79
$GPGSV,3,2,12,24,30,177,19,05,19,118,24,31,13,321,14,20,09,164,12*7A
$GPGSV,3,3,12,21,08,212,18,14,07,273,16,06,05,038,12,32,03,270,13*74
$GLGSV,2,1,07,85,64,311,32,74,61,158,23,75,59,326,35,84,33,027,20*61
$GLGSV,2,2,07,86,26,245,38,73,10,152,14,69,02,081,09*5B
$QZGSV,1,1,01,01,05,056,07*54
$GPGSA,A,3,02,05,12,24,25,29,31,,,,,,1.7,1.0,1.4*3C
$GNGSA,A,3,02,05,12,24,25,29,31,,,,,,1.7,1.0,1.4*22
$GNGSA,A,3,74,75,84,85,86,,,,,,,,1.7,1.0,1.4*20
$QZGSA,A,3,,,,,,,,,,,,,1.7,1.0,1.4*2C
$IMGSA,A,3,,,,,,,,,,,,,1.7,1.0,1.4*23
$PGLOR,1,FIX,1.0,1.0*20
$GPRMC,153810.00,A,3201.769432,N,03448.113974,E,000.0,,270416,,,A*77
$PGLOR,SPL,20160427183808.5,POS,20160427153809.999,32.029491,34.801900,24,24,0,163,9,1.100000
$GPGGA,153811.00,3201.769432,N,03448.113974,E,1,13,1.6,144.1,M,19.1,M,,*60
$PGLOR,5,STA,153811.00,0.005,0.000,364,1,16,0,P,F,L,0,C,3,S,0002,6,1,R,33F4,TPEF,20,47,LC,,*6F
$PGLOR,1,UNC,153811.00,0.021,16.0,8.1,3.07,180.00,11.3,11.3,0.0*12
$PGLOR,2,SAT,4,1,R21,028,1F,R10,026,3B,G25,031,1F,G12,029,1F,R11,028,3F,G29,037,1F*22
$PGLOR,2,SAT,4,2,G02,027,1F,R20,018,3F,G24,021,1B,R22,037,1F,G05,023,1B,G31,012,1F*3E
$PGLOR,2,SAT,4,3,R09,007,30,G20,016,10,G21,018,10,G14,007,10,Q01,007,30,G06,007,10*32
$PGLOR,2,SAT,4,4,G32,011,13,R05,007,30*25
$PGLOR,2,SIO,TxERR,0,RxERR,0,TxCNT,408,RxCNT,4277,MLFRMPKT,0,DTMS,999,DTIN,20,24,DTOUT,868,975,HATMD,26*1B
$PGLOR,3,PWR,mA,26.5,RFTm,999,OscTm,1000,MeasTm,1000,UTC,153811.00*01
$GPGSV,3,1,12,25,61,342,37,12,61,073,30,29,49,285,37,02,47,052,28*7B
$GPGSV,3,2,12,24,30,177,21,05,19,118,24,31,13,321,14,20,09,164,16*75
$GPGSV,3,3,12,21,08,212,18,14,07,273,15,06,05,038,12,32,03,270,12*76
$GLGSV,2,1,07,85,64,311,32,74,61,158,26,75,59,326,35,84,33,027,20*64
$GLGSV,2,2,07,86,26,245,38,73,10,152,13,69,02,081,09*5C
$QZGSV,1,1,01,01,05,056,07*54
$GPGSA,A,3,02,05,12,24,25,29,31,32,,,,,1.8,1.4,1.1*33
$GNGSA,A,3,02,05,12,24,25,29,31,32,,,,,1.8,1.4,1.1*2D
$GNGSA,A,3,74,75,84,85,86,,,,,,,,1.8,1.4,1.1*2E
$QZGSA,A,3,,,,,,,,,,,,,1.8,1.4,1.1*22
$IMGSA,A,3,,,,,,,,,,,,,1.8,1.4,1.1*2D
$PGLOR,1,FIX,1.0,1.0*20
$GPRMC,153811.00,A,3201.769432,N,03448.113974,E,000.0,,270416,,,A*76
$PGLOR,SPL,20160427183809.5,POS,20160427153810.999,32.029491,34.801900,16,16,0,163,8,1.100000
$GPGGA,153812.00,3201.770236,N,03448.113341,E,1,12,1.2,142.4,M,19.1,M,,*63
$PGLOR,5,STA,153812.00,0.005,0.000,364,1,12,1,P,F,L,0,C,3,S,0002,8,1,R,33F4,TPEF,20,48,LC,,*68
$PGLOR,1,UNC,153812.00,0.019,12.0,7.5,0.64,180.00,8.7,8.3,69.6*2E
$PGLOR,2,SAT,4,1,R21,035,1F,R10,025,3B,G25,037,1F,G12,027,1F,R11,030,3F,G29,041,1F*2D
$PGLOR,2,SAT,4,2,G02,026,1F,R20,022,3F,G24,020,1B,R22,040,1F,G05,023,1B,G31,009,10*4B
$PGLOR,2,SAT,4,3,R09,007,30,G20,007,10,G21,020,1B,G14,007,10,Q01,007,30,G06,012,10*4F
$PGLOR,2,SAT,4,4,G32,010,10,R05,007,30*27
$PGLOR,2,SIO,TxERR,0,RxERR,0,TxCNT,363,RxCNT,4305,MLFRMPKT,0,DTMS,1000,DTIN,15,23,DTOUT,874,976,HATMD,26*22
$PGLOR,3,PWR,mA,26.5,RFTm,1000,OscTm,1000,MeasTm,1000,UTC,153812.00*3A
$GPGSV,3,1,12,25,61,342,37,12,61,073,29,29,49,285,41,02,47,052,28*72
$GPGSV,3,2,12,24,30,177,21,05,19,118,24,31,13,321,13,20,09,164,15*71
$GPGSV,3,3,12,21,08,212,20,14,07,273,14,06,05,038,12,32,03,270,12*7C
$GLGSV,2,1,07,85,64,311,35,74,61,158,26,75,59,326,34,84,33,027,22*60
$GLGSV,2,2,07,86,26,245,40,73,10,152,13,69,02,081,09*53
$QZGSV,1,1,01,01,05,056,07*54
$GPGSA,A,3,02,05,12,21,24,25,29,,,,,,2.2,1.8,1.3*34
$GNGSA,A,3,02,05,12,21,24,25,29,,,,,,2.2,1.8,1.3*2A
$GNGSA,A,3,74,75,84,85,86,,,,,,,,2.2,1.8,1.3*29
$QZGSA,A,3,,,,,,,,,,,,,2.2,1.8,1.3*25
$IMGSA,A,3,,,,,,,,,,,,,2.2,1.8,1.3*2A
$PGLOR,1,FIX,1.0,1.0*20
$GPRMC,153812.00,A,3201.770236,N,03448.113341,E,000.9,,270416,,,A*7A
$PGLOR,SPL,20160427183810.5,POS,20160427153811.999,32.029504,34.801889,12,12,0,161,7,1.100000
$GPGGA,153813.00,3201.771051,N,03448.112686,E,1,12,1.6,140.6,M,19.1,M,,*6B
$PGLOR,5,STA,153813.00,0.005,0.000,363,1,16,1,P,F,L,0,C,3,S,0002,10,1,R,33F4,TPEF,20,49,LC,,*52
$PGLOR,1,UNC,153813.00,0.018,16.0,7.0,0.58,180.00,11.5,11.1,82.4*27
$PGLOR,2,SAT,4,1,R21,031,1F,R10,030,3B,G25,034,1F,G12,029,1F,R11,026,3F,G29,040,1F*26
$PGLOR,2,SAT,4,2,G02,025,1F,R20,020,3F,G24,018,1B,R22,036,1F,G05,023,1B,G31,018,10*40
$PGLOR,2,SAT,4,3,R09,007,30,G20,016,10,G21,019,1B,G14,016,10,Q01,007,30,G06,007,10*41
$PGLOR,2,SAT,4,4,G32,010,10,R05,008,30*28
$PGLOR,2,SIO,TxERR,0,RxERR,0,TxCNT,385,RxCNT,4276,MLFRMPKT,0,DTMS,999,DTIN,16,20,DTOUT,873,979,HATMD,25*1C
$PGLOR,3,PWR,mA,26.5,RFTm,1000,OscTm,1000,MeasTm,1000,UTC,153813.00*3B
$GPGSV,3,1,12,25,61,342,37,12,61,073,29,29,49,285,41,02,47,052,27*7D
$GPGSV,3,2,12,24,30,177,20,05,19,118,24,31,13,321,18,20,09,164,16*78
$GPGSV,3,3,12,21,08,212,20,14,07,273,16,06,05,038,12,32,03,270,12*7E
$GLGSV,2,1,07,85,64,311,35,74,61,158,30,75,59,326,33,84,33,027,22*60
$GLGSV,2,2,07,86,26,245,40,73,10,152,12,69,02,081,09*52
$QZGSV,1,1,01,01,05,056,07*54
$GPGSA,A,3,02,05,12,21,24,25,29,,,,,,2.2,1.8,1.3*34
$GNGSA,A,3,02,05,12,21,24,25,29,,,,,,2.2,1.8,1.3*2A
$GNGSA,A,3,74,75,84,85,86,,,,,,,,2.2,1.8,1.3*29
$QZGSA,A,3,,,,,,,,,,,,,2.2,1.8,1.3*25
$IMGSA,A,3,,,,,,,,,,,,,2.2,1.8,1.3*2A
$PGLOR,1,FIX,1.0,1.0*20
$GPRMC,153813.00,A,3201.771051,N,03448.112686,E,001.1,,270416,,,A*7F
$PGLOR,SPL,20160427183811.5,POS,20160427153812.999,32.029518,34.801878,16,16,0,160,7,1.100000
$GPGGA,153814.00,3201.771063,N,03448.112678,E,1,13,1.6,140.4,M,19.1,M,,*6F
$PGLOR,5,STA,153814.00,0.005,0.000,364,1,16,1,P,F,L,0,C,3,S,0002,10,1,R,33F4,TPEF,20,50,LC,,*5A
$PGLOR,1,UNC,153814.00,0.018,16.0,6.8,0.55,180.00,11.5,11.1,82.3*23
$PGLOR,2,SAT,4,1,R21,031,1F,R10,031,3B,G25,032,1F,G12,027,1F,R11,025,37,G29,038,1F*52
$PGLOR,2,SAT,4,2,G02,024,1F,R20,020,3F,G24,018,13,R22,036,1F,G05,019,1B,G31,013,10*32
$PGLOR,2,SAT,4,3,R09,012,3B,G20,007,10,G21,019,1B,G14,007,10,Q01,012,30,G06,017,10*32
$PGLOR,2,SAT,4,4,G32,007,10,R05,011,30*26
$PGLOR,2,SIO,TxERR,0,RxERR,0,TxCNT,471,RxCNT,4317,MLFRMPKT,0,DTMS,1002,DTIN,15,23,DTOUT,875,978,HATMD,27*29
$PGLOR,3,PWR,mA,26.5,RFTm,1001,OscTm,1000,MeasTm,1000,UTC,153814.00*3D
$GPGSV,3,1,12,25,61,342,36,12,61,073,29,29,49,285,41,02,47,052,27*7C
$GPGSV,3,2,12,24,30,177,20,05,19,118,23,31,13,321,18,20,09,164,15*7C
$GPGSV,3,3,12,21,08,212,20,14,07,273,15,06,05,038,17,32,03,270,11*7B
$GLGSV,2,1,07,85,64,311,34,74,61,158,31,75,59,326,32,84,33,027,22*61
$GLGSV,2,2,07,86,26,246,39,73,10,152,12,69,02,081,11*56
$QZGSV,1,1,01,01,05,056,12*50
$GPGSA,A,3,02,05,12,21,24,25,29,,,,,,2.2,1.8,1.3*34
$GNGSA,A,3,02,05,12,21,24,25,29,,,,,,2.2,1.8,1.3*2A
$GNGSA,A,3,73,74,75,84,85,86,,,,,,,2.2,1.8,1.3*2D
$QZGSA,A,3,,,,,,,,,,,,,2.2,1.8,1.3*25
$IMGSA,A,3,,,,,,,,,,,,,2.2,1.8,1.3*2A
$PGLOR,1,FIX,1.0,1.0*20
$GPRMC,153814.00,A,3201.771063,N,03448.112678,E,000.0,,270416,,,A*78
$PGLOR,SPL,20160427183812.5,POS,20160427153813.999,32.029518,34.801878,16,16,0,159,7,1.100000
$GPGGA,153815.00,3201.771508,N,03448.112434,E,1,12,1.6,138.4,M,19.1,M,,*62
$PGLOR,5,STA,153815.00,0.005,0.000,363,1,16,1,P,F,L,0,C,3,S,0002,11,1,R,33F4,TPEF,20,51,LC,,*5C
$PGLOR,1,UNC,153815.00,0.017,16.0,6.7,0.55,180.00,11.4,11.3,-69.1*0B
$PGLOR,2,SAT,4,1,R21,033,1F,R10,033,3B,G25,029,1F,G12,028,1F,R11,028,3F,G29,037,1F*24
$PGLOR,2,SAT,4,2,G02,030,1F,R20,021,37,G24,022,1B,R22,038,1F,G05,020,1B,G31,013,10*3B
$PGLOR,2,SAT,4,3,R09,007,30,G20,007,10,G21,019,1B,G14,007,10,Q01,007,30,G06,007,10*41
$PGLOR,2,SAT,4,4,G32,007,10,R05,007,30*21
$PGLOR,2,SIO,TxERR,0,RxERR,0,TxCNT,381,RxCNT,4375,MLFRMPKT,0,DTMS,998,DTIN,16,22,DTOUT,872,976,HATMD,25*17
$PGLOR,3,PWR,mA,26.9,RFTm,998,OscTm,1000,MeasTm,1000,UTC,153815.00*08
$GPGSV,3,1,12,25,61,342,35,12,61,073,29,29,49,285,41,02,47,052,30*79
$GPGSV,3,2,12,24,30,177,22,05,19,118,23,31,13,321,17,20,09,164,14*70
$GPGSV,3,3,12,21,08,212,20,14,07,273,14,06,05,038,16,32,03,270,11*7B
$GLGSV,2,1,07,85,64,311,34,74,61,158,33,75,59,326,32,84,33,027,22*63
$GLGSV,2,2,07,86,26,246,39,73,10,152,12,69,02,081,11*56
$QZGSV,1,1,01,01,05,056,12*50
$GPGSA,A,3,02,05,12,21,24,25,29,,,,,,2.2,1.8,1.3*34
$GNGSA,A,3,02,05,12,21,24,25,29,,,,,,2.2,1.8,1.3*2A
$GNGSA,A,3,74,75,84,85,86,,,,,,,,2.2,1.8,1.3*29
$QZGSA,A,3,,,,,,,,,,,,,2.2,1.8,1.3*25
$IMGSA,A,3,,,,,,,,,,,,,2.2,1.8,1.3*2A
$PGLOR,1,FIX,1.0,1.0*20
$GPRMC,153815.00,A,3201.771508,N,03448.112434,E,001.3,,270416,,,A*79
$PGLOR,SPL,20160427183813.5,POS,20160427153814.999,32.029525,34.801874,16,16,0,157,7,1.100000
$GPGGA,153816.00,3201.771517,N,03448.112428,E,1,13,1.6,138.2,M,19.1,M,,*65
$PGLOR,5,STA,153816.00,0.005,0.000,364,1,16,1,P,F,L,0,C,3,S,0002,11,1,R,33F4,TPEF,20,52,LC,,*5B
$PGLOR,1,UNC,153816.00,0.017,16.0,6.5,0.49,180.00,11.4,11.3,-70.0*0E
$PGLOR,2,SAT,4,1,R21,032,1F,R10,029,3B,G25,030,1F,G12,029,1F,R11,029,3F,G29,035,1F*24
$PGLOR,2,SAT,4,2,G02,034,1F,R20,021,3F,G24,024,1B,R22,036,1F,G05,021,1B,G31,013,1B*35
$PGLOR,2,SAT,4,3,R09,009,30,G20,019,10,G21,018,17,G14,007,10,Q01,007,30,G06,011,10*33
$PGLOR,2,SAT,4,4,G32,011,10,R05,007,30*26
$PGLOR,2,SIO,TxERR,0,RxERR,0,TxCNT,422,RxCNT,4337,MLFRMPKT,0,DTMS,1001,DTIN,14,22,DTOUT,875,978,HATMD,26*2F
$PGLOR,3,PWR,mA,26.9,RFTm,1001,OscTm,1000,MeasTm,1000,UTC,153816.00*33
$GPGSV,3,1,12,25,61,342,35,12,61,073,29,29,49,285,40,02,47,052,34*7C
$GPGSV,3,2,12,24,30,177,24,05,19,118,23,31,13,321,17,20,09,164,19*7B
$GPGSV,3,3,12,21,08,212,20,14,07,273,14,06,05,038,16,32,03,270,11*7B
$GLGSV,2,1,07,85,64,311,34,74,61,158,32,75,59,326,32,84,33,027,22*62
$GLGSV,2,2,07,86,26,246,39,73,10,152,11,69,02,081,10*54
$QZGSV,1,1,01,01,05,056,11*53
$GPGSA,A,3,02,05,12,21,24,25,29,31,,,,,1.8,1.4,1.2*32
$GNGSA,A,3,02,05,12,21,24,25,29,31,,,,,1.8,1.4,1.2*2C
$GNGSA,A,3,74,75,84,85,86,,,,,,,,1.8,1.4,1.2*2D
$QZGSA,A,3,,,,,,,,,,,,,1.8,1.4,1.2*21
$IMGSA,A,3,,,,,,,,,,,,,1.8,1.4,1.2*2E
$PGLOR,1,FIX,1.0,1.0*20
$GPRMC,153816.00,A,3201.771517,N,03448.112428,E,000.0,,270416,,,A*7B
$PGLOR,SPL,20160427183814.5,POS,20160427153815.999,32.029525,34.801874,16,16,0,157,7,1.100000
$GPGGA,153817.00,3201.771517,N,03448.112428,E,1,12,2.4,138.0,M,19.1,M,,*66
$PGLOR,5,STA,153817.00,0.005,0.000,364,1,24,1,P,F,L,0,C,3,S,0002,11,1,R,33F4,TPEF,20,53,LC,,*5A
$PGLOR,1,UNC,153817.00,0.016,24.0,6.3,0.27,180.00,17.0,17.0,0.0*1C
$PGLOR,2,SAT,4,1,R21,031,1F,R10,029,3F,G25,036,1F,G12,030,1F,R11,031,3F,G29,039,1F*28
$PGLOR,2,SAT,4,2,G02,031,1F,R20,017,37,G24,024,1F,R22,037,1F,G05,025,1B,G31,013,10*37
$PGLOR,2,SAT,4,3,R09,010,30,G20,017,10,G21,020,1B,G14,015,10,Q01,007,30,G06,007,10*4F
$PGLOR,2,SAT,4,4,G32,007,10,R05,008,30*2E
$PGLOR,2,SIO,TxERR,0,RxERR,0,TxCNT,394,RxCNT,4215,MLFRMPKT,0,DTMS,998,DTIN,19,26,DTOUT,653,972,HATMD,24*17
$PGLOR,3,PWR,mA,26.9,RFTm,998,OscTm,1000,MeasTm,1000,UTC,153817.00*0A
$GPGSV,3,1,12,25,61,342,36,12,61,073,30,29,49,285,40,02,47,052,33*70
$GPGSV,3,2,12,24,30,177,24,05,19,118,25,31,13,320,16,20,09,164,18*7C
$GPGSV,3,3,12,21,08,212,20,14,07,273,15,06,05,038,15,32,03,270,11*79
$GLGSV,2,1,07,85,64,311,34,74,61,158,32,75,59,326,32,84,33,027,21*61
$GLGSV,2,2,07,86,26,246,39,73,10,152,11,69,02,081,10*54
$QZGSV,1,1,01,01,05,056,11*53
$GPGSA,A,3,02,05,12,21,24,25,29,,,,,,1.6,1.0,1.2*3A
$GNGSA,A,3,02,05,12,21,24,25,29,,,,,,1.6,1.0,1.2*24
$GNGSA,A,3,74,75,84,85,86,,,,,,,,1.6,1.0,1.2*27
$QZGSA,A,3,,,,,,,,,,,,,1.6,1.0,1.2*2B
$IMGSA,A,3,,,,,,,,,,,,,1.6,1.0,1.2*24
$PGLOR,1,FIX,1.0,1.0*20
$GPRMC,153817.00,A,3201.771517,N,03448.112428,E,000.0,,270416,,,A*7A
$PGLOR,SPL,20160427183815.5,POS,20160427153816.999,32.029525,34.801874,24,24,0,157,6,1.100000
$GPGGA,153818.00,3201.771517,N,03448.112428,E,1,12,1.6,135.9,M,19.1,M,,*6C
$PGLOR,5,STA,153818.00,0.005,0.000,364,1,16,1,P,F,L,0,C,3,S,0002,11,1,R,33F4,TPEF,20,54,LC,,*53
$PGLOR,1,UNC,153818.00,0.016,16.0,6.1,0.66,180.00,11.3,11.3,0.0*15
$PGLOR,2,SAT,4,1,R21,034,1F,R10,032,3F,G25,036,1F,G12,034,1F,R11,035,3F,G29,038,1F*26
$PGLOR,2,SAT,4,2,G02,029,1F,R20,018,3F,G24,024,1F,R22,043,1F,G05,025,1B,G31,007,10*46
$PGLOR,2,SAT,4,3,R09,008,30,G20,016,10,G21,024,1F,G14,007,10,Q01,007,30,G06,010,10*42
$PGLOR,2,SAT,4,4,G32,007,10,R05,007,30*21
$PGLOR,2,SIO,TxERR,0,RxERR,0,TxCNT,396,RxCNT,4231,MLFRMPKT,0,DTMS,1001,DTIN,19,26,DTOUT,873,975,HATMD,25*21
$PGLOR,3,PWR,mA,27.0,RFTm,1001,OscTm,1000,MeasTm,1000,UTC,153818.00*35
$GPGSV,3,1,12,25,61,342,36,12,61,073,34,29,49,285,38,02,47,052,29*70
$GPGSV,3,2,12,24,30,177,24,05,19,118,25,31,13,320,07,20,09,164,16*72
$GPGSV,3,3,12,21,08,212,24,14,07,273,07,06,05,038,10,32,03,270,07*7C
$GLGSV,2,1,07,85,64,311,34,74,61,158,32,75,59,326,35,84,33,027,18*6C
$GLGSV,2,2,07,86,26,246,43,73,10,152,08,69,02,081,07*57
$QZGSV,1,1,01,01,05,056,07*54
$GPGSA,A,3,02,05,12,21,24,25,29,,,,,,1.5,1.0,1.1*3A
$GNGSA,A,3,02,05,12,21,24,25,29,,,,,,1.5,1.0,1.1*24
$GNGSA,A,3,74,75,84,85,86,,,,,,,,1.5,1.0,1.1*27
$QZGSA,A,3,,,,,,,,,,,,,1.5,1.0,1.1*2B
$IMGSA,A,3,,,,,,,,,,,,,1.5,1.0,1.1*24
$PGLOR,1,FIX,1.0,1.0*20
$GPRMC,153818.00,A,3201.771517,N,03448.112428,E,001.0,,270416,,,A*74
$PGLOR,SPL,20160427183816.5,POS,20160427153817.999,32.029525,34.801874,16,16,0,155,6,1.100000
$GPGGA,153819.00,3201.771517,N,03448.112428,E,1,13,1.2,133.8,M,19.1,M,,*6F
$PGLOR,5,STA,153819.00,0.005,0.000,365,1,12,1,P,F,L,0,C,3,S,0002,11,1,R,33F4,TPEF,20,55,LC,,*56
$PGLOR,1,UNC,153819.00,0.016,12.0,6.0,0.41,180.00,8.5,8.5,0.0*14
$PGLOR,2,SAT,4,1,R21,036,1F,R10,033,3F,G25,035,1F,G12,034,1F,R11,033,3F,G29,042,1F*2D
$PGLOR,2,SAT,4,2,G02,029,1F,R20,022,37,G24,024,1F,R22,044,1F,G05,023,1B,G31,007,10*3F
$PGLOR,2,SAT,4,3,R09,011,30,G20,015,1B,G21,029,1B,G14,007,10,Q01,015,30,G06,007,10*37
$PGLOR,2,SAT,4,4,G32,012,10,R05,007,30*25
$PGLOR,2,SIO,TxERR,0,RxERR,0,TxCNT,486,RxCNT,4226,MLFRMPKT,0,DTMS,999,DTIN,19,28,DTOUT,590,971,HATMD,24*13
$PGLOR,3,PWR,mA,26.9,RFTm,999,OscTm,1000,MeasTm,1000,UTC,153819.00*05
$GPGSV,3,1,12,25,61,342,36,12,61,073,34,29,49,285,42,02,47,052,29*7D
$GPGSV,3,2,12,24,30,177,24,05,19,118,25,31,13,320,07,20,09,164,16*72
$GPGSV,3,3,12,21,08,212,29,14,07,273,07,06,05,038,10,32,03,270,12*75
$GLGSV,2,1,07,85,64,311,36,74,61,158,33,75,59,326,34,84,33,027,22*67
$GLGSV,2,2,07,86,26,246,44,73,10,152,11,69,02,081,07*58
$QZGSV,1,1,01,01,05,056,15*57
$GPGSA,A,3,02,05,12,20,21,24,25,29,,,,,1.6,1.0,1.2*38
$GNGSA,A,3,02,05,12,20,21,24,25,29,,,,,1.6,1.0,1.2*26
$GNGSA,A,3,74,75,84,85,86,,,,,,,,1.6,1.0,1.2*27
$QZGSA,A,3,,,,,,,,,,,,,1.6,1.0,1.2*2B
$IMGSA,A,3,,,,,,,,,,,,,1.6,1.0,1.2*24
$PGLOR,1,FIX,1.0,1.0*20
$GPRMC,153819.00,A,3201.771517,N,03448.112428,E,000.9,,270416,,,A*7D
$PGLOR,SPL,20160427183817.5,POS,20160427153818.999,32.029525,34.801874,12,12,0,153,6,1.100000
$GPGGA,153820.00,3201.771517,N,03448.112428,E,1,13,1.2,131.7,M,19.1,M,,*68
$PGLOR,5,STA,153820.00,0.005,0.000,365,1,12,1,P,F,L,0,C,3,S,0002,11,5,R,33F4,TPEF,20,56,LC,,*5B
$PGLOR,1,UNC,153820.00,0.016,12.0,6.0,0.41,180.00,8.5,8.5,0.0*1E
$PGLOR,2,SAT,4,1,R21,033,1F,R10,033,3F,G25,037,1F,G12,036,1F,R11,037,3F,G29,038,1F*21
$PGLOR,2,SAT,4,2,G02,030,1F,R20,025,3F,G24,026,1F,R22,039,1F,G05,024,1F,G31,017,10*4B
$PGLOR,2,SAT,4,3,R09,020,30,G20,015,13,G21,024,1F,G14,007,10,Q01,007,30,G06,007,10*4E
$PGLOR,2,SAT,4,4,G32,007,10,R05,010,30*27
$PGLOR,2,SIO,TxERR,0,RxERR,0,TxCNT,397,RxCNT,4289,MLFRMPKT,0,DTMS,1001,DTIN,21,27,DTOUT,869,974,HATMD,25*23
$PGLOR,3,PWR,mA,26.9,RFTm,1001,OscTm,1000,MeasTm,1000,UTC,153820.00*36
$GPGSV,3,1,12,25,61,342,37,12,61,073,36,29,49,285,42,02,47,052,30*76
$GPGSV,3,2,12,24,30,177,26,05,19,118,25,31,13,320,17,20,09,164,16*71
$GPGSV,3,3,12,21,08,212,28,14,07,273,07,06,05,038,10,32,03,270,11*77
$GLGSV,2,1,07,85,64,311,36,74,61,158,33,75,59,326,37,84,33,027,25*63
$GLGSV,2,2,07,86,26,246,44,73,10,152,20,69,02,081,10*5C
$QZGSV,1,1,01,01,05,056,15*57
$GPGSA,A,3,02,05,12,20,21,24,25,29,,,,,1.8,0.9,1.5*39
$GNGSA,A,3,02,05,12,20,21,24,25,29,,,,,1.8,0.9,1.5*27
$GNGSA,A,3,74,75,84,85,86,,,,,,,,1.8,0.9,1.5*26
$QZGSA,A,3,,,,,,,,,,,,,1.8,0.9,1.5*2A
$IMGSA,A,3,,,,,,,,,,,,,1.8,0.9,1.5*25
$PGLOR,1,FIX,1.0,1.0*20
$GPRMC,153820.00,A,3201.771517,N,03448.112428,E,000.8,,270416,,,A*76
$PGLOR,SPL,20160427183818.5,POS,20160427153819.999,32.029525,34.801874,12,12,0,151,6,1.100000
$GPGGA,153821.00,3201.771517,N,03448.112428,E,1,13,1.2,131.5,M,19.1,M,,*6B
$PGLOR,5,STA,153821.00,0.005,0.000,364,1,12,1,P,F,L,0,C,3,S,0002,11,5,R,33F4,TPEF,20,57,LC,,*5A
$PGLOR,1,UNC,153821.00,0.015,12.0,5.8,0.21,180.00,8.5,8.5,0.0*11
$PGLOR,2,SAT,4,1,R21,031,1F,R10,031,3F,G25,039,1F,G12,037,1F,R11,037,3F,G29,035,1F*23
$PGLOR,2,SAT,4,2,G02,031,1F,R20,026,3F,G24,028,1F,R22,036,1F,G05,026,1F,G31,007,10*4B
$PGLOR,2,SAT,4,3,R09,021,30,G20,015,13,G21,022,1F,G14,007,10,Q01,007,30,G06,007,10*49
$PGLOR,2,SAT,4,4,G32,007,10,R05,007,30*21
$PGLOR,2,SIO,TxERR,0,RxERR,0,TxCNT,381,RxCNT,4170,MLFRMPKT,0,DTMS,999,DTIN,22,26,DTOUT,868,973,HATMD,24*1D
$PGLOR,3,PWR,mA,26.9,RFTm,999,OscTm,1000,MeasTm,1000,UTC,153821.00*0E
$GPGSV,3,1,12,25,61,342,39,12,61,073,37,29,49,285,41,02,47,052,31*7B
$GPGSV,3,2,12,24,30,177,28,05,19,118,26,31,13,320,16,20,09,164,16*7D
$GPGSV,3,3,12,21,08,212,28,14,07,273,07,06,05,038,09,32,03,270,11*7F
$GLGSV,2,1,07,85,64,311,35,74,61,158,33,75,59,326,37,84,33,027,26*63
$GLGSV,2,2,07,86,26,246,43,73,10,152,21,69,02,081,10*5A
$QZGSV,1,1,01,01,05,056,14*56
$GPGSA,A,3,02,05,12,20,21,24,25,29,,,,,1.8,0.9,1.5*39
$GNGSA,A,3,02,05,12,20,21,24,25,29,,,,,1.8,0.9,1.5*27
$GNGSA,A,3,74,75,84,85,86,,,,,,,,1.8,0.9,1.5*26
$QZGSA,A,3,,,,,,,,,,,,,1.8,0.9,1.5*2A
$IMGSA,A,3,,,,,,,,,,,,,1.8,0.9,1.5*25
$PGLOR,1,FIX,1.0,1.0*20
$GPRMC,153821.00,A,3201.771517,N,03448.112428,E,000.0,,270416,,,A*7F
$PGLOR,SPL,20160427183819.5,POS,20160427153820.999,32.029525,34.801874,12,12,0,151,6,1.100000
$GPGGA,153822.00,3201.771517,N,03448.112428,E,1,14,1.2,131.3,M,19.1,M,,*69
$PGLOR,5,STA,153822.00,0.005,0.000,364,1,12,1,P,F,L,0,C,3,S,0002,11,5,R,33F4,TPEF,20,58,LC,,*56
$PGLOR,1,UNC,153822.00,0.015,12.0,5.7,0.16,180.00,8.5,8.5,0.0*19
$PGLOR,2,SAT,4,1,R21,035,1F,R10,032,3F,G25,038,1F,G12,038,1F,R11,036,3F,G29,041,1F*28
$PGLOR,2,SAT,4,2,G02,032,1F,R20,023,3B,G24,028,1F,R22,035,1F,G05,025,1F,G31,011,10*4E
$PGLOR,2,SAT,4,3,R09,018,33,G20,014,13,G21,025,1F,G14,010,10,Q01,016,30,G06,007,10*40
$PGLOR,2,SAT,4,4,G32,007,10,R05,007,30*21
$PGLOR,2,SIO,TxERR,0,RxERR,0,TxCNT,363,RxCNT,4267,MLFRMPKT,0,DTMS,1001,DTIN,22,31,DTOUT,528,970,HATMD,25*20
$PGLOR,3,PWR,mA,26.9,RFTm,1001,OscTm,1000,MeasTm,1000,UTC,153822.00*34
$GPGSV,3,1,12,25,61,342,39,12,61,073,38,29,49,285,41,02,47,052,32*77
$GPGSV,3,2,12,24,30,177,28,05,19,118,26,31,13,320,15,20,09,164,16*7E
$GPGSV,3,3,12,21,08,212,27,14,07,273,10,06,05,038,09,32,03,270,10*77
$GLGSV,2,1,07,85,64,311,35,74,61,158,33,75,59,326,37,84,33,027,25*60
$GLGSV,2,2,07,86,26,246,42,73,10,152,21,69,02,081,10*5B
$QZGSV,1,1,01,01,05,056,16*54
$GPGSA,A,3,02,05,12,20,21,24,25,29,,,,,1.5,1.0,1.2*3B
$GNGSA,A,3,02,05,12,20,21,24,25,29,,,,,1.5,1.0,1.2*25
$GNGSA,A,3,73,74,75,84,85,86,,,,,,,1.5,1.0,1.2*20
$QZGSA,A,3,,,,,,,,,,,,,1.5,1.0,1.2*28
$IMGSA,A,3,,,,,,,,,,,,,1.5,1.0,1.2*27
$PGLOR,1,FIX,1.0,1.0*20
$GPRMC,153822.00,A,3201.771517,N,03448.112428,E,000.0,,270416,,,A*7C
$PGLOR,SPL,20160427183820.5,POS,20160427153821.999,32.029525,34.801874,12,12,0,150,6,1.100000
$GPGGA,153823.00,3201.771517,N,03448.112428,E,1,14,0.8,131.1,M,19.1,M,,*61
$PGLOR,5,STA,153823.00,0.005,0.000,364,1,8,1,P,F,L,0,C,3,S,0002,11,5,R,33F4,TPEF,20,59,LC,,*6D
$PGLOR,1,UNC,153823.00,0.014,8.0,5.6,0.33,180.00,5.7,5.7,0.0*24
$PGLOR,2,SAT,4,1,R21,036,1F,R10,030,3B,G25,035,1F,G12,038,1F,R11,031,3F,G29,042,1F*24
$PGLOR,2,SAT,4,2,G02,034,1F,R20,022,37,G24,027,1F,R22,037,1F,G05,022,1F,G31,011,10*36
$PGLOR,2,SAT,4,3,R09,014,3F,G20,014,13,G21,025,1B,G14,007,10,Q01,007,30,G06,007,10*3B
$PGLOR,2,SAT,4,4,G32,007,10,R05,007,30*21
$PGLOR,2,SIO,TxERR,0,RxERR,0,TxCNT,413,RxCNT,4193,MLFRMPKT,0,DTMS,999,DTIN,16,26,DTOUT,874,973,HATMD,24*16
$PGLOR,3,PWR,mA,26.9,RFTm,999,OscTm,1000,MeasTm,1000,UTC,153823.00*0C
$GPGSV,3,1,12,25,61,343,35,12,61,073,38,29,49,285,42,02,47,052,34*7F
$GPGSV,3,2,12,24,30,177,27,05,19,118,22,31,13,320,11,20,09,164,14*73
$GPGSV,3,3,12,21,08,212,25,14,07,272,07,06,05,038,07,32,03,270,07*7A
$GLGSV,2,1,07,85,64,311,36,74,61,158,30,75,59,326,31,84,33,027,22*61
$GLGSV,2,2,07,86,26,246,37,73,10,152,14,69,02,081,07*59
$QZGSV,1,1,01,01,05,056,07*54
$GPGSA,A,3,02,05,12,20,21,24,25,29,,,,,1.5,0.9,1.2*33
$GNGSA,A,3,02,05,12,20,21,24,25,29,,,,,1.5,0.9,1.2*2D
$GNGSA,A,3,73,74,75,84,85,86,,,,,,,1.5,0.9,1.2*28
$QZGSA,A,3,,,,,,,,,,,,,1.5,0.9,1.2*20
$IMGSA,A,3,,,,,,,,,,,,,1.5,0.9,1.2*2F
$PGLOR,1,FIX,1.0,1.0*20
$GPRMC,153823.00,A,3201.771517,N,03448.112428,E,000.0,,270416,,,A*7D
$PGLOR,SPL,20160427183821.5,POS,20160427153822.999,32.029525,34.801874,8,8,0,150,6,1.100000
$GPGGA,153824.00,3201.771517,N,03448.112428,E,1,12,1.2,130.9,M,19.1,M,,*62
$PGLOR,5,STA,153824.00,0.005,0.000,364,1,12,1,P,F,L,0,C,3,S,0002,11,5,R,33F4,TPEF,20,60,LC,,*5B
$PGLOR,1,UNC,153824.00,0.014,12.0,5.5,0.51,180.00,8.5,8.5,0.0*1F
$PGLOR,2,SAT,4,1,R21,037,1F,R10,033,3F,G25,039,1F,G12,039,1F,R11,035,30,G29,041,1F*5E
$PGLOR,2,SAT,4,2,G02,034,1F,R20,018,3F,G24,028,1F,R22,037,1F,G05,021,1F,G31,016,10*45
$PGLOR,2,SAT,4,3,G20,013,1F,R09,017,30,G21,025,1B,G14,007,10,Q01,015,30,G06,007,10*3F
$PGLOR,2,SAT,4,4,G32,007,10,R05,007,30*21
$PGLOR,2,SIO,TxERR,0,RxERR,0,TxCNT,507,RxCNT,4308,MLFRMPKT,0,DTMS,1003,DTIN,19,24,DTOUT,871,979,HATMD,27*28
$PGLOR,3,PWR,mA,26.9,RFTm,1003,OscTm,1000,MeasTm,1000,UTC,153824.00*30
$PGLOR,2,PFM,HAL,P,0,0,100,0,RF,-,-125,29.5,0,RTC,,P,STO,P,LTO,P,SW,P,,,,OSC,P,P,P*44
$GPGSV,3,1,12,25,61,343,39,12,61,073,39,29,49,285,41,02,47,052,34*71
$GPGSV,3,2,12,24,30,177,28,05,19,118,21,31,13,320,16,20,10,164,13*77
$GPGSV,3,3,12,21,08,212,25,14,07,272,07,06,05,038,07,32,03,270,07*7A
$GLGSV,2,1,07,85,64,311,37,74,61,158,33,75,59,326,35,84,33,027,18*6E
$GLGSV,2,2,07,86,26,246,37,73,10,152,17,69,02,081,07*5A
$QZGSV,1,1,01,01,05,056,15*57
$GPGSA,A,3,02,05,12,20,21,24,25,29,,,,,1.4,0.9,1.1*31
$GNGSA,A,3,02,05,12,20,21,24,25,29,,,,,1.4,0.9,1.1*2F
$GNGSA,A,3,74,84,85,86,,,,,,,,,1.4,0.9,1.1*2C
$QZGSA,A,3,,,,,,,,,,,,,1.4,0.9,1.1*22
$IMGSA,A,3,,,,,,,,,,,,,1.4,0.9,1.1*2D
$PGLOR,1,FIX,1.0,1.0*20
$GPRMC,153824.00,A,3201.771517,N,03448.112428,E,000.0,,270416,,,A*7A
$PGLOR,SPL,20160427183822.5,POS,20160427153823.999,32.029525,34.801874,12,12,0,150,6,1.100000
$GPGGA,153825.00,3201.771517,N,03448.112428,E,1,14,0.6,130.7,M,19.1,M,,*6E
$PGLOR,5,STA,153825.00,0.005,0.000,364,1,6,1,P,F,L,0,C,3,S,0002,11,5,R,33F4,TPEF,20,61,LC,,*6E
$PGLOR,1,UNC,153825.00,0.014,6.0,5.5,0.26,180.00,4.2,4.2,0.0*2B
$PGLOR,2,SAT,4,1,R21,036,1F,R10,035,3B,G25,040,1F,G12,039,1F,R11,032,3F,G29,040,1F*23
$PGLOR,2,SAT,4,2,G02,031,1F,R20,018,37,G24,024,1F,R22,037,1F,G05,022,1F,G31,007,10*3E
$PGLOR,2,SAT,4,3,G20,013,13,R09,018,3F,G21,023,1F,G14,017,10,Q01,007,30,G06,008,10*3C
$PGLOR,2,SAT,4,4,G32,017,10,R05,007,30*20
$PGLOR,2,SIO,TxERR,0,RxERR,0,TxCNT,399,RxCNT,4303,MLFRMPKT,0,DTMS,997,DTIN,16,24,DTOUT,807,974,HATMD,24*17
$PGLOR,3,PWR,mA,26.8,RFTm,998,OscTm,1000,MeasTm,1000,UTC,153825.00*0A
$GPGSV,3,1,12,25,61,343,40,12,61,073,39,29,49,285,40,02,47,052,31*7B
$GPGSV,3,2,12,24,30,177,24,05,19,118,22,31,13,320,07,20,10,164,13*78
$GPGSV,3,3,12,21,08,212,23,14,07,272,17,06,05,038,08,32,03,270,17*73
$GLGSV,2,1,07,85,64,311,36,74,61,158,35,75,59,326,32,84,33,027,18*6E
$GLGSV,2,2,07,86,26,246,37,73,10,152,18,69,02,081,07*55
$QZGSV,1,1,01,01,05,056,07*54
$GPGSA,A,3,02,05,12,20,21,24,25,29,,,,,2.1,1.0,1.8*36
$GNGSA,A,3,02,05,12,20,21,24,25,29,,,,,2.1,1.0,1.8*28
$GNGSA,A,3,73,74,75,84,85,86,,,,,,,2.1,1.0,1.8*2D
$QZGSA,A,3,,,,,,,,,,,,,2.1,1.0,1.8*25
$IMGSA,A,3,,,,,,,,,,,,,2.1,1.0,1.8*2A
$PGLOR,1,FIX,1.0,1.0*20
$GPRMC,153825.00,A,3201.771517,N,03448.112428,E,000.0,,270416,,,A*7B
$PGLOR,SPL,20160427183823.5,POS,20160427153824.999,32.029525,34.801874,6,6,0,150,5,1.100000
$GPGGA,153826.00,3201.771517,N,03448.112428,E,1,13,1.2,130.5,M,19.1,M,,*6D
$PGLOR,5,STA,153826.00,0.005,0.000,364,1,12,1,P,F,L,0,C,3,S,0002,11,5,R,33F4,TPEF,20,62,LC,,*5B
$PGLOR,1,UNC,153826.00,0.014,12.0,5.5,0.17,180.00,8.5,8.5,0.0*1F
$PGLOR,2,SAT,4,1,R21,037,1F,R10,035,3B,G25,039,1F,G12,036,1F,R11,037,3F,G29,040,1F*26
$PGLOR,2,SAT,4,2,G02,034,1F,R20,022,3F,G24,021,17,R22,038,1F,G05,024,1F,G31,016,10*3E
$PGLOR,2,SAT,4,3,G20,012,10,R09,017,3F,G21,024,1F,G14,007,10,Q01,007,30,G06,012,10*3C
$PGLOR,2,SAT,4,4,G32,007,10,R05,007,30*21
$PGLOR,2,SIO,TxERR,0,RxERR,0,TxCNT,411,RxCNT,4250,MLFRMPKT,0,DTMS,1001,DTIN,18,22,DTOUT,872,978,HATMD,25*27
$PGLOR,3,PWR,mA,26.9,RFTm,1000,OscTm,1000,MeasTm,1000,UTC,153826.00*31
$GPGSV,3,1,12,25,61,343,39,12,61,073,36,29,49,285,40,02,47,052,34*7F
$GPGSV,3,2,12,24,30,177,21,05,19,118,24,31,13,320,16,20,10,164,12*7A
$GPGSV,3,3,12,21,08,212,24,14,07,272,07,06,05,038,12,32,03,270,07*7F
$GLGSV,2,1,07,85,64,311,37,74,61,158,35,75,59,326,37,84,33,027,22*63
$GLGSV,2,2,07,86,26,246,38,73,10,152,17,69,02,081,07*55
$QZGSV,1,1,01,01,05,056,07*54
$GPGSA,A,3,02,05,12,21,24,25,29,,,,,,2.1,1.0,1.8*34
$GNGSA,A,3,02,05,12,21,24,25,29,,,,,,2.1,1.0,1.8*2A
$GNGSA,A,3,73,74,75,84,85,86,,,,,,,2.1,1.0,1.8*2D
$QZGSA,A,3,,,,,,,,,,,,,2.1,1.0,1.8*25
$IMGSA,A,3,,,,,,,,,,,,,2.1,1.0,1.8*2A
$PGLOR,1,FIX,1.0,1.0*20
$GPRMC,153826.00,A,3201.771517,N,03448.112428,E,000.0,,270416,,,A*78
$PGLOR,SPL,20160427183824.5,POS,20160427153825.999,32.029525,34.801874,12,12,0,150,5,1.100000
$GPGGA,153827.00,3201.771517,N,03448.112428,E,1,13,0.6,128.5,M,19.1,M,,*60
$PGLOR,5,STA,153827.00,0.005,0.000,364,1,6,1,P,F,L,0,C,3,S,0002,11,5,R,33F4,TPEF,20,63,LC,,*6E
$PGLOR,1,UNC,153827.00,0.014,6.0,5.4,0.28,180.00,4.2,4.2,0.0*26
$PGLOR,2,SAT,4,1,R21,037,1F,R10,035,3F,G25,039,1F,G12,033,1F,R11,040,3F,G29,041,1F*26
$PGLOR,2,SAT,4,2,G02,033,1F,R20,025,3F,G24,021,1B,R22,037,1F,G05,021,13,G31,007,10*34
$PGLOR,2,SAT,4,3,G20,008,10,R09,016,3F,G21,020,1B,G14,007,10,Q01,007,30,G06,017,10*33
$PGLOR,2,SAT,4,4,G32,007,10,R05,009,30*2F
$PGLOR,2,SIO,TxERR,0,RxERR,0,TxCNT,382,RxCNT,4229,MLFRMPKT,0,DTMS,999,DTIN,20,25,DTOUT,696,975,HATMD,24*19
$PGLOR,3,PWR,mA,26.9,RFTm,1000,OscTm,1000,MeasTm,1000,UTC,153827.00*30
$GPGSV,3,1,12,25,61,343,39,12,61,073,33,29,49,285,41,02,47,052,33*7C
$GPGSV,3,2,12,24,30,177,21,05,19,118,21,31,13,320,07,20,10,164,08*74
$GPGSV,3,3,12,21,08,212,20,14,07,272,07,06,05,038,17,32,03,270,07*7E
$GLGSV,2,1,07,85,64,311,37,74,61,158,35,75,59,326,40,84,33,027,25*64
$GLGSV,2,2,07,86,26,246,37,73,10,152,16,69,02,081,09*55
$QZGSV,1,1,01,01,05,056,07*54
$GPGSA,A,3,02,05,12,21,24,25,29,,,,,,1.5,1.0,1.1*3A
$GNGSA,A,3,02,05,12,21,24,25,29,,,,,,1.5,1.0,1.1*24
$GNGSA,A,3,73,74,75,84,85,86,,,,,,,1.5,1.0,1.1*23
$QZGSA,A,3,,,,,,,,,,,,,1.5,1.0,1.1*2B
$IMGSA,A,3,,,,,,,,,,,,,1.5,1.0,1.1*24
$PGLOR,1,FIX,1.0,1.0*20
$GPRMC,153827.00,A,3201.771517,N,03448.112428,E,000.4,,270416,,,A*7D
$PGLOR,SPL,20160427183825.5,POS,20160427153826.999,32.029525,34.801874,6,6,0,148,5,1.100000
$GPGGA,153828.00,3201.771517,N,03448.112428,E,1,13,0.6,128.3,M,19.1,M,,*69
$PGLOR,5,STA,153828.00,0.005,0.000,364,1,6,1,P,F,L,0,C,3,S,0002,11,5,R,33F4,TPEF,20,64,LC,,*66
$PGLOR,1,UNC,153828.00,0.014,6.0,5.4,0.15,180.00,4.2,4.2,0.0*27
$PGLOR,2,SAT,4,1,R21,040,1F,R10,032,3B,G25,039,1F,G12,035,1F,R11,035,3F,G29,045,1F*25
$PGLOR,2,SAT,4,2,G02,033,1F,R20,029,3F,G24,021,1F,R22,041,1F,G05,020,17,G31,007,10*38
$PGLOR,2,SAT,4,3,G20,007,10,R09,017,3F,G21,017,1B,G14,007,10,Q01,007,30,G06,018,10*36
$PGLOR,2,SAT,4,4,G32,007,10,R05,007,30*21
$PGLOR,2,SIO,TxERR,0,RxERR,0,TxCNT,397,RxCNT,4239,MLFRMPKT,0,DTMS,1001,DTIN,18,23,DTOUT,872,978,HATMD,25*20
$PGLOR,3,PWR,mA,26.9,RFTm,1001,OscTm,1000,MeasTm,1000,UTC,153828.00*3E
$GPGSV,3,1,12,25,61,343,39,12,61,073,35,29,49,285,45,02,47,052,33*7E
$GPGSV,3,2,12,24,30,177,21,05,19,118,21,31,13,320,07,20,10,164,08*74
$GPGSV,3,3,12,21,08,212,20,14,07,272,07,06,05,038,18,32,03,270,07*71
$GLGSV,2,1,07,85,64,311,40,74,61,158,35,75,59,326,40,84,33,027,29*68
$GLGSV,2,2,07,86,26,246,41,73,10,152,17,69,02,081,09*55
$QZGSV,1,1,01,01,05,056,07*54
$GPGSA,A,3,02,05,12,21,24,25,29,,,,,,1.5,0.9,1.2*31
$GNGSA,A,3,02,05,12,21,24,25,29,,,,,,1.5,0.9,1.2*2F
$GNGSA,A,3,73,74,75,84,85,86,,,,,,,1.5,0.9,1.2*28
$QZGSA,A,3,,,,,,,,,,,,,1.5,0.9,1.2*20
$IMGSA,A,3,,,,,,,,,,,,,1.5,0.9,1.2*2F
$PGLOR,1,FIX,1.0,1.0*20
$GPRMC,153828.00,A,3201.771517,N,03448.112428,E,000.0,,270416,,,A*76
$PGLOR,SPL,20160427183826.5,POS,20160427153827.999,32.029525,34.801874,6,6,0,147,5,1.100000
$GPGGA,153829.00,3201.771517,N,03448.112428,E,1,13,0.8,126.3,M,19.1,M,,*68
$PGLOR,5,STA,153829.00,0.005,0.000,364,1,8,1,P,F,L,0,C,3,S,0002,11,5,R,33F4,TPEF,20,65,LC,,*68
$PGLOR,1,UNC,153829.00,0.014,8.0,5.3,0.22,180.00,5.7,5.7,0.0*2B
$PGLOR,2,SAT,4,1,R21,040,1F,R10,034,3B,G25,038,1F,G12,033,1F,R11,033,3F,G29,043,1F*24
$PGLOR,2,SAT,4,2,G02,032,1F,R20,029,3F,G24,024,17,R22,039,1F,G05,021,1B,G31,015,10*35
$PGLOR,2,SAT,4,3,G20,007,10,R09,018,3F,G21,016,1B,G14,007,10,Q01,007,30,G06,014,10*34
$PGLOR,2,SAT,4,4,G32,009,10,R05,007,30*2F
$PGLOR,2,SIO,TxERR,0,RxERR,0,TxCNT,490,RxCNT,4252,MLFRMPKT,0,DTMS,999,DTIN,20,28,DTOUT,695,970,HATMD,24*1A
$PGLOR,3,PWR,mA,26.8,RFTm,998,OscTm,1000,MeasTm,1000,UTC,153829.00*06
$GPGSV,3,1,12,25,61,343,39,12,61,073,34,29,49,285,44,02,47,052,33*7E
$GPGSV,3,2,12,24,30,177,24,05,19,118,21,31,13,320,15,20,10,164,08*72
$GPGSV,3,3,12,21,08,212,19,14,07,272,07,06,05,038,18,32,03,270,09*75
$GLGSV,2,1,07,85,64,311,40,74,61,158,35,75,59,326,39,84,33,027,29*66
$GLGSV,2,2,07,86,26,246,41,73,10,152,18,69,02,081,08*5B
$QZGSV,1,1,01,01,05,056,07*54
$GPGSA,A,3,02,05,12,21,24,25,29,,,,,,1.6,1.0,1.2*3A
$GNGSA,A,3,02,05,12,21,24,25,29,,,,,,1.6,1.0,1.2*24
$GNGSA,A,3,73,74,75,84,85,86,,,,,,,1.6,1.0,1.2*23
$QZGSA,A,3,,,,,,,,,,,,,1.6,1.0,1.2*2B
$IMGSA,A,3,,,,,,,,,,,,,1.6,1.0,1.2*24
$PGLOR,1,FIX,1.0,1.0*20
$GPRMC,153829.00,A,3201.771517,N,03448.112428,E,000.5,,270416,,,A*72
$PGLOR,SPL,20160427183827.5,POS,20160427153828.999,32.029525,34.801874,8,8,0,145,5,1.100000
$GPGGA,153830.00,3201.771517,N,03448.112428,E,1,14,1.2,124.3,M,19.1,M,,*6E
$PGLOR,5,STA,153830.00,0.005,0.000,364,1,12,1,P,F,L,0,C,3,S,0002,11,5,R,33F4,TPEF,20,66,LC,,*58
$PGLOR,1,UNC,153830.00,0.014,12.0,5.3,0.20,180.00,8.5,8.5,0.0*1A
$PGLOR,2,SAT,4,1,R21,038,1F,R10,035,3F,G25,037,1F,G12,034,1F,R11,037,3F,G29,040,1F*21
$PGLOR,2,SAT,4,2,G02,034,1F,R20,026,37,G24,024,1B,R22,035,1F,G05,025,1F,G31,007,10*37
$PGLOR,2,SAT,4,3,G20,017,10,R09,017,3F,G21,016,1B,G14,008,10,Q01,007,30,G06,015,13*37
$PGLOR,2,SAT,4,4,G32,007,10,R05,007,30*21
$PGLOR,2,SIO,TxERR,0,RxERR,0,TxCNT,410,RxCNT,4280,MLFRMPKT,0,DTMS,1001,DTIN,16,24,DTOUT,875,977,HATMD,25*2B
$PGLOR,3,PWR,mA,26.9,RFTm,1001,OscTm,1000,MeasTm,1000,UTC,153830.00*37
$GPGSV,3,1,12,25,61,343,39,12,61,073,34,29,49,285,44,02,47,052,34*79
$GPGSV,3,2,12,24,30,177,24,05,19,118,25,31,13,320,14,20,10,163,17*7E
$GPGSV,3,3,12,21,08,212,19,14,07,272,08,06,05,038,17,32,03,270,09*75
$GLGSV,2,1,07,85,64,311,40,74,61,158,35,75,59,326,39,84,33,027,29*66
$GLGSV,2,2,07,86,26,246,40,73,10,152,18,69,02,081,08*5A
$QZGSV,1,1,01,01,05,056,07*54
$GPGSA,A,3,02,05,06,12,21,24,25,29,,,,,1.5,0.9,1.1*34
$GNGSA,A,3,02,05,06,12,21,24,25,29,,,,,1.5,0.9,1.1*2A
$GNGSA,A,3,73,74,75,84,85,86,,,,,,,1.5,0.9,1.1*2B
$QZGSA,A,3,,,,,,,,,,,,,1.5,0.9,1.1*23
$IMGSA,A,3,,,,,,,,,,,,,1.5,0.9,1.1*2C
$PGLOR,1,FIX,1.0,1.0*20
$GPRMC,153830.00,A,3201.771517,N,03448.112428,E,000.6,,270416,,,A*79
$PGLOR,SPL,20160427183828.5,POS,20160427153829.999,32.029525,34.801874,12,12,0,143,5,1.100000
$GPGGA,153831.00,3201.775042,N,03448.110755,E,1,14,1.2,122.4,M,19.1,M,,*64
$PGLOR,5,STA,153831.00,0.005,0.000,364,1,12,1,P,F,L,0,C,3,S,0002,18,5,R,33F4,TPEF,20,67,LC,,*51
$PGLOR,1,UNC,153831.00,0.014,12.0,5.2,0.27,180.00,8.6,8.4,-54.0*03
$PGLOR,2,SAT,4,1,R21,038,1F,R10,033,3B,G25,037,1F,G12,034,1F,R11,037,3F,G29,041,1F*22
$PGLOR,2,SAT,4,2,G02,036,1F,R20,024,37,G24,024,1F,R22,033,1F,G05,023,1F,G31,007,10*33
$PGLOR,2,SAT,4,3,G20,010,10,R09,018,3F,G21,019,1B,G14,007,10,Q01,007,30,G06,013,11*3B
$PGLOR,2,SAT,4,4,G32,007,10,R05,010,30*27
$PGLOR,2,SIO,TxERR,0,RxERR,0,TxCNT,381,RxCNT,4216,MLFRMPKT,0,DTMS,998,DTIN,15,20,DTOUT,698,979,HATMD,23*11
$PGLOR,3,PWR,mA,26.8,RFTm,999,OscTm,1000,MeasTm,1000,UTC,153831.00*0E
$GPGSV,3,1,12,25,61,343,38,12,61,073,34,29,49,285,44,02,47,052,36*7A
$GPGSV,3,2,12,24,30,177,24,05,19,118,25,31,13,320,13,20,10,163,16*78
$GPGSV,3,3,12,21,08,212,19,14,07,272,08,06,05,038,17,32,03,270,08*74
$GLGSV,2,1,07,85,64,311,40,74,61,158,35,75,59,326,39,84,33,027,29*66
$GLGSV,2,2,07,86,26,246,40,73,10,152,18,69,02,081,10*53
