$GPGSV,4,1,13,02,55,115,43,06,32,056,39,12,56,347,35,14,09,309,22*70
$GPGSV,4,2,13,15,07,199,19,19,19,043,37,24,70,188,32,25,29,306,29*77
$GPGSV,4,3,13,29,24,241,29,32,08,303,27,33,,,32,40,,,30*77
$GPGSV,4,4,13,41,,,34*79
$GLGSV,2,1,07,73,15,326,26,82,73,004,29,80,67,001,27,79,41,122,36*61
$GLGSV,2,2,07,83,42,222,34,81,22,029,19,78,01,136,*5A
$BDGSV,2,1,05,202,28,116,28,205,45,137,29,210,08,132,22,203,03,097,*67
$BDGSV,2,2,05,208,07,039,*6A
$GPGGA,135025.0,3206.246038,N,03512.328642,E,1,08,0.8,638.1,M,19.0,M,,*58
$GNGNS,135025.0,3206.246038,N,03512.328642,E,AA,13,0.8,638.1,19.0,,*66
$GPVTG,324.2,T,324.2,M,0.0,N,0.0,K,A*23
$GPGSA,A,2,02,06,12,19,24,25,29,32,,,,,1.1,0.8,0.8*37
$GNGSA,A,2,02,06,12,19,24,25,29,32,,,,,1.1,0.8,0.8*29
$GNGSA,A,2,79,80,81,82,83,,,,,,,,1.1,0.8,0.8*23
$BDGSA,A,2,,,,,,,,,,,,,1.1,0.8,0.8*22
$GPRMC,135025.0,A,3206.246038,N,03512.328642,E,0.0,324.2,030516,0.0,E,A*03
$GPGSV,4,1,13,02,55,115,37,06,32,056,27,12,56,347,33,14,09,309,23*7B
$GPGSV,4,2,13,15,07,199,19,19,19,043,27,24,70,188,36,25,29,306,28*73
$GPGSV,4,3,13,29,24,241,31,32,08,303,21,33,,,31,40,,,31*7A
$GPGSV,4,4,13,41,,,34*79
$GLGSV,2,1,07,73,15,326,25,82,73,004,34,80,67,001,27,79,41,122,34*6C
$GLGSV,2,2,07,83,42,222,36,81,22,029,27,78,01,136,*55
$BDGSV,2,1,05,202,28,116,27,205,45,137,30,210,08,132,24,203,03,097,*66
$BDGSV,2,2,05,208,07,039,*6A
$GPGGA,135026.0,3206.246159,N,03512.328389,E,1,08,0.8,638.1,M,19.0,M,,*5F
$GNGNS,135026.0,3206.246159,N,03512.328389,E,AA,13,0.8,638.1,19.0,,*61
$GPVTG,299.3,T,299.3,M,1.5,N,2.7,K,A*22
$GPGSA,A,2,02,06,12,19,24,25,29,32,,,,,1.1,0.8,0.8*37
$GNGSA,A,2,02,06,12,19,24,25,29,32,,,,,1.1,0.8,0.8*29
$GNGSA,A,2,79,80,81,82,83,,,,,,,,1.1,0.8,0.8*23
$BDGSA,A,2,,,,,,,,,,,,,1.1,0.8,0.8*22
$GPRMC,135026.0,A,3206.246159,N,03512.328389,E,1.5,299.3,030516,0.0,E,A*06
$GPGSV,4,1,13,02,55,115,37,06,32,056,29,12,56,347,34,14,09,309,28*79
$GPGSV,4,2,13,15,07,199,19,19,19,043,22,24,70,188,37,25,29,306,30*7E
$GPGSV,4,3,13,29,24,241,35,32,08,303,28,33,,,30,40,,,32*75
$GPGSV,4,4,13,41,,,34*79
$GLGSV,2,1,07,73,15,326,21,82,73,004,27,80,67,001,20,79,41,122,32*6B
$GLGSV,2,2,07,83,42,222,33,81,22,029,21,78,01,136,*56
$BDGSV,2,1,05,202,28,116,24,205,45,137,29,210,08,132,21,203,03,097,*68
$BDGSV,2,2,05,208,07,039,*6A
$GPGGA,135027.0,3206.245994,N,03512.327704,E,1,08,0.8,638.0,M,19.0,M,,*5B
$GNGNS,135027.0,3206.245994,N,03512.327704,E,AA,13,0.8,638.0,19.0,,*65
$GPVTG,268.4,T,268.4,M,1.7,N,3.2,K,A*24
$GPGSA,A,2,02,06,12,19,24,25,29,32,,,,,1.1,0.8,0.8*37
$GNGSA,A,2,02,06,12,19,24,25,29,32,,,,,1.1,0.8,0.8*29
$GNGSA,A,2,79,80,81,82,83,,,,,,,,1.1,0.8,0.8*23
$BDGSA,A,2,,,,,,,,,,,,,1.1,0.8,0.8*22
$GPRMC,135027.0,A,3206.245994,N,03512.327704,E,1.7,268.4,030516,0.0,E,A*08
$GPGSV,4,1,13,02,55,115,37,06,32,056,27,12,56,347,35,14,09,309,27*79
$GPGSV,4,2,13,15,07,199,19,19,19,043,23,24,70,188,37,25,29,306,27*79
$GPGSV,4,3,13,29,24,241,36,32,08,303,29,33,,,31,40,,,30*74
$GPGSV,4,4,13,41,,,34*79
$GLGSV,2,1,07,73,15,326,26,82,73,004,27,80,67,001,22,79,41,122,28*65
$GLGSV,2,2,07,83,42,222,34,81,22,029,20,78,01,136,*50
$BDGSV,2,1,05,202,28,116,24,205,45,137,27,210,08,132,20,203,03,097,*67
$BDGSV,2,2,05,208,07,039,*6A
$GPGGA,135028.0,3206.245972,N,03512.327162,E,1,08,0.8,637.9,M,19.0,M,,*5C
$GNGNS,135028.0,3206.245972,N,03512.327162,E,AA,13,0.8,637.9,19.0,,*62
$GPVTG,274.6,T,274.6,M,1.5,N,2.7,K,A*22
$GPGSA,A,2,02,06,12,19,24,25,29,32,,,,,1.1,0.8,0.8*37
$GNGSA,A,2,02,06,12,19,24,25,29,32,,,,,1.1,0.8,0.8*29
$GNGSA,A,2,79,80,81,82,83,,,,,,,,1.1,0.8,0.8*23
$BDGSA,A,2,,,,,,,,,,,,,1.1,0.8,0.8*22
$GPRMC,135028.0,A,3206.245972,N,03512.327162,E,1.5,274.6,030516,0.0,E,A*04
$GPGSV,4,1,13,02,55,115,34,06,32,056,28,12,56,347,34,14,09,309,26*75
$GPGSV,4,2,13,15,07,199,19,19,19,043,21,24,70,188,36,25,29,306,31*7D
$GPGSV,4,3,13,29,24,241,34,32,08,303,28,33,,,30,40,,,31*77
$GPGSV,4,4,13,41,,,34*79
$GLGSV,2,1,07,73,15,326,23,82,73,004,30,80,67,001,28,79,41,122,28*6C
$GLGSV,2,2,07,83,42,222,32,81,22,029,20,78,01,136,*56
$BDGSV,2,1,05,202,28,116,24,205,45,137,27,210,08,132,20,203,03,097,*67
$BDGSV,2,2,05,208,07,039,*6A
$GPGGA,135029.0,3206.246008,N,03512.327050,E,1,08,0.8,637.7,M,19.0,M,,*54
$GNGNS,135029.0,3206.246008,N,03512.327050,E,AA,13,0.8,637.7,19.0,,*6A
$GPVTG,274.6,T,274.6,M,0.8,N,1.5,K,A*2F
$GPGSA,A,2,02,06,12,19,24,25,29,32,,,,,1.1,0.8,0.8*37
$GNGSA,A,2,02,06,12,19,24,25,29,32,,,,,1.1,0.8,0.8*29
$GNGSA,A,2,79,80,81,82,83,,,,,,,,1.1,0.8,0.8*23
$BDGSA,A,2,,,,,,,,,,,,,1.1,0.8,0.8*22
$GPRMC,135029.0,A,3206.246008,N,03512.327050,E,0.8,274.6,030516,0.0,E,A*0E
$GPGSV,4,1,13,02,55,115,34,06,32,056,27,12,56,347,32,14,09,309,32*79
$GPGSV,4,2,13,15,07,199,19,19,19,043,23,24,70,188,34,25,29,306,37*7B
$GPGSV,4,3,13,29,24,241,39,32,08,303,33,33,,,30,40,,,29*79
$GPGSV,4,4,13,41,,,34*79
$GLGSV,2,1,07,73,15,326,27,82,73,004,35,80,67,001,28,79,41,122,33*67
$GLGSV,2,2,07,83,42,222,39,81,22,029,21,78,01,136,*5C
$BDGSV,2,1,05,202,28,116,24,205,45,137,27,210,08,132,25,203,03,097,*62
$BDGSV,2,2,05,208,07,039,*6A
$GPGGA,135030.0,3206.246245,N,03512.326755,E,1,08,0.8,638.0,M,19.0,M,,*5C
$GNGNS,135030.0,3206.246245,N,03512.326755,E,AA,13,0.8,638.0,19.0,,*62
$GPVTG,274.6,T,274.6,M,1.5,N,2.7,K,A*22
$GPGSA,A,2,02,06,12,19,24,25,29,32,,,,,1.1,0.8,0.8*37
$GNGSA,A,2,02,06,12,19,24,25,29,32,,,,,1.1,0.8,0.8*29
$GNGSA,A,2,79,80,81,82,83,,,,,,,,1.1,0.8,0.8*23
$BDGSA,A,2,,,,,,,,,,,,,1.1,0.8,0.8*22
$GPRMC,135030.0,A,3206.246245,N,03512.326755,E,1.5,274.6,030516,0.0,E,A*02
$GPGSV,4,1,13,02,55,115,36,06,32,056,30,12,56,347,37,14,09,309,33*79
$GPGSV,4,2,13,15,07,199,14,19,19,043,24,24,70,188,38,25,29,306,33*79
$GPGSV,4,3,13,29,24,241,40,32,08,303,35,33,,,31,40,,,35*7D
$GPGSV,4,4,13,41,,,29*75
$GLGSV,2,1,07,73,15,326,25,82,73,004,34,80,67,001,26,79,41,122,34*6D
$GLGSV,2,2,07,83,42,222,37,81,22,029,28,78,01,136,*5B
$BDGSV,2,1,05,202,28,116,26,205,45,137,30,210,08,132,25,203,03,097,*66
$BDGSV,2,2,05,208,07,039,*6A
$GPGGA,135031.0,3206.246264,N,03512.326297,E,1,08,0.8,637.8,M,19.0,M,,*52
$GNGNS,135031.0,3206.246264,N,03512.326297,E,AA,13,0.8,637.8,19.0,,*6C
$GPVTG,300.6,T,300.6,M,1.5,N,2.7,K,A*22
$GPGSA,A,2,02,06,12,19,24,25,29,32,,,,,1.1,0.8,0.8*37
$GNGSA,A,2,02,06,12,19,24,25,29,32,,,,,1.1,0.8,0.8*29
$GNGSA,A,2,79,80,81,82,83,,,,,,,,1.1,0.8,0.8*23
$BDGSA,A,2,,,,,,,,,,,,,1.1,0.8,0.8*22
$GPRMC,135031.0,A,3206.246264,N,03512.326297,E,1.5,300.6,030516,0.0,E,A*09
$GPGSV,4,1,13,02,55,115,40,06,32,056,32,12,56,347,35,14,09,309,32*79
$GPGSV,4,2,13,15,07,199,20,19,19,043,28,24,70,188,39,25,29,306,27*76
$GPGSV,4,3,13,29,24,241,35,32,08,303,33,33,,,31,40,,,37*7B
$GPGSV,4,4,13,41,,,29*75
$GLGSV,2,1,07,73,15,326,32,82,73,004,34,80,67,001,26,79,41,122,33*6C
$GLGSV,2,2,07,83,42,222,36,81,22,029,35,78,01,136,*56
$BDGSV,2,1,05,202,28,116,26,205,45,137,34,210,08,132,30,203,03,097,*66
$BDGSV,2,2,05,208,07,039,*6A
$GPGGA,135032.0,3206.246322,N,03512.326100,E,1,09,0.7,638.0,M,19.0,M,,*56
$GNGNS,135032.0,3206.246322,N,03512.326100,E,AA,14,0.7,638.0,19.0,,*6E
$GPVTG,300.6,T,300.6,M,1.1,N,2.0,K,A*21
$GPGSA,A,2,02,06,12,15,19,24,25,29,32,,,,1.0,0.7,0.7*32
$GNGSA,A,2,02,06,12,15,19,24,25,29,32,,,,1.0,0.7,0.7*2C
$GNGSA,A,2,79,80,81,82,83,,,,,,,,1.0,0.7,0.7*22
$BDGSA,A,2,,,,,,,,,,,,,1.0,0.7,0.7*23
$GPRMC,135032.0,A,3206.246322,N,03512.326100,E,1.1,300.6,030516,0.0,E,A*00
$GPGSV,4,1,13,02,55,115,38,06,32,056,34,12,56,347,33,14,09,309,30*74
$GPGSV,4,2,13,15,07,199,23,19,19,043,31,24,70,188,42,25,29,306,32*75
$GPGSV,4,3,13,29,24,241,31,32,08,303,31,33,,,31,40,,,35*7F
$GPGSV,4,4,13,41,,,29*75
$GLGSV,2,1,07,73,15,326,28,82,73,004,26,80,67,001,26,79,41,122,31*66
$GLGSV,2,2,07,83,42,222,32,81,22,029,27,78,01,136,*51
$BDGSV,2,1,05,202,28,116,27,205,45,137,31,210,08,132,26,203,03,097,*65
$BDGSV,2,2,05,208,07,039,*6A
$GPGGA,135033.0,3206.246040,N,03512.326005,E,1,09,0.7,638.6,M,19.0,M,,*52
$GNGNS,135033.0,3206.246040,N,03512.326005,E,AA,14,0.7,638.6,19.0,,*6A
$GPVTG,300.6,T,300.6,M,0.5,N,1.0,K,A*27
$GPGSA,A,2,02,06,12,15,19,24,25,29,32,,,,1.0,0.7,0.7*32
$GNGSA,A,2,02,06,12,15,19,24,25,29,32,,,,1.0,0.7,0.7*2C
$GNGSA,A,2,79,80,81,82,83,,,,,,,,1.0,0.7,0.7*22
$BDGSA,A,2,,,,,,,,,,,,,1.0,0.7,0.7*23
$GPRMC,135033.0,A,3206.246040,N,03512.326005,E,0.5,300.6,030516,0.0,E,A*07
$GPGSV,4,1,13,02,55,115,40,06,32,056,33,12,56,347,33,14,09,309,25*78
$GPGSV,4,2,13,15,07,199,23,19,19,043,32,24,70,188,41,25,29,306,34*73
$GPGSV,4,3,13,29,24,241,38,32,08,303,30,33,,,31,40,,,38*7A
$GPGSV,4,4,13,41,,,31*7C
$GLGSV,2,1,07,73,15,326,25,82,73,004,30,80,67,001,25,79,41,122,30*6E
$GLGSV,2,2,07,83,42,222,35,81,22,029,26,78,01,136,*57
$BDGSV,2,1,05,202,28,116,28,205,45,137,33,210,08,132,28,203,03,097,*66
$BDGSV,2,2,05,208,07,039,*6A
$GPGGA,135034.0,3206.245879,N,03512.325930,E,1,09,0.7,638.0,M,19.0,M,,*5E
$GNGNS,135034.0,3206.245879,N,03512.325930,E,AA,14,0.7,638.0,19.0,,*66
$GPVTG,300.6,T,300.6,M,0.0,N,0.0,K,A*23
$GPGSA,A,2,02,06,12,15,19,24,25,29,32,,,,1.0,0.7,0.7*32
$GNGSA,A,2,02,06,12,15,19,24,25,29,32,,,,1.0,0.7,0.7*2C
$GNGSA,A,2,79,80,81,82,83,,,,,,,,1.0,0.7,0.7*22
$BDGSA,A,2,,,,,,,,,,,,,1.0,0.7,0.7*23
$GPRMC,135034.0,A,3206.245879,N,03512.325930,E,0.0,300.6,030516,0.0,E,A*08
$GPGSV,4,1,13,02,55,115,39,06,32,056,30,12,56,347,35,14,09,309,32*75
$GPGSV,4,2,13,15,07,199,23,19,19,043,35,24,70,188,43,25,29,306,29*7A
$GPGSV,4,3,13,29,24,241,34,32,08,303,28,33,,,31,40,,,39*7E
$GPGSV,4,4,13,41,,,35*78
$GLGSV,2,1,07,73,15,326,25,82,73,004,31,80,67,001,25,79,41,122,29*67
$GLGSV,2,2,07,83,42,222,33,81,22,029,30,78,01,136,*56
$BDGSV,2,1,05,202,28,116,29,205,45,137,35,210,08,132,32,203,03,097,*6A
$BDGSV,2,2,05,208,07,039,*6A
$GPGGA,135035.0,3206.245881,N,03512.325684,E,1,09,0.7,637.9,M,19.0,M,,*5E
$GNGNS,135035.0,3206.245881,N,03512.325684,E,AA,14,0.7,637.9,19.0,,*66
$GPVTG,300.6,T,300.6,M,1.2,N,2.3,K,A*21
$GPGSA,A,2,02,06,12,15,19,24,25,29,32,,,,1.0,0.7,0.7*32
$GNGSA,A,2,02,06,12,15,19,24,25,29,32,,,,1.0,0.7,0.7*2C
$GNGSA,A,2,79,80,81,82,83,,,,,,,,1.0,0.7,0.7*22
$BDGSA,A,2,,,,,,,,,,,,,1.0,0.7,0.7*23
$GPRMC,135035.0,A,3206.245881,N,03512.325684,E,1.2,300.6,030516,0.0,E,A*0D
$GPGSV,4,1,13,02,55,115,40,06,32,056,30,12,56,347,32,14,09,309,30*7E
$GPGSV,4,2,13,15,07,199,21,19,19,043,36,24,70,188,38,25,29,306,32*7D
$GPGSV,4,3,13,29,24,241,40,32,08,303,26,33,,,35,40,,,36*78
$GPGSV,4,4,13,41,,,33*7E
$GLGSV,2,1,07,73,15,326,26,82,73,004,29,80,67,001,24,79,41,122,31*65
$GLGSV,2,2,07,83,42,222,35,81,22,029,29,78,01,136,*58
$BDGSV,2,1,05,202,28,116,27,205,45,137,35,210,08,132,32,203,03,097,*64
$BDGSV,2,2,05,208,07,039,*6A
$GPGGA,135036.0,3206.245900,N,03512.324894,E,1,09,0.7,638.2,M,19.0,M,,*5F
$GNGNS,135036.0,3206.245900,N,03512.324894,E,AA,14,0.7,638.2,19.0,,*67
$GPVTG,283.8,T,283.8,M,2.0,N,3.8,K,A*2A
$GPGSA,A,2,02,06,12,15,19,24,25,29,32,,,,1.0,0.7,0.7*32
$GNGSA,A,2,02,06,12,15,19,24,25,29,32,,,,1.0,0.7,0.7*2C
$GNGSA,A,2,79,80,81,82,83,,,,,,,,1.0,0.7,0.7*22
$BDGSA,A,2,,,,,,,,,,,,,1.0,0.7,0.7*23
$GPRMC,135036.0,A,3206.245900,N,03512.324894,E,2.0,283.8,030516,0.0,E,A*0D
$GPGSV,4,1,13,02,55,115,40,06,32,056,33,12,56,347,34,14,09,309,30*7B
$GPGSV,4,2,13,15,07,199,23,19,19,043,33,24,70,188,39,25,29,306,32*7B
$GPGSV,4,3,13,29,24,241,39,32,08,303,32,33,,,34,40,,,35*71
$GPGSV,4,4,13,41,,,33*7E
$GLGSV,2,1,07,73,15,326,28,82,73,004,33,80,67,001,24,79,41,122,35*64
$GLGSV,2,2,07,83,42,222,38,81,22,029,24,78,01,136,*58
$BDGSV,2,1,05,202,28,116,26,205,45,137,33,210,08,132,25,203,03,097,*65
$BDGSV,2,2,05,208,07,039,*6A
$GPGGA,135037.0,3206.245850,N,03512.324532,E,1,09,0.7,638.3,M,19.0,M,,*5A
$GNGNS,135037.0,3206.245850,N,03512.324532,E,AA,14,0.7,638.3,19.0,,*62
$GPVTG,283.8,T,283.8,M,1.3,N,2.4,K,A*27
$GPGSA,A,2,02,06,12,15,19,24,25,29,32,,,,1.0,0.7,0.7*32
$GNGSA,A,2,02,06,12,15,19,24,25,29,32,,,,1.0,0.7,0.7*2C
$GNGSA,A,2,79,80,81,82,83,,,,,,,,1.0,0.7,0.7*22
$BDGSA,A,2,,,,,,,,,,,,,1.0,0.7,0.7*23
$GPRMC,135037.0,A,3206.245850,N,03512.324532,E,1.3,283.8,030516,0.0,E,A*09
$GPGSV,4,1,13,02,55,115,38,06,32,056,31,12,56,347,37,14,09,309,28*7C
$GPGSV,4,2,13,15,07,199,22,19,19,043,30,24,70,188,38,25,29,306,33*79
$GPGSV,4,3,13,29,24,241,40,32,08,303,35,33,,,34,40,,,35*78
$GPGSV,4,4,13,41,,,30*7D
$GLGSV,2,1,07,73,15,326,28,82,73,004,34,80,67,001,26,79,41,122,35*61
$GLGSV,2,2,07,83,42,222,40,81,22,029,25,78,01,136,*56
$BDGSV,2,1,05,202,28,116,28,205,45,137,32,210,08,132,24,203,03,097,*6B
$BDGSV,2,2,05,208,07,039,*6A
$GPGGA,135038.0,3206.245822,N,03512.324148,E,1,09,0.7,638.7,M,19.0,M,,*5D
$GNGNS,135038.0,3206.245822,N,03512.324148,E,AA,14,0.7,638.7,19.0,,*65
$GPVTG,283.8,T,283.8,M,0.8,N,1.4,K,A*2E
$GPGSA,A,2,02,06,12,15,19,24,25,29,32,,,,1.0,0.7,0.7*32
$GNGSA,A,2,02,06,12,15,19,24,25,29,32,,,,1.0,0.7,0.7*2C
$GNGSA,A,2,79,80,81,82,83,,,,,,,,1.0,0.7,0.7*22
$BDGSA,A,2,,,,,,,,,,,,,1.0,0.7,0.7*23
$GPRMC,135038.0,A,3206.245822,N,03512.324148,E,0.8,283.8,030516,0.0,E,A*00
$GPGSV,4,1,13,02,55,115,37,06,32,056,31,12,56,347,37,14,09,309,31*7B
$GPGSV,4,2,13,15,07,199,23,19,19,043,28,24,70,188,38,25,29,306,33*71
$GPGSV,4,3,13,29,24,241,40,32,08,303,35,33,,,33,40,,,34*7E
$GPGSV,4,4,13,41,,,31*7C
$GLGSV,2,1,07,73,15,326,26,82,73,004,29,80,67,001,23,79,41,122,29*6B
$GLGSV,2,2,07,83,42,222,36,81,22,029,19,78,01,136,*58
$BDGSV,2,1,05,202,28,116,27,205,45,137,33,210,08,132,26,203,03,097,*67
$BDGSV,2,2,05,208,07,039,*6A
$GPGGA,135039.0,3206.245545,N,03512.323821,E,1,09,0.7,639.3,M,19.0,M,,*54
$GNGNS,135039.0,3206.245545,N,03512.323821,E,AA,14,0.7,639.3,19.0,,*6C
$GPVTG,283.8,T,283.8,M,1.0,N,1.8,K,A*2B
$GPGSA,A,2,02,06,12,15,19,24,25,29,32,,,,1.0,0.7,0.7*32
$GNGSA,A,2,02,06,12,15,19,24,25,29,32,,,,1.0,0.7,0.7*2C
$GNGSA,A,2,79,80,81,82,83,,,,,,,,1.0,0.7,0.7*22
$BDGSA,A,2,,,,,,,,,,,,,1.0,0.7,0.7*23
$GPRMC,135039.0,A,3206.245545,N,03512.323821,E,1.0,283.8,030516,0.0,E,A*05
$GPGSV,4,1,13,02,55,115,38,06,32,056,35,12,56,347,34,14,09,309,25*76
$GPGSV,4,2,13,15,07,199,23,19,19,043,25,24,70,188,37,25,29,306,31*71
$GPGSV,4,3,13,29,24,241,41,32,08,303,31,33,,,35,40,,,35*7C
$GPGSV,4,4,13,41,,,31*7C
$GLGSV,2,1,07,73,15,326,21,82,73,004,26,80,67,001,20,79,41,122,31*69
$GLGSV,2,2,07,83,42,222,35,81,22,029,21,78,01,136,*50
$BDGSV,2,1,05,202,28,116,24,205,45,137,31,210,08,132,28,203,03,097,*68
$BDGSV,2,2,05,208,07,039,*6A
$GPGGA,135040.0,3206.244979,N,03512.323652,E,1,09,0.7,639.5,M,19.0,M,,*54
$GNGNS,135040.0,3206.244979,N,03512.323652,E,AA,14,0.7,639.5,19.0,,*6C
$GPVTG,208.3,T,208.3,M,1.5,N,2.8,K,A*2D
$GPGSA,A,2,02,06,12,15,19,24,25,29,32,,,,1.0,0.7,0.7*32
$GNGSA,A,2,02,06,12,15,19,24,25,29,32,,,,1.0,0.7,0.7*2C
$GNGSA,A,2,79,80,81,82,83,,,,,,,,1.0,0.7,0.7*22
$BDGSA,A,2,,,,,,,,,,,,,1.0,0.7,0.7*23
$GPRMC,135040.0,A,3206.244979,N,03512.323652,E,1.5,208.3,030516,0.0,E,A*0E
$GPGSV,4,1,13,02,55,115,38,06,32,056,29,12,56,347,36,14,09,309,26*7A
$GPGSV,4,2,13,15,07,199,19,19,19,043,25,24,70,188,38,25,29,306,32*74
$GPGSV,4,3,13,29,24,241,40,32,08,303,31,33,,,34,40,,,34*7D
$GPGSV,4,4,13,41,,,31*7C
$GLGSV,2,1,07,73,15,326,26,82,73,004,29,80,67,001,21,79,41,122,31*60
$GLGSV,2,2,07,83,42,222,35,81,22,029,20,78,01,136,*51
$BDGSV,2,1,05,202,28,116,25,205,45,137,32,210,08,132,30,203,03,097,*63
$BDGSV,2,2,05,208,07,039,*6A
$GPGGA,135041.0,3206.245081,N,03512.322965,E,1,09,0.7,640.0,M,19.0,M,,*5B
$GNGNS,135041.0,3206.245081,N,03512.322965,E,AA,14,0.7,640.0,19.0,,*63
$GPVTG,272.0,T,272.0,M,1.7,N,3.1,K,A*27
$GPGSA,A,2,02,06,12,15,19,24,25,29,32,,,,1.0,0.7,0.7*32
$GNGSA,A,2,02,06,12,15,19,24,25,29,32,,,,1.0,0.7,0.7*2C
$GNGSA,A,2,79,80,81,82,83,,,,,,,,1.0,0.7,0.7*22
$BDGSA,A,2,,,,,,,,,,,,,1.0,0.7,0.7*23
$GPRMC,135041.0,A,3206.245081,N,03512.322965,E,1.7,272.0,030516,0.0,E,A*06
$GPGSV,4,1,13,02,55,115,36,06,32,056,25,12,56,347,37,14,09,309,29*76
$GPGSV,4,2,13,15,07,199,18,19,19,043,23,24,70,188,39,25,29,306,31*71
$GPGSV,4,3,13,29,24,241,39,32,08,303,29,33,,,31,40,,,33*78
$GPGSV,4,4,13,41,,,30*7D
$GLGSV,2,1,07,73,15,326,25,82,73,004,27,80,67,001,24,79,41,122,28*60
$GLGSV,2,2,07,83,42,222,35,81,22,029,22,78,01,136,*53
$BDGSV,2,1,05,202,28,116,24,205,45,137,31,210,08,132,26,203,03,097,*66
$BDGSV,2,2,05,208,07,039,*6A
$GPGGA,135042.0,3206.245553,N,03512.322424,E,1,08,0.8,640.2,M,19.0,M,,*56
$GNGNS,135042.0,3206.245553,N,03512.322424,E,AA,13,0.8,640.2,19.0,,*68
$GPVTG,304.3,T,304.3,M,1.6,N,2.9,K,A*2F
$GPGSA,A,2,02,06,12,15,19,24,29,32,,,,,1.1,0.8,0.7*3B
$GNGSA,A,2,02,06,12,15,19,24,29,32,,,,,1.1,0.8,0.7*25
$GNGSA,A,2,79,80,81,82,83,,,,,,,,1.1,0.8,0.7*2C
$BDGSA,A,2,,,,,,,,,,,,,1.1,0.8,0.7*2D
$GPRMC,135042.0,A,3206.245553,N,03512.322424,E,1.6,304.3,030516,0.0,E,A*05
$GPGSV,4,1,13,02,55,115,38,06,32,056,32,12,56,347,36,14,09,309,33*74
$GPGSV,4,2,13,15,07,199,19,19,19,043,27,24,70,188,40,25,29,306,31*7A
$GPGSV,4,3,13,29,24,241,39,32,08,303,31,33,,,31,40,,,35*77
$GPGSV,4,4,13,41,,,30*7D
$GLGSV,2,1,07,73,15,326,27,82,73,004,28,80,67,001,26,79,41,122,31*67
$GLGSV,2,2,07,83,42,222,38,81,22,029,27,78,01,136,*5B
$BDGSV,2,1,05,202,28,116,26,205,45,137,32,210,08,132,27,203,03,097,*66
$BDGSV,2,2,05,208,07,039,*6A
$GPGGA,135043.0,3206.245718,N,03512.322010,E,1,08,0.8,641.2,M,19.0,M,,*58
$GNGNS,135043.0,3206.245718,N,03512.322010,E,AA,13,0.8,641.2,19.0,,*66
$GPVTG,304.3,T,304.3,M,0.8,N,1.6,K,A*2C
$GPGSA,A,2,02,06,12,15,19,24,29,32,,,,,1.1,0.8,0.7*3B
$GNGSA,A,2,02,06,12,15,19,24,29,32,,,,,1.1,0.8,0.7*25
$GNGSA,A,2,79,80,81,82,83,,,,,,,,1.1,0.8,0.7*2C
$BDGSA,A,2,,,,,,,,,,,,,1.1,0.8,0.7*2D
$GPRMC,135043.0,A,3206.245718,N,03512.322010,E,0.8,304.3,030516,0.0,E,A*05
$GPGSV,4,1,13,02,55,115,39,06,32,056,31,12,56,347,37,14,09,309,30*74
$GPGSV,4,2,13,15,07,199,20,19,19,043,28,24,70,188,41,25,29,306,32*7D
$GPGSV,4,3,13,29,24,241,40,32,08,303,35,33,,,33,40,,,34*7E
$GPGSV,4,4,13,41,,,31*7C
$GLGSV,2,1,07,73,15,326,29,82,73,004,32,80,67,001,27,79,41,122,33*61
$GLGSV,2,2,07,83,42,222,39,81,22,029,24,78,01,136,*59
$BDGSV,2,1,05,202,28,116,29,205,45,137,29,210,08,132,27,203,03,097,*63
$BDGSV,2,2,05,208,07,039,*6A
$GPGGA,135044.0,3206.246275,N,03512.321914,E,1,08,0.8,641.4,M,19.0,M,,*5A
$GNGNS,135044.0,3206.246275,N,03512.321914,E,AA,13,0.8,641.4,19.0,,*64
$GPVTG,1.8,T,1.8,M,1.9,N,3.5,K,A*2D
$GPGSA,A,2,02,06,12,15,19,24,29,32,,,,,1.1,0.8,0.7*3B
$GNGSA,A,2,02,06,12,15,19,24,29,32,,,,,1.1,0.8,0.7*25
$GNGSA,A,2,79,80,81,82,83,,,,,,,,1.1,0.8,0.7*2C
$BDGSA,A,2,,,,,,,,,,,,,1.1,0.8,0.7*2D
$GPRMC,135044.0,A,3206.246275,N,03512.321914,E,1.9,1.8,030516,0.0,E,A*0C
$GPGSV,4,1,13,02,55,115,38,06,32,056,31,12,56,347,39,14,09,309,28*72
$GPGSV,4,2,13,15,07,199,18,19,19,043,30,24,70,188,39,25,29,306,35*77
$GPGSV,4,3,13,29,24,241,43,32,08,303,32,33,,,36,40,,,34*7F
$GPGSV,4,4,13,41,,,31*7C
$GLGSV,2,1,07,73,15,326,29,82,73,004,32,80,67,001,30,79,41,122,33*67
$GLGSV,2,2,07,83,42,222,37,81,22,029,26,78,01,136,*55
$BDGSV,2,1,05,202,28,116,29,205,45,137,31,210,08,132,24,203,03,097,*69
$BDGSV,2,2,05,208,07,039,*6A
$GPGGA,135045.0,3206.246853,N,03512.321836,E,1,08,0.8,641.0,M,19.0,M,,*50
$GNGNS,135045.0,3206.246853,N,03512.321836,E,AA,13,0.8,641.0,19.0,,*6E
$GPVTG,5.4,T,5.4,M,1.8,N,3.4,K,A*2D
$GPGSA,A,2,02,06,12,15,19,24,29,32,,,,,1.1,0.8,0.7*3B
$GNGSA,A,2,02,06,12,15,19,24,29,32,,,,,1.1,0.8,0.7*25
$GNGSA,A,2,79,80,81,82,83,,,,,,,,1.1,0.8,0.7*2C
$BDGSA,A,2,,,,,,,,,,,,,1.1,0.8,0.7*2D
$GPRMC,135045.0,A,3206.246853,N,03512.321836,E,1.8,5.4,030516,0.0,E,A*0B
$GPGSV,4,1,13,02,55,115,36,06,32,056,31,12,56,347,42,14,09,309,28*70
$GPGSV,4,2,13,15,07,199,20,19,19,043,31,24,70,188,38,25,29,306,31*78
$GPGSV,4,3,13,29,24,241,41,32,08,303,30,33,,,34,40,,,36*7F
$GPGSV,4,4,13,41,,,31*7C
$GLGSV,2,1,07,73,15,326,25,82,73,004,34,80,67,001,33,79,41,122,31*6C
$GLGSV,2,2,07,83,42,222,35,81,22,029,31,78,01,136,*51
$BDGSV,2,1,05,202,28,116,29,205,45,137,33,210,08,132,22,203,03,097,*6D
$BDGSV,2,2,05,208,07,039,*6A
$GPGGA,135046.0,3206.247721,N,03512.321669,E,1,07,0.9,641.0,M,19.0,M,,*52
$GNGNS,135046.0,3206.247721,N,03512.321669,E,AA,12,0.9,641.0,19.0,,*62
$GPVTG,350.5,T,350.5,M,1.7,N,3.1,K,A*27
$GPGSA,A,2,02,06,12,19,24,29,32,,,,,,1.2,0.9,0.8*32
$GNGSA,A,2,02,06,12,19,24,29,32,,,,,,1.2,0.9,0.8*2C
$GNGSA,A,2,79,80,81,82,83,,,,,,,,1.2,0.9,0.8*21
$BDGSA,A,2,,,,,,,,,,,,,1.2,0.9,0.8*20
$GPRMC,135046.0,A,3206.247721,N,03512.321669,E,1.7,350.5,030516,0.0,E,A*0A
$GPGSV,4,1,13,02,55,115,28,06,32,056,31,12,56,347,43,14,09,309,30*77
$GPGSV,4,2,13,15,07,199,18,19,19,043,35,24,70,188,38,25,29,306,35*73
$GPGSV,4,3,13,29,24,241,37,32,08,303,26,33,,,30,40,,,31*7A
$GPGSV,4,4,13,41,,,31*7C
$GLGSV,2,1,07,73,15,326,25,82,73,004,30,80,67,001,29,79,41,122,25*66
$GLGSV,2,2,07,83,42,222,30,81,22,029,31,78,01,136,*54
$BDGSV,2,1,05,202,28,116,29,205,45,137,27,210,08,132,23,203,03,097,*69
$BDGSV,2,2,05,208,07,039,*6A
$GPGGA,135047.0,3206.248343,N,03512.321781,E,1,07,0.9,640.5,M,19.0,M,,*5F
$GNGNS,135047.0,3206.248343,N,03512.321781,E,AA,12,0.9,640.5,19.0,,*6F
$GPVTG,4.6,T,4.6,M,1.8,N,3.4,K,A*2D
$GPGSA,A,2,02,06,12,19,24,29,32,,,,,,1.2,0.9,0.8*32
$GNGSA,A,2,02,06,12,19,24,29,32,,,,,,1.2,0.9,0.8*2C
$GNGSA,A,2,79,80,81,82,83,,,,,,,,1.2,0.9,0.8*21
$BDGSA,A,2,,,,,,,,,,,,,1.2,0.9,0.8*20
$GPRMC,135047.0,A,3206.248343,N,03512.321781,E,1.8,4.6,030516,0.0,E,A*0D
$GPGSV,4,1,13,02,55,115,35,06,32,056,30,12,56,347,34,14,09,309,28*73
$GPGSV,4,2,13,15,07,199,17,19,19,043,30,24,70,188,36,25,29,306,37*75
$GPGSV,4,3,13,29,24,241,29,32,08,303,28,33,,,30,40,,,33*79
$GPGSV,4,4,13,41,,,31*7C
$GLGSV,2,1,07,73,15,326,24,82,73,004,36,80,67,001,26,79,41,122,31*6B
$GLGSV,2,2,07,83,42,222,26,81,22,029,29,78,01,136,*5A
$BDGSV,2,1,05,202,28,116,22,205,45,137,29,210,08,132,20,203,03,097,*6F
$BDGSV,2,2,05,208,07,039,*6A
$GPGGA,135048.0,3206.248770,N,03512.321749,E,1,07,0.9,640.7,M,19.0,M,,*52
$GNGNS,135048.0,3206.248770,N,03512.321749,E,AA,12,0.9,640.7,19.0,,*62
$GPVTG,356.2,T,356.2,M,1.5,N,2.9,K,A*2C
$GPGSA,A,2,02,06,12,19,24,29,32,,,,,,1.2,0.9,0.8*32
$GNGSA,A,2,02,06,12,19,24,29,32,,,,,,1.2,0.9,0.8*2C
$GNGSA,A,2,79,80,81,82,83,,,,,,,,1.2,0.9,0.8*21
$BDGSA,A,2,,,,,,,,,,,,,1.2,0.9,0.8*20
$GPRMC,135048.0,A,3206.248770,N,03512.321749,E,1.5,356.2,030516,0.0,E,A*0F
$GPGSV,4,1,13,02,55,115,35,06,32,056,29,12,56,347,37,14,09,309,26*76
$GPGSV,4,2,13,15,07,199,21,19,19,043,28,24,70,188,36,25,29,306,36*78
$GPGSV,4,3,13,29,24,241,36,32,08,303,27,33,,,30,40,,,29*73
$GPGSV,4,4,13,41,,,32*7F
$GLGSV,2,1,07,73,15,326,24,82,73,004,29,80,67,001,26,79,41,122,27*62
$GLGSV,2,2,07,83,42,222,30,81,22,029,27,78,01,136,*53
$BDGSV,2,1,05,202,28,116,27,205,45,137,26,210,08,132,18,203,03,097,*6E
$BDGSV,2,2,05,208,07,039,*6A
$GPGGA,135049.0,3206.249310,N,03512.321634,E,1,08,0.8,640.9,M,19.0,M,,*5B
$GNGNS,135049.0,3206.249310,N,03512.321634,E,AA,13,0.8,640.9,19.0,,*65
$GPVTG,345.7,T,345.7,M,1.8,N,3.3,K,A*2A
$GPGSA,A,2,02,06,12,15,19,24,29,32,,,,,1.1,0.8,0.7*3B
$GNGSA,A,2,02,06,12,15,19,24,29,32,,,,,1.1,0.8,0.7*25
$GNGSA,A,2,79,80,81,82,83,,,,,,,,1.1,0.8,0.7*2C
$BDGSA,A,2,,,,,,,,,,,,,1.1,0.8,0.7*2D
$GPRMC,135049.0,A,3206.249310,N,03512.321634,E,1.8,345.7,030516,0.0,E,A*0C
$GPGSV,4,1,13,02,55,115,37,06,32,056,35,12,56,347,34,14,09,309,24*78
$GPGSV,4,2,13,15,07,199,20,19,19,043,33,24,70,188,40,25,29,306,35*71
$GPGSV,4,3,13,29,24,241,33,32,08,303,32,33,,,30,40,,,31*7B
$GPGSV,4,4,13,41,,,35*78
$GLGSV,2,1,07,73,15,326,27,82,73,004,31,80,67,001,24,79,41,122,26*6B
$GLGSV,2,2,07,83,42,222,27,81,22,029,27,78,01,136,*55
$BDGSV,2,1,05,202,28,116,30,205,45,137,26,210,08,132,21,203,03,097,*62
$BDGSV,2,2,05,208,07,039,*6A
$GPGGA,135050.0,3206.249721,N,03512.321851,E,1,08,0.8,641.3,M,19.0,M,,*53
$GNGNS,135050.0,3206.249721,N,03512.321851,E,AA,13,0.8,641.3,19.0,,*6D
$GPVTG,345.7,T,345.7,M,1.4,N,2.6,K,A*22
$GPGSA,A,2,02,06,12,15,19,24,29,32,,,,,1.1,0.8,0.7*3B
$GNGSA,A,2,02,06,12,15,19,24,29,32,,,,,1.1,0.8,0.7*25
$GNGSA,A,2,79,80,81,82,83,,,,,,,,1.1,0.8,0.7*2C
$BDGSA,A,2,,,,,,,,,,,,,1.1,0.8,0.7*2D
$GPRMC,135050.0,A,3206.249721,N,03512.321851,E,1.4,345.7,030516,0.0,E,A*03
$GPGSV,4,1,13,02,55,115,38,06,32,056,29,12,56,347,40,14,09,309,25*78
$GPGSV,4,2,13,15,07,199,22,19,19,043,28,24,70,188,37,25,29,306,35*79
$GPGSV,4,3,13,29,24,241,39,32,08,303,31,33,,,34,40,,,34*73
$GPGSV,4,4,13,41,,,34*79
$GLGSV,2,1,07,73,15,326,26,82,73,004,33,80,67,001,27,79,41,122,31*6D
$GLGSV,2,2,07,83,42,222,31,81,22,029,24,78,01,136,*51
$BDGSV,2,1,05,202,28,116,31,205,45,137,29,210,08,132,23,203,03,097,*6E
$BDGSV,2,2,05,208,07,039,*6A
$GPGGA,135051.0,3206.250199,N,03512.321850,E,1,08,0.8,641.0,M,19.0,M,,*5D
$GNGNS,135051.0,3206.250199,N,03512.321850,E,AA,13,0.8,641.0,19.0,,*63
$GPVTG,12.6,T,12.6,M,2.0,N,3.6,K,A*24
$GPGSA,A,2,02,06,12,15,19,24,29,32,,,,,1.1,0.8,0.7*3B
$GNGSA,A,2,02,06,12,15,19,24,29,32,,,,,1.1,0.8,0.7*25
$GNGSA,A,2,79,80,81,82,83,,,,,,,,1.1,0.8,0.7*2C
$BDGSA,A,2,,,,,,,,,,,,,1.1,0.8,0.7*2D
$GPRMC,135051.0,A,3206.250199,N,03512.321850,E,2.0,12.6,030516,0.0,E,A*39
$GPGSV,4,1,13,02,55,115,36,06,32,056,31,12,56,347,39,14,09,309,28*7C
$GPGSV,4,2,13,15,07,199,18,19,19,043,32,24,70,188,38,25,29,306,36*77
$GPGSV,4,3,13,29,24,241,38,32,08,303,31,33,,,32,40,,,34*74
$GPGSV,4,4,13,41,,,32*7F
$GLGSV,2,1,07,73,15,326,29,82,73,004,30,80,67,001,28,79,41,122,31*6E
$GLGSV,2,2,07,83,42,222,29,81,22,029,24,78,01,136,*58
$BDGSV,2,1,05,202,28,116,31,205,45,137,30,210,08,132,17,203,03,097,*61
$BDGSV,2,2,05,208,07,039,*6A
$GPGGA,135052.0,3206.250814,N,03512.321306,E,1,08,0.8,641.6,M,19.0,M,,*5C
$GNGNS,135052.0,3206.250814,N,03512.321306,E,AA,13,0.8,641.6,19.0,,*62
$GPVTG,1.0,T,1.0,M,1.6,N,2.9,K,A*2F
$GPGSA,A,2,02,06,12,15,19,24,29,32,,,,,1.1,0.8,0.7*3B
$GNGSA,A,2,02,06,12,15,19,24,29,32,,,,,1.1,0.8,0.7*25
$GNGSA,A,2,79,80,81,82,83,,,,,,,,1.1,0.8,0.7*2C
$BDGSA,A,2,,,,,,,,,,,,,1.1,0.8,0.7*2D
$GPRMC,135052.0,A,3206.250814,N,03512.321306,E,1.6,1.0,030516,0.0,E,A*0F
$GPGSV,4,1,13,02,55,115,36,06,32,056,31,12,56,347,39,14,09,309,27*73
$GPGSV,4,2,13,15,07,199,20,19,19,043,30,24,70,188,38,25,29,306,33*7B
$GPGSV,4,3,13,29,24,241,40,32,08,303,31,33,,,32,40,,,33*7C
$GPGSV,4,4,13,41,,,30*7D
$GLGSV,2,1,07,73,15,326,31,82,73,004,31,80,67,001,28,79,41,122,30*67
$GLGSV,2,2,07,83,42,222,30,81,22,029,24,78,01,136,*50
$BDGSV,2,1,05,202,28,116,27,205,45,137,32,210,08,132,18,203,03,097,*6B
$BDGSV,2,2,05,208,07,039,*6A
$GPGGA,135053.0,3206.251363,N,03512.321472,E,1,08,0.8,641.4,M,19.0,M,,*51
$GNGNS,135053.0,3206.251363,N,03512.321472,E,AA,13,0.8,641.4,19.0,,*6F
$GPVTG,10.4,T,10.4,M,1.8,N,3.4,K,A*2D
$GPGSA,A,2,02,06,12,15,19,24,29,32,,,,,1.1,0.8,0.7*3B
$GNGSA,A,2,02,06,12,15,19,24,29,32,,,,,1.1,0.8,0.7*25
$GNGSA,A,2,79,80,81,82,83,,,,,,,,1.1,0.8,0.7*2C
$BDGSA,A,2,,,,,,,,,,,,,1.1,0.8,0.7*2D
$GPRMC,135053.0,A,3206.251363,N,03512.321472,E,1.8,10.4,030516,0.0,E,A*3A
$GPGSV,4,1,13,02,55,115,36,06,32,056,29,12,56,347,39,14,09,309,23*7E
$GPGSV,4,2,13,15,07,199,23,19,19,043,33,24,70,188,37,25,29,306,32*75
$GPGSV,4,3,13,29,24,241,42,32,08,303,26,33,,,37,40,,,32*7C
$GPGSV,4,4,13,41,,,29*75
$GLGSV,2,1,07,73,15,326,31,82,73,004,32,80,67,001,27,79,41,122,32*69
$GLGSV,2,2,07,83,42,222,32,81,22,029,25,78,01,136,*53
$BDGSV,2,1,05,202,28,116,29,205,45,137,31,210,08,132,21,203,03,097,*6C
$BDGSV,2,2,05,208,07,039,*6A
$GPGGA,135054.0,3206.251727,N,03512.321630,E,1,08,0.8,641.2,M,19.0,M,,*50
$GNGNS,135054.0,3206.251727,N,03512.321630,E,AA,13,0.8,641.2,19.0,,*6E
$GPVTG,10.4,T,10.4,M,1.4,N,2.6,K,A*22
$GPGSA,A,2,02,06,12,15,19,24,29,32,,,,,1.1,0.8,0.7*3B
$GNGSA,A,2,02,06,12,15,19,24,29,32,,,,,1.1,0.8,0.7*25
$GNGSA,A,2,79,80,81,82,83,,,,,,,,1.1,0.8,0.7*2C
$BDGSA,A,2,,,,,,,,,,,,,1.1,0.8,0.7*2D
$GPRMC,135054.0,A,3206.251727,N,03512.321630,E,1.4,10.4,030516,0.0,E,A*31
$GPGSV,4,1,13,02,55,115,38,06,32,056,31,12,56,347,38,14,09,309,29*72
$GPGSV,4,2,13,15,07,199,24,19,19,043,32,24,70,188,37,25,29,306,31*70
$GPGSV,4,3,13,29,24,241,42,32,08,303,30,33,,,37,40,,,32*7B
$GPGSV,4,4,13,41,,,34*79
$GLGSV,2,1,07,73,15,326,31,82,73,004,30,80,67,001,27,79,41,122,35*6C
$GLGSV,2,2,07,83,42,222,36,81,22,029,24,78,01,136,*56
$BDGSV,2,1,05,202,28,116,31,205,45,137,28,210,08,132,23,203,03,097,*6F
$BDGSV,2,2,05,208,07,039,*6A
$GPGGA,135055.0,3206.252212,N,03512.321861,E,1,08,0.8,640.8,M,19.0,M,,*50
$GNGNS,135055.0,3206.252212,N,03512.321861,E,AA,13,0.8,640.8,19.0,,*6E
$GPVTG,22.7,T,22.7,M,1.8,N,3.3,K,A*2A
$GPGSA,A,2,02,06,12,15,19,24,29,32,,,,,1.1,0.8,0.7*3B
$GNGSA,A,2,02,06,12,15,19,24,29,32,,,,,1.1,0.8,0.7*25
$GNGSA,A,2,79,80,81,82,83,,,,,,,,1.1,0.8,0.7*2C
$BDGSA,A,2,,,,,,,,,,,,,1.1,0.8,0.7*2D
$GPRMC,135055.0,A,3206.252212,N,03512.321861,E,1.8,22.7,030516,0.0,E,A*34
$GPGSV,4,1,13,02,55,115,37,06,32,056,33,12,56,347,40,14,09,309,31*79
$GPGSV,4,2,13,15,07,199,26,19,19,043,30,24,70,188,35,25,29,306,36*75
$GPGSV,4,3,13,29,24,241,41,32,08,303,33,33,,,35,40,,,31*7A
$GPGSV,4,4,13,41,,,30*7D
$GLGSV,2,1,07,73,15,326,33,82,73,004,30,80,67,001,27,79,41,122,36*6D
$GLGSV,2,2,07,83,42,222,35,81,22,029,24,78,01,136,*55
$BDGSV,2,1,05,202,28,116,25,205,45,137,29,210,08,132,18,203,03,097,*63
$BDGSV,2,2,05,208,07,039,*6A
$GPGGA,135056.0,3206.252847,N,03512.321922,E,1,08,0.8,640.8,M,19.0,M,,*5F
$GNGNS,135056.0,3206.252847,N,03512.321922,E,AA,13,0.8,640.8,19.0,,*61
$GPVTG,20.8,T,20.8,M,1.9,N,3.5,K,A*2D
$GPGSA,A,2,02,06,12,15,19,24,29,32,,,,,1.1,0.8,0.7*3B
$GNGSA,A,2,02,06,12,15,19,24,29,32,,,,,1.1,0.8,0.7*25
$GNGSA,A,2,79,80,81,82,83,,,,,,,,1.1,0.8,0.7*2C
$BDGSA,A,2,,,,,,,,,,,,,1.1,0.8,0.7*2D
$GPRMC,135056.0,A,3206.252847,N,03512.321922,E,1.9,20.8,030516,0.0,E,A*37
$GPGSV,4,1,13,02,55,115,36,06,32,056,34,12,56,347,38,14,09,309,30*71
$GPGSV,4,2,13,15,07,199,24,19,19,043,29,24,70,188,38,25,29,306,38*7C
$GPGSV,4,3,13,29,24,241,40,32,08,303,36,33,,,32,40,,,32*7A
$GPGSV,4,4,13,41,,,30*7D
$GLGSV,2,1,07,73,15,326,29,82,73,004,32,80,67,001,29,79,41,122,35*69
$GLGSV,2,2,07,83,42,222,38,81,22,029,23,78,01,136,*5F
$BDGSV,2,1,05,202,28,116,26,205,45,137,30,210,08,132,20,203,03,097,*63
$BDGSV,2,2,05,208,07,039,*6A
$GPGGA,135057.0,3206.253376,N,03512.321775,E,1,08,0.8,641.1,M,19.0,M,,*52
$GNGNS,135057.0,3206.253376,N,03512.321775,E,AA,13,0.8,641.1,19.0,,*6C
$GPVTG,2.5,T,2.5,M,2.0,N,3.8,K,A*2A
$GPGSA,A,2,02,06,12,15,19,24,29,32,,,,,1.1,0.8,0.7*3B
$GNGSA,A,2,02,06,12,15,19,24,29,32,,,,,1.1,0.8,0.7*25
$GNGSA,A,2,79,80,81,82,83,,,,,,,,1.1,0.8,0.7*2C
$BDGSA,A,2,,,,,,,,,,,,,1.1,0.8,0.7*2D
$GPRMC,135057.0,A,3206.253376,N,03512.321775,E,2.0,2.5,030516,0.0,E,A*05
$GPGSV,4,1,13,02,55,115,37,06,32,056,32,12,56,347,38,14,09,309,30*76
$GPGSV,4,2,13,15,07,199,27,19,19,043,28,24,70,188,40,25,29,306,37*7E
$GPGSV,4,3,13,29,24,241,38,32,08,303,35,33,,,33,40,,,33*76
$GPGSV,4,4,13,41,,,30*7D
$GLGSV,2,1,07,73,15,326,29,82,73,004,29,80,67,001,25,79,41,122,35*6F
$GLGSV,2,2,07,83,42,222,35,81,22,029,22,78,01,136,*53
$BDGSV,2,1,05,202,28,116,27,205,45,137,29,210,08,132,20,203,03,097,*6A
$BDGSV,2,2,05,208,07,039,*6A
$GPGGA,135058.0,3206.253787,N,03512.321868,E,1,08,0.8,640.8,M,19.0,M,,*5C
$GNGNS,135058.0,3206.253787,N,03512.321868,E,AA,13,0.8,640.8,19.0,,*62
$GPVTG,2.5,T,2.5,M,1.3,N,2.5,K,A*26
$GPGSA,A,2,02,06,12,15,19,24,29,32,,,,,1.1,0.8,0.7*3B
$GNGSA,A,2,02,06,12,15,19,24,29,32,,,,,1.1,0.8,0.7*25
$GNGSA,A,2,79,80,81,82,83,,,,,,,,1.1,0.8,0.7*2C
$BDGSA,A,2,,,,,,,,,,,,,1.1,0.8,0.7*2D
$GPRMC,135058.0,A,3206.253787,N,03512.321868,E,1.3,2.5,030516,0.0,E,A*03
$GPGSV,4,1,13,02,55,115,36,06,32,056,33,12,56,347,36,14,09,309,25*7C
$GPGSV,4,2,13,15,07,199,29,19,19,043,26,24,70,188,40,25,29,306,38*71
$GPGSV,4,3,13,29,24,241,35,32,08,303,32,33,,,30,40,,,31*7D
$GPGSV,4,4,13,41,,,30*7D
$GLGSV,2,1,07,73,15,326,25,82,73,004,31,80,67,001,26,79,41,122,30*6C
$GLGSV,2,2,07,83,42,222,37,81,22,029,21,78,01,136,*52
$BDGSV,2,1,05,202,28,116,26,205,45,137,28,210,08,132,18,203,03,097,*61
$BDGSV,2,2,05,208,07,039,*6A
$GPGGA,135059.0,3206.254165,N,03512.321812,E,1,08,0.8,640.9,M,19.0,M,,*5C
$GNGNS,135059.0,3206.254165,N,03512.321812,E,AA,13,0.8,640.9,19.0,,*62
$GPVTG,2.5,T,2.5,M,1.2,N,2.3,K,A*21
$GPGSA,A,2,02,06,12,15,19,24,29,32,,,,,1.1,0.8,0.7*3B
$GNGSA,A,2,02,06,12,15,19,24,29,32,,,,,1.1,0.8,0.7*25
$GNGSA,A,2,79,80,81,82,83,,,,,,,,1.1,0.8,0.7*2C
$BDGSA,A,2,,,,,,,,,,,,,1.1,0.8,0.7*2D
$GPRMC,135059.0,A,3206.254165,N,03512.321812,E,1.2,2.5,030516,0.0,E,A*03
$GPGSV,4,1,13,02,55,115,38,06,32,056,37,12,56,347,28,14,09,309,21*7D
$GPGSV,4,2,13,15,07,199,32,19,19,043,27,24,70,188,41,25,29,306,38*7B
$GPGSV,4,3,13,29,24,241,37,32,08,303,27,33,,,33,40,,,33*7A
$GPGSV,4,4,13,41,,,30*7D
$GLGSV,2,1,07,73,15,326,24,82,73,004,29,80,67,001,24,79,41,122,28*6F
$GLGSV,2,2,07,83,42,222,35,81,22,029,22,78,01,136,*53
$BDGSV,2,1,05,202,28,116,26,205,45,137,30,210,08,132,18,203,03,097,*68
$BDGSV,2,2,05,208,07,039,*6A
$GPGGA,135100.0,3206.254434,N,03512.321965,E,1,08,0.8,640.7,M,19.0,M,,*5F
$GNGNS,135100.0,3206.254434,N,03512.321965,E,AA,13,0.8,640.7,19.0,,*61
$GPVTG,2.5,T,2.5,M,0.8,N,1.5,K,A*2F
$GPGSA,A,2,02,06,12,15,19,24,29,32,,,,,1.1,0.8,0.7*3B
$GNGSA,A,2,02,06,12,15,19,24,29,32,,,,,1.1,0.8,0.7*25
$GNGSA,A,2,79,80,81,82,83,,,,,,,,1.1,0.8,0.7*2C
$BDGSA,A,2,,,,,,,,,,,,,1.1,0.8,0.7*2D
$GPRMC,135100.0,A,3206.254434,N,03512.321965,E,0.8,2.5,030516,0.0,E,A*05
$GPGSV,4,1,13,02,55,115,37,06,32,056,31,12,56,347,35,14,09,309,27*7E
$GPGSV,4,2,13,15,07,199,36,19,19,043,27,24,70,188,39,25,29,306,31*79
$GPGSV,4,3,13,29,24,241,42,32,08,303,28,33,,,34,40,,,31*72
$GPGSV,4,4,13,41,,,32*7F
$GLGSV,2,1,07,73,15,326,29,82,73,004,29,80,67,001,25,79,41,122,31*6B
$GLGSV,2,2,07,83,42,222,35,81,22,029,24,78,01,136,*55
$BDGSV,2,1,05,202,28,116,25,205,45,137,28,210,08,132,18,203,03,097,*62
$BDGSV,2,2,05,208,07,039,*6A
$GPGGA,135101.0,3206.254461,N,03512.321979,E,1,08,0.8,640.2,M,19.0,M,,*56
$GNGNS,135101.0,3206.254461,N,03512.321979,E,AA,13,0.8,640.2,19.0,,*68
$GPVTG,2.5,T,2.5,M,0.3,N,0.6,K,A*26
$GPGSA,A,2,02,06,12,15,19,24,29,32,,,,,1.1,0.8,0.7*3B
$GNGSA,A,2,02,06,12,15,19,24,29,32,,,,,1.1,0.8,0.7*25
$GNGSA,A,2,79,80,81,82,83,,,,,,,,1.1,0.8,0.7*2C
$BDGSA,A,2,,,,,,,,,,,,,1.1,0.8,0.7*2D
$GPRMC,135101.0,A,3206.254461,N,03512.321979,E,0.3,2.5,030516,0.0,E,A*02
$GPGSV,4,1,13,02,55,115,38,06,32,056,26,12,56,347,37,14,09,309,24*76
$GPGSV,4,2,13,15,07,199,35,19,19,043,30,24,70,188,39,25,29,306,33*7E
$GPGSV,4,3,13,29,24,241,36,32,08,303,26,33,,,37,40,,,29*75
$GPGSV,4,4,13,41,,,35*78
$GLGSV,2,1,07,73,15,326,32,82,73,004,26,80,67,001,23,79,41,122,33*6A
$GLGSV,2,2,07,83,42,222,30,81,22,029,26,78,01,136,*52
$BDGSV,2,1,05,202,28,116,33,205,45,137,26,210,08,132,18,203,03,097,*6B
$BDGSV,2,2,05,208,07,039,*6A
$GPGGA,135102.0,3206.254549,N,03512.322108,E,1,08,0.8,640.0,M,19.0,M,,*51
$GNGNS,135102.0,3206.254549,N,03512.322108,E,AA,13,0.8,640.0,19.0,,*6F
$GPVTG,2.5,T,2.5,M,0.5,N,0.9,K,A*2F
$GPGSA,A,2,02,06,12,15,19,24,29,32,,,,,1.1,0.8,0.7*3B
$GNGSA,A,2,02,06,12,15,19,24,29,32,,,,,1.1,0.8,0.7*25
$GNGSA,A,2,79,80,81,82,83,,,,,,,,1.1,0.8,0.7*2C
$BDGSA,A,2,,,,,,,,,,,,,1.1,0.8,0.7*2D
$GPRMC,135102.0,A,3206.254549,N,03512.322108,E,0.5,2.5,030516,0.0,E,A*01
$GPGSV,4,1,13,02,55,115,37,06,32,056,32,12,56,347,35,14,09,309,22*78
$GPGSV,4,2,13,15,07,199,32,19,19,043,31,24,70,188,38,25,29,306,34*7E
$GPGSV,4,3,13,29,24,241,39,32,08,303,24,33,,,34,40,,,31*72
$GPGSV,4,4,13,41,,,34*79
$GLGSV,2,1,07,73,15,326,28,82,73,004,30,80,67,001,25,79,41,122,35*66
$GLGSV,2,2,07,83,42,222,35,81,22,029,28,78,01,136,*59
$BDGSV,2,1,05,202,28,116,32,205,45,137,27,210,08,132,17,203,03,097,*64
$BDGSV,2,2,05,208,07,039,*6A
$GPGGA,135103.0,3206.254801,N,03512.322389,E,1,08,0.8,638.7,M,19.0,M,,*52
$GNGNS,135103.0,3206.254801,N,03512.322389,E,AA,13,0.8,638.7,19.0,,*6C
$GPVTG,2.5,T,2.5,M,0.9,N,1.7,K,A*2C
$GPGSA,A,2,02,06,12,15,19,24,29,32,,,,,1.1,0.8,0.7*3B
$GNGSA,A,2,02,06,12,15,19,24,29,32,,,,,1.1,0.8,0.7*25
$GNGSA,A,2,79,80,81,82,83,,,,,,,,1.1,0.8,0.7*2C
$BDGSA,A,2,,,,,,,,,,,,,1.1,0.8,0.7*2D
$GPRMC,135103.0,A,3206.254801,N,03512.322389,E,0.9,2.5,030516,0.0,E,A*06
$GPGSV,4,1,13,02,56,113,37,06,32,054,34,12,56,348,36,14,09,309,24*73
$GPGSV,4,2,13,15,06,199,26,19,18,045,27,24,69,187,38,25,30,307,38*78
$GPGSV,4,3,13,29,24,241,39,32,08,303,22,33,,,32,40,,,32*71
$GPGSV,4,4,13,41,,,30*7D
$GLGSV,2,1,07,73,15,326,25,82,73,004,31,80,67,001,27,79,41,122,32*6F
$GLGSV,2,2,07,83,42,222,36,81,22,029,20,78,01,136,*52
$BDGSV,2,1,05,202,28,116,31,205,45,137,31,210,08,132,19,203,03,097,*6E
$BDGSV,2,2,05,208,07,039,*6A
$GPGGA,135104.0,3206.255317,N,03512.322270,E,1,08,0.8,639.2,M,19.0,M,,*5B
$GNGNS,135104.0,3206.255317,N,03512.322270,E,AA,13,0.8,639.2,19.0,,*65
$GPVTG,2.5,T,2.5,M,1.1,N,2.0,K,A*21
$GPGSA,A,2,02,06,12,15,19,24,29,32,,,,,1.1,0.8,0.7*3B
$GNGSA,A,2,02,06,12,15,19,24,29,32,,,,,1.1,0.8,0.7*25
$GNGSA,A,2,79,80,81,82,83,,,,,,,,1.1,0.8,0.7*2C
$BDGSA,A,2,,,,,,,,,,,,,1.1,0.8,0.7*2D
$GPRMC,135104.0,A,3206.255317,N,03512.322270,E,1.1,2.5,030516,0.0,E,A*02
$GPGSV,4,1,13,02,56,113,35,06,32,054,39,12,56,348,34,14,09,309,28*72
$GPGSV,4,2,13,15,06,199,26,19,18,045,25,24,69,187,42,25,30,307,39*76
$GPGSV,4,3,13,29,24,241,37,32,08,303,22,33,,,33,40,,,29*74
$GPGSV,4,4,13,41,,,30*7D
$GLGSV,2,1,07,73,15,326,24,82,73,004,33,80,67,001,26,79,41,122,30*6F
$GLGSV,2,2,07,83,42,222,39,81,22,029,23,78,01,136,*5E
$BDGSV,2,1,05,202,28,116,24,205,45,137,29,210,08,132,19,203,03,097,*63
$BDGSV,2,2,05,208,07,039,*6A
$GPGGA,135105.0,3206.255853,N,03512.322711,E,1,08,0.8,639.1,M,19.0,M,,*50
$GNGNS,135105.0,3206.255853,N,03512.322711,E,AA,13,0.8,639.1,19.0,,*6E
$GPVTG,25.3,T,25.3,M,1.6,N,3.0,K,A*27
$GPGSA,A,2,02,06,12,15,19,24,29,32,,,,,1.1,0.8,0.7*3B
$GNGSA,A,2,02,06,12,15,19,24,29,32,,,,,1.1,0.8,0.7*25
$GNGSA,A,2,79,80,81,82,83,,,,,,,,1.1,0.8,0.7*2C
$BDGSA,A,2,,,,,,,,,,,,,1.1,0.8,0.7*2D
$GPRMC,135105.0,A,3206.255853,N,03512.322711,E,1.6,25.3,030516,0.0,E,A*3E
$GPGSV,4,1,13,02,56,113,38,06,32,054,33,12,56,348,33,14,09,309,24*7E
$GPGSV,4,2,13,15,06,199,24,19,18,045,25,24,69,187,41,25,30,307,37*79
$GPGSV,4,3,13,29,24,241,40,32,08,303,22,33,,,33,40,,,33*7F
$GPGSV,4,4,13,41,,,29*75
$GLGSV,2,1,07,73,15,326,23,82,73,004,29,80,67,001,25,79,41,122,32*62
$GLGSV,2,2,07,83,42,222,39,81,22,029,22,78,01,136,*5F
$BDGSV,2,1,05,202,28,116,26,205,45,137,30,210,08,132,21,203,03,097,*62
$BDGSV,2,2,05,208,07,039,*6A
$GPGGA,135106.0,3206.256402,N,03512.322933,E,1,08,0.8,638.8,M,19.0,M,,*5E
$GNGNS,135106.0,3206.256402,N,03512.322933,E,AA,13,0.8,638.8,19.0,,*60
$GPVTG,25.3,T,25.3,M,1.7,N,3.2,K,A*24
$GPGSA,A,2,02,06,12,15,19,24,29,32,,,,,1.1,0.8,0.7*3B
$GNGSA,A,2,02,06,12,15,19,24,29,32,,,,,1.1,0.8,0.7*25
$GNGSA,A,2,79,80,81,82,83,,,,,,,,1.1,0.8,0.7*2C
$BDGSA,A,2,,,,,,,,,,,,,1.1,0.8,0.7*2D
$GPRMC,135106.0,A,3206.256402,N,03512.322933,E,1.7,25.3,030516,0.0,E,A*39
$GPGSV,4,1,13,02,56,113,39,06,32,054,31,12,56,348,34,14,09,309,25*7B
$GPGSV,4,2,13,15,06,199,22,19,18,045,24,24,69,187,39,25,30,307,33*75
$GPGSV,4,3,13,29,24,241,37,32,08,303,22,33,,,34,40,,,31*7A
$GPGSV,4,4,13,41,,,30*7D
$GLGSV,2,1,07,73,15,326,21,82,73,004,30,80,67,001,24,79,41,122,31*6A
$GLGSV,2,2,07,83,42,222,39,81,22,029,22,78,01,136,*5F
$BDGSV,2,1,05,202,28,116,25,205,45,137,26,210,08,132,22,203,03,097,*65
$BDGSV,2,2,05,208,07,039,*6A
$GPGGA,135107.0,3206.256940,N,03512.323001,E,1,08,0.8,639.0,M,19.0,M,,*54
$GNGNS,135107.0,3206.256940,N,03512.323001,E,AA,13,0.8,639.0,19.0,,*6A
$GPVTG,15.6,T,15.6,M,1.8,N,3.4,K,A*2D
$GPGSA,A,2,02,06,12,15,19,24,29,32,,,,,1.1,0.8,0.7*3B
$GNGSA,A,2,02,06,12,15,19,24,29,32,,,,,1.1,0.8,0.7*25
$GNGSA,A,2,79,80,81,82,83,,,,,,,,1.1,0.8,0.7*2C
$BDGSA,A,2,,,,,,,,,,,,,1.1,0.8,0.7*2D
$GPRMC,135107.0,A,3206.256940,N,03512.323001,E,1.8,15.6,030516,0.0,E,A*33
$GPGSV,4,1,13,02,56,113,34,06,32,054,29,12,56,348,35,14,09,309,25*7E
$GPGSV,4,2,13,15,06,199,24,19,18,045,21,24,69,187,39,25,30,307,30*75
$GPGSV,4,3,13,29,24,241,38,32,08,303,20,33,,,34,40,,,31*77
$GPGSV,4,4,13,41,,,35*78
$GLGSV,2,1,07,73,15,326,25,82,73,004,31,80,67,001,25,79,41,122,30*6F
$GLGSV,2,2,07,83,42,222,40,81,22,029,24,78,01,136,*57
$BDGSV,2,1,05,202,28,116,29,205,45,137,29,210,08,132,20,203,03,097,*64
$BDGSV,2,2,05,208,07,039,*6A
$GPGGA,135108.0,3206.257401,N,03512.323106,E,1,08,0.8,639.3,M,19.0,M,,*57
$GNGNS,135108.0,3206.257401,N,03512.323106,E,AA,13,0.8,639.3,19.0,,*69
$GPVTG,10.0,T,10.0,M,1.9,N,3.5,K,A*2D
$GPGSA,A,2,02,06,12,15,19,24,29,32,,,,,1.1,0.8,0.7*3B
$GNGSA,A,2,02,06,12,15,19,24,29,32,,,,,1.1,0.8,0.7*25
$GNGSA,A,2,79,80,81,82,83,,,,,,,,1.1,0.8,0.7*2C
$BDGSA,A,2,,,,,,,,,,,,,1.1,0.8,0.7*2D
$GPRMC,135108.0,A,3206.257401,N,03512.323106,E,1.9,10.0,030516,0.0,E,A*31
$GPGSV,4,1,13,02,56,113,34,06,32,054,27,12,56,348,34,15,06,199,23*72
$GPGSV,4,2,13,19,18,045,21,24,69,187,37,25,30,307,33,29,24,241,41*72
$GPGSV,4,3,13,32,08,303,26,33,,,34,40,,,30,41,,,34*43
$GPGSV,4,4,13,14,09,309,*4D
$GLGSV,2,1,07,73,15,326,23,82,73,004,31,80,67,001,28,79,41,122,28*6D
$GLGSV,2,2,07,83,42,222,40,81,22,029,21,78,01,136,*52
$BDGSV,2,1,05,202,28,116,25,205,45,137,28,210,08,132,25,203,03,097,*6C
$BDGSV,2,2,05,208,07,039,*6A
$GPGGA,135109.0,3206.257939,N,03512.323073,E,1,08,0.8,640.0,M,19.0,M,,*5E
$GNGNS,135109.0,3206.257939,N,03512.323073,E,AA,13,0.8,640.0,19.0,,*60
$GPVTG,359.6,T,359.6,M,1.5,N,2.7,K,A*22
$GPGSA,A,2,02,06,12,15,19,24,29,32,,,,,1.1,0.8,0.7*3B
$GNGSA,A,2,02,06,12,15,19,24,29,32,,,,,1.1,0.8,0.7*25
$GNGSA,A,2,79,80,81,82,83,,,,,,,,1.1,0.8,0.7*2C
$BDGSA,A,2,,,,,,,,,,,,,1.1,0.8,0.7*2D
$GPRMC,135109.0,A,3206.257939,N,03512.323073,E,1.5,359.6,030516,0.0,E,A*01
$GPGSV,4,1,13,02,56,113,34,06,32,054,27,12,56,348,36,15,06,199,20*73
$GPGSV,4,2,13,19,18,045,22,24,69,187,37,25,30,307,33,29,24,241,41*71
$GPGSV,4,3,13,32,08,303,28,33,,,34,40,,,31,41,,,35*4D
$GPGSV,4,4,13,14,09,309,*4D
$GLGSV,2,1,07,73,15,326,24,82,73,004,31,80,67,001,27,79,41,122,31*6D
$GLGSV,2,2,07,83,42,222,37,81,22,029,21,78,01,136,*52
$BDGSV,2,1,05,202,28,116,29,205,45,137,26,210,08,132,19,203,03,097,*61
$BDGSV,2,2,05,208,07,039,*6A
$GPGGA,135110.0,3206.258142,N,03512.322986,E,1,08,0.8,640.8,M,19.0,M,,*57
$GNGNS,135110.0,3206.258142,N,03512.322986,E,AA,13,0.8,640.8,19.0,,*69
$GPVTG,359.6,T,359.6,M,0.6,N,1.1,K,A*25
$GPGSA,A,2,02,06,12,15,19,24,29,32,,,,,1.1,0.8,0.7*3B
$GNGSA,A,2,02,06,12,15,19,24,29,32,,,,,1.1,0.8,0.7*25
$GNGSA,A,2,79,80,81,82,83,,,,,,,,1.1,0.8,0.7*2C
$BDGSA,A,2,,,,,,,,,,,,,1.1,0.8,0.7*2D
$GPRMC,135110.0,A,3206.258142,N,03512.322986,E,0.6,359.6,030516,0.0,E,A*02
$GPGSV,4,1,13,02,56,113,36,06,32,054,22,12,56,348,34,14,09,309,21*72
$GPGSV,4,2,13,15,06,199,22,19,18,045,22,24,69,187,40,25,30,307,34*7A
$GPGSV,4,3,13,29,24,241,38,32,08,303,25,33,,,32,40,,,29*7D
$GPGSV,4,4,13,41,,,36*7B
$GLGSV,2,1,07,73,15,326,18,82,73,004,28,80,67,001,28,79,41,122,26*63
$GLGSV,2,2,07,83,42,222,37,81,22,029,19,78,01,136,*59
$BDGSV,2,1,05,202,28,116,30,205,45,137,28,210,08,132,24,203,03,097,*69
$BDGSV,2,2,05,208,07,039,*6A
$GPGGA,135111.0,3206.258407,N,03512.323025,E,1,08,0.8,641.2,M,19.0,M,,*58
$GNGNS,135111.0,3206.258407,N,03512.323025,E,AA,13,0.8,641.2,19.0,,*66
$GPVTG,359.6,T,359.6,M,1.0,N,1.8,K,A*2B
$GPGSA,A,2,02,06,12,15,19,24,29,32,,,,,1.1,0.8,0.7*3B
$GNGSA,A,2,02,06,12,15,19,24,29,32,,,,,1.1,0.8,0.7*25
$GNGSA,A,2,79,80,81,82,83,,,,,,,,1.1,0.8,0.7*2C
$BDGSA,A,2,,,,,,,,,,,,,1.1,0.8,0.7*2D
$GPRMC,135111.0,A,3206.258407,N,03512.323025,E,1.0,359.6,030516,0.0,E,A*01
$GPGSV,4,1,13,02,56,113,38,06,32,054,27,12,56,348,34,14,09,309,21*79
$GPGSV,4,2,13,15,06,199,23,19,18,045,24,24,69,187,42,25,30,307,34*7F
$GPGSV,4,3,13,29,24,241,36,32,08,303,24,33,,,32,40,,,29*72
$GPGSV,4,4,13,41,,,34*79
$GLGSV,2,1,07,73,15,326,18,82,73,004,31,80,67,001,28,79,41,122,27*6A
$GLGSV,2,2,07,83,42,222,34,81,22,029,18,78,01,136,*5B
$BDGSV,2,1,05,202,28,116,26,205,45,137,25,210,08,132,21,203,03,097,*66
$BDGSV,2,2,05,208,07,039,*6A
$GPGGA,135112.0,3206.258492,N,03512.322713,E,1,08,0.8,641.2,M,19.0,M,,*54
$GNGNS,135112.0,3206.258492,N,03512.322713,E,AA,13,0.8,641.2,19.0,,*6A
$GPVTG,359.6,T,359.6,M,0.4,N,0.8,K,A*2F
$GPGSA,A,2,02,06,12,15,19,24,29,32,,,,,1.1,0.8,0.7*3B
$GNGSA,A,2,02,06,12,15,19,24,29,32,,,,,1.1,0.8,0.7*25
$GNGSA,A,2,79,80,81,82,83,,,,,,,,1.1,0.8,0.7*2C
$BDGSA,A,2,,,,,,,,,,,,,1.1,0.8,0.7*2D
$GPRMC,135112.0,A,3206.258492,N,03512.322713,E,0.4,359.6,030516,0.0,E,A*08
$GPGSV,4,1,13,02,56,113,36,06,32,054,23,12,56,348,37,14,09,309,22*73
$GPGSV,4,2,13,15,06,199,25,24,69,187,39,25,30,307,31,29,24,241,36*79
$GPGSV,4,3,13,32,08,303,26,33,,,30,40,,,30,41,,,34*47
$GPGSV,4,4,13,19,18,045,*4B
$GLGSV,2,1,07,73,15,326,19,82,73,004,32,80,67,001,27,79,41,122,28*68
$GLGSV,2,2,07,83,42,222,37,81,22,029,18,78,01,136,*58
$BDGSV,2,1,05,202,28,116,28,205,45,137,30,210,08,132,26,203,03,097,*6B
$BDGSV,2,2,05,208,07,039,*6A
$GPGGA,135113.0,3206.258586,N,03512.322814,E,1,08,0.8,641.3,M,19.0,M,,*58
$GNGNS,135113.0,3206.258586,N,03512.322814,E,AA,13,0.8,641.3,19.0,,*66
$GPVTG,359.6,T,359.6,M,0.8,N,1.5,K,A*2F
$GPGSA,A,2,02,06,12,15,19,24,29,32,,,,,1.1,0.8,0.7*3B
$GNGSA,A,2,02,06,12,15,19,24,29,32,,,,,1.1,0.8,0.7*25
$GNGSA,A,2,79,80,81,82,83,,,,,,,,1.1,0.8,0.7*2C
$BDGSA,A,2,,,,,,,,,,,,,1.1,0.8,0.7*2D
$GPRMC,135113.0,A,3206.258586,N,03512.322814,E,0.8,359.6,030516,0.0,E,A*09
$GPGSV,4,1,13,02,56,113,38,06,32,054,24,12,56,348,39,14,09,309,19*7C
$GPGSV,4,2,13,15,06,199,26,24,69,187,40,25,30,307,28,29,24,241,32*78
$GPGSV,4,3,13,32,08,303,24,33,,,30,40,,,29,41,,,34*4D
$GPGSV,4,4,13,19,18,045,*4B
$GLGSV,2,1,07,73,15,326,21,82,73,004,32,80,67,001,26,79,41,122,29*63
$GLGSV,2,2,07,83,42,222,36,81,22,029,23,78,01,136,*51
$BDGSV,2,1,05,202,28,116,30,205,45,137,27,210,08,132,25,203,03,097,*67
$BDGSV,2,2,05,208,07,039,*6A
$GPGGA,135114.0,3206.258798,N,03512.322950,E,1,09,0.7,641.5,M,19.0,M,,*5B
$GNGNS,135114.0,3206.258798,N,03512.322950,E,AA,14,0.7,641.5,19.0,,*63
$GPVTG,359.6,T,359.6,M,0.7,N,1.3,K,A*26
$GPGSA,A,2,02,06,12,15,19,24,25,29,32,,,,1.0,0.7,0.7*32
$GNGSA,A,2,02,06,12,15,19,24,25,29,32,,,,1.0,0.7,0.7*2C
$GNGSA,A,2,79,80,81,82,83,,,,,,,,1.0,0.7,0.7*22
$BDGSA,A,2,,,,,,,,,,,,,1.0,0.7,0.7*23
$GPRMC,135114.0,A,3206.258798,N,03512.322950,E,0.7,359.6,030516,0.0,E,A*0D
$GPGSV,4,1,13,02,56,113,35,06,32,054,26,12,56,348,39,14,09,309,21*78
$GPGSV,4,2,13,15,06,199,28,19,18,045,23,24,69,187,38,25,30,307,32*78
$GPGSV,4,3,13,29,24,241,38,32,08,303,27,33,,,29,40,,,29*75
$GPGSV,4,4,13,41,,,35*78
$GLGSV,2,1,07,73,15,326,24,82,73,004,31,80,67,001,28,79,41,122,27*65
$GLGSV,2,2,07,83,42,222,39,81,22,029,21,78,01,136,*5C
$BDGSV,2,1,05,202,28,116,27,205,45,137,27,210,08,132,23,203,03,097,*67
$BDGSV,2,2,05,208,07,039,*6A
$GPGGA,135115.0,3206.258994,N,03512.323087,E,1,09,0.7,641.4,M,19.0,M,,*5B
$GNGNS,135115.0,3206.258994,N,03512.323087,E,AA,14,0.7,641.4,19.0,,*63
$GPVTG,359.6,T,359.6,M,0.0,N,0.0,K,A*23
$GPGSA,A,2,02,06,12,15,19,24,25,29,32,,,,1.0,0.7,0.7*32
$GNGSA,A,2,02,06,12,15,19,24,25,29,32,,,,1.0,0.7,0.7*2C
$GNGSA,A,2,79,80,81,82,83,,,,,,,,1.0,0.7,0.7*22
$BDGSA,A,2,,,,,,,,,,,,,1.0,0.7,0.7*23
$GPRMC,135115.0,A,3206.258994,N,03512.323087,E,0.0,359.6,030516,0.0,E,A*0B
$GPGSV,4,1,13,02,56,113,36,06,32,054,30,12,56,348,37,14,09,309,22*71
$GPGSV,4,2,13,15,06,199,24,19,18,045,20,24,69,187,39,25,30,307,31*75
$GPGSV,4,3,13,29,24,241,40,32,08,303,27,33,,,32,40,,,32*7A
$GPGSV,4,4,13,41,,,35*78
$GLGSV,2,1,07,73,15,326,17,82,73,004,30,80,67,001,29,79,41,122,33*60
$GLGSV,2,2,07,83,42,222,38,81,22,029,23,78,01,136,*5F
$BDGSV,2,1,05,202,28,116,29,205,45,137,29,210,08,132,25,203,03,097,*61
$BDGSV,2,2,05,208,07,039,*6A
$GPGGA,135116.0,3206.259213,N,03512.323102,E,1,09,0.7,641.4,M,19.0,M,,*51
$GNGNS,135116.0,3206.259213,N,03512.323102,E,AA,14,0.7,641.4,19.0,,*69
$GPVTG,359.6,T,359.6,M,1.3,N,2.5,K,A*26
$GPGSA,A,2,02,06,12,15,19,24,25,29,32,,,,1.0,0.7,0.7*32
$GNGSA,A,2,02,06,12,15,19,24,25,29,32,,,,1.0,0.7,0.7*2C
$GNGSA,A,2,79,80,81,82,83,,,,,,,,1.0,0.7,0.7*22
$BDGSA,A,2,,,,,,,,,,,,,1.0,0.7,0.7*23
$GPRMC,135116.0,A,3206.259213,N,03512.323102,E,1.3,359.6,030516,0.0,E,A*03
$GPGSV,4,1,13,02,56,113,37,06,32,054,25,12,56,348,34,14,09,309,19*7F
$GPGSV,4,2,13,15,06,199,27,24,69,187,39,25,30,307,28,29,24,241,37*72
$GPGSV,4,3,13,32,08,303,22,33,,,33,40,,,32,41,,,36*40
$GPGSV,4,4,13,19,18,045,*4B
$GLGSV,2,1,07,73,15,326,20,82,73,004,31,80,67,001,27,79,41,122,30*68
$GLGSV,2,2,07,83,42,222,38,81,22,029,21,78,01,136,*5D
$BDGSV,2,1,05,202,28,116,29,205,45,137,30,210,08,132,29,203,03,097,*65
$BDGSV,2,2,05,208,07,039,*6A
$GPGGA,135117.0,3206.259663,N,03512.323231,E,1,09,0.7,641.8,M,19.0,M,,*5C
$GNGNS,135117.0,3206.259663,N,03512.323231,E,AA,14,0.7,641.8,19.0,,*64
$GPVTG,359.6,T,359.6,M,1.3,N,2.5,K,A*26
$GPGSA,A,2,02,06,12,15,19,24,25,29,32,,,,1.0,0.7,0.7*32
$GNGSA,A,2,02,06,12,15,19,24,25,29,32,,,,1.0,0.7,0.7*2C
$GNGSA,A,2,79,80,81,82,83,,,,,,,,1.0,0.7,0.7*22
$BDGSA,A,2,,,,,,,,,,,,,1.0,0.7,0.7*23
$GPRMC,135117.0,A,3206.259663,N,03512.323231,E,1.3,359.6,030516,0.0,E,A*02
$GPGSV,4,1,13,02,56,113,40,06,32,054,26,12,56,348,28,14,09,309,19*71
$GPGSV,4,2,13,15,06,199,24,19,18,045,24,24,69,187,40,25,30,307,24*7B
$GPGSV,4,3,13,29,24,241,38,32,08,303,20,33,,,34,40,,,30*76
$GPGSV,4,4,13,41,,,34*79
$GLGSV,2,1,07,73,15,326,18,82,73,004,31,80,67,001,27,79,41,122,24*66
$GLGSV,2,2,07,83,42,222,40,81,22,029,19,78,01,136,*59
$BDGSV,2,1,05,202,28,116,25,205,45,137,29,210,08,132,22,203,03,097,*6A
$BDGSV,2,2,05,208,07,039,*6A
$GPGGA,135118.0,3206.260054,N,03512.323031,E,1,09,0.7,641.8,M,19.0,M,,*59
$GNGNS,135118.0,3206.260054,N,03512.323031,E,AA,14,0.7,641.8,19.0,,*61
$GPVTG,359.6,T,359.6,M,1.1,N,2.1,K,A*20
$GPGSA,A,2,02,06,12,15,19,24,25,29,32,,,,1.0,0.7,0.7*32
$GNGSA,A,2,02,06,12,15,19,24,25,29,32,,,,1.0,0.7,0.7*2C
$GNGSA,A,2,79,80,81,82,83,,,,,,,,1.0,0.7,0.7*22
$BDGSA,A,2,,,,,,,,,,,,,1.0,0.7,0.7*23
$GPRMC,135118.0,A,3206.260054,N,03512.323031,E,1.1,359.6,030516,0.0,E,A*05
$GPGSV,4,1,13,02,56,113,34,06,32,054,25,12,56,348,36,14,09,309,22*76
$GPGSV,4,2,13,15,06,199,23,19,18,045,21,24,69,187,38,25,30,307,24*76
$GPGSV,4,3,13,29,24,241,40,32,08,303,23,33,,,35,40,,,29*73
$GPGSV,4,4,13,41,,,37*7A
$GLGSV,2,1,07,73,15,326,17,82,73,004,30,80,67,001,28,79,41,122,28*6B
$GLGSV,2,2,07,83,42,222,38,81,22,029,19,78,01,136,*56
$BDGSV,2,1,05,202,28,116,31,205,45,137,25,210,08,132,24,203,03,097,*65
$BDGSV,2,2,05,208,07,039,*6A
$GPGGA,135119.0,3206.260773,N,03512.322923,E,1,09,0.7,642.0,M,19.0,M,,*5A
$GNGNS,135119.0,3206.260773,N,03512.322923,E,AA,14,0.7,642.0,19.0,,*62
$GPVTG,359.6,T,359.6,M,0.9,N,1.7,K,A*2C
$GPGSA,A,2,02,06,12,15,19,24,25,29,32,,,,1.0,0.7,0.7*32
$GNGSA,A,2,02,06,12,15,19,24,25,29,32,,,,1.0,0.7,0.7*2C
$GNGSA,A,2,79,80,81,82,83,,,,,,,,1.0,0.7,0.7*22
$BDGSA,A,2,,,,,,,,,,,,,1.0,0.7,0.7*23
$GPRMC,135119.0,A,3206.260773,N,03512.322923,E,0.9,359.6,030516,0.0,E,A*04
$GPGSV,4,1,13,02,56,113,36,06,32,054,26,12,56,348,37,15,06,199,24*75
$GPGSV,4,2,13,19,18,045,23,24,69,187,40,25,30,307,24,29,24,241,39*79
$GPGSV,4,3,13,32,08,303,21,33,,,34,40,,,29,41,,,36*4E
$GPGSV,4,4,13,14,09,309,*4D
$GLGSV,2,1,07,73,15,326,19,82,73,004,30,80,67,001,27,79,41,122,30*63
$GLGSV,2,2,07,83,42,222,39,81,22,029,19,78,01,136,*57
$BDGSV,2,1,05,202,28,116,28,205,45,137,26,210,08,132,29,203,03,097,*63
$BDGSV,2,2,05,208,07,039,*6A
$GPGGA,135120.0,3206.261220,N,03512.322891,E,1,09,0.7,642.2,M,19.0,M,,*58
$GNGNS,135120.0,3206.261220,N,03512.322891,E,AA,14,0.7,642.2,19.0,,*60
$GPVTG,359.6,T,359.6,M,1.0,N,1.8,K,A*2B
$GPGSA,A,2,02,06,12,15,19,24,25,29,32,,,,1.0,0.7,0.7*32
$GNGSA,A,2,02,06,12,15,19,24,25,29,32,,,,1.0,0.7,0.7*2C
$GNGSA,A,2,79,80,81,82,83,,,,,,,,1.0,0.7,0.7*22
$BDGSA,A,2,,,,,,,,,,,,,1.0,0.7,0.7*23
$GPRMC,135120.0,A,3206.261220,N,03512.322891,E,1.0,359.6,030516,0.0,E,A*0C
$GPGSV,4,1,13,02,56,113,35,06,32,054,25,12,56,348,36,15,06,199,24*74
$GPGSV,4,2,13,24,69,187,39,25,30,307,28,29,24,241,39,32,08,303,20*71
$GPGSV,4,3,13,33,,,35,40,,,29,41,,,36,14,09,309,*43
$GPGSV,4,4,13,19,18,045,*4B
$GLGSV,2,1,07,73,15,326,23,82,73,004,32,80,67,001,28,79,41,122,27*61
$GLGSV,2,2,07,83,42,222,37,81,22,029,17,78,01,136,*57
$BDGSV,2,1,05,202,28,116,28,205,45,137,26,210,08,132,30,203,03,097,*6B
$BDGSV,2,2,05,208,07,039,*6A
$GPGGA,135121.0,3206.261147,N,03512.322901,E,1,09,0.7,642.2,M,19.0,M,,*53
$GNGNS,135121.0,3206.261147,N,03512.322901,E,AA,14,0.7,642.2,19.0,,*6B
$GPVTG,359.6,T,359.6,M,0.0,N,0.0,K,A*23
$GPGSA,A,2,02,06,12,15,19,24,25,29,32,,,,1.0,0.7,0.7*32
$GNGSA,A,2,02,06,12,15,19,24,25,29,32,,,,1.0,0.7,0.7*2C
$GNGSA,A,2,79,80,81,82,83,,,,,,,,1.0,0.7,0.7*22
$BDGSA,A,2,,,,,,,,,,,,,1.0,0.7,0.7*23
$GPRMC,135121.0,A,3206.261147,N,03512.322901,E,0.0,359.6,030516,0.0,E,A*06
$GPGSV,4,1,13,02,56,113,36,06,32,054,27,12,56,348,33,14,09,309,21*70
$GPGSV,4,2,13,15,06,199,25,19,18,045,29,24,69,187,39,25,30,307,28*75
$GPGSV,4,3,13,29,24,241,40,32,08,303,21,33,,,33,40,,,31*7E
$GPGSV,4,4,13,41,,,35*78
$GLGSV,2,1,07,73,15,326,18,82,73,004,32,80,67,001,27,79,41,122,30*60
$GLGSV,2,2,07,83,42,222,37,81,22,029,19,78,01,136,*59
$BDGSV,2,1,05,202,28,116,29,205,45,137,28,210,08,132,29,203,03,097,*6C
$BDGSV,2,2,05,208,07,039,*6A
$GPGGA,135122.0,3206.261283,N,03512.323006,E,1,09,0.7,642.3,M,19.0,M,,*55
$GNGNS,135122.0,3206.261283,N,03512.323006,E,AA,14,0.7,642.3,19.0,,*6D
$GPVTG,359.6,T,359.6,M,1.0,N,1.8,K,A*2B
$GPGSA,A,2,02,06,12,15,19,24,25,29,32,,,,1.0,0.7,0.7*32
$GNGSA,A,2,02,06,12,15,19,24,25,29,32,,,,1.0,0.7,0.7*2C
$GNGSA,A,2,79,80,81,82,83,,,,,,,,1.0,0.7,0.7*22
$BDGSA,A,2,,,,,,,,,,,,,1.0,0.7,0.7*23
$GPRMC,135122.0,A,3206.261283,N,03512.323006,E,1.0,359.6,030516,0.0,E,A*00
$GPGSV,4,1,13,02,56,113,35,06,32,054,29,12,56,348,34,14,09,309,21*7A
$GPGSV,4,2,13,15,06,199,28,19,18,045,27,24,69,187,40,25,30,307,29*79
$GPGSV,4,3,13,29,24,241,40,32,08,303,25,33,,,34,40,,,30*7C
$GPGSV,4,4,13,41,,,35*78
$GLGSV,2,1,07,73,15,326,18,82,73,004,30,80,67,001,27,79,41,122,30*62
$GLGSV,2,2,07,83,42,222,38,81,22,029,18,78,01,136,*57
$BDGSV,2,1,05,202,28,116,29,205,45,137,26,210,08,132,27,203,03,097,*6C
$BDGSV,2,2,05,208,07,039,*6A
$GPGGA,135123.0,3206.261330,N,03512.323029,E,1,09,0.7,642.4,M,19.0,M,,*57
$GNGNS,135123.0,3206.261330,N,03512.323029,E,AA,14,0.7,642.4,19.0,,*6F
$GPVTG,359.6,T,359.6,M,0.0,N,0.0,K,A*23
$GPGSA,A,2,02,06,12,15,19,24,25,29,32,,,,1.0,0.7,0.7*32
$GNGSA,A,2,02,06,12,15,19,24,25,29,32,,,,1.0,0.7,0.7*2C
$GNGSA,A,2,79,80,81,82,83,,,,,,,,1.0,0.7,0.7*22
$BDGSA,A,2,,,,,,,,,,,,,1.0,0.7,0.7*23
$GPRMC,135123.0,A,3206.261330,N,03512.323029,E,0.0,359.6,030516,0.0,E,A*04
$GPGSV,4,1,13,02,56,113,35,06,32,054,31,12,56,348,35,14,09,309,21*72
$GPGSV,4,2,13,15,06,199,28,19,18,045,27,24,69,187,42,25,30,307,31*72
$GPGSV,4,3,13,29,24,241,37,32,08,303,21,33,,,34,40,,,30*78
$GPGSV,4,4,13,41,,,33*7E
$GLGSV,2,1,07,73,15,326,21,82,73,004,30,80,67,001,27,79,41,122,27*6E
$GLGSV,2,2,07,83,42,222,35,81,22,029,21,78,01,136,*50
$BDGSV,2,1,05,202,28,116,28,205,45,137,25,210,08,132,26,203,03,097,*6F
$BDGSV,2,2,05,208,07,039,*6A
$GPGGA,135124.0,3206.261457,N,03512.322749,E,1,09,0.7,643.6,M,19.0,M,,*55
$GNGNS,135124.0,3206.261457,N,03512.322749,E,AA,14,0.7,643.6,19.0,,*6D
$GPVTG,359.6,T,359.6,M,0.0,N,0.0,K,A*23
$GPGSA,A,2,02,06,12,15,19,24,25,29,32,,,,1.0,0.7,0.7*32
$GNGSA,A,2,02,06,12,15,19,24,25,29,32,,,,1.0,0.7,0.7*2C
$GNGSA,A,2,79,80,81,82,83,,,,,,,,1.0,0.7,0.7*22
$BDGSA,A,2,,,,,,,,,,,,,1.0,0.7,0.7*23
$GPRMC,135124.0,A,3206.261457,N,03512.322749,E,0.0,359.6,030516,0.0,E,A*05
$GPGSV,4,1,13,02,56,113,35,06,32,054,33,12,56,348,37,14,09,309,21*72
$GPGSV,4,2,13,15,06,199,29,24,69,187,41,25,30,307,32,29,24,241,37*78
$GPGSV,4,3,13,32,08,303,19,33,,,34,40,,,30,41,,,33*48
$GPGSV,4,4,13,19,18,045,*4B
$GLGSV,2,1,07,73,15,326,21,82,73,004,31,80,67,001,29,79,41,122,26*60
$GLGSV,2,2,07,83,42,222,38,81,22,029,21,78,01,136,*5D
$BDGSV,2,1,05,202,28,116,26,205,45,137,25,210,08,132,25,203,03,097,*62
$BDGSV,2,2,05,208,07,039,*6A
$GPGGA,135125.0,3206.261693,N,03512.322747,E,1,09,0.7,643.6,M,19.0,M,,*50
$GNGNS,135125.0,3206.261693,N,03512.322747,E,AA,14,0.7,643.6,19.0,,*68
$GPVTG,359.6,T,359.6,M,1.4,N,2.6,K,A*22
$GPGSA,A,2,02,06,12,15,19,24,25,29,32,,,,1.0,0.7,0.7*32
$GNGSA,A,2,02,06,12,15,19,24,25,29,32,,,,1.0,0.7,0.7*2C
$GNGSA,A,2,79,80,81,82,83,,,,,,,,1.0,0.7,0.7*22
$BDGSA,A,2,,,,,,,,,,,,,1.0,0.7,0.7*23
$GPRMC,135125.0,A,3206.261693,N,03512.322747,E,1.4,359.6,030516,0.0,E,A*05
$GPGSV,4,1,13,02,56,113,34,06,32,054,36,12,56,348,37,14,09,309,19*7D
$GPGSV,4,2,13,15,06,199,30,19,18,045,24,24,69,187,41,25,30,307,32*78
$GPGSV,4,3,13,29,24,241,39,32,08,303,25,33,,,34,40,,,30*72
$GPGSV,4,4,13,41,,,30*7D
$GLGSV,2,1,07,73,15,326,18,82,73,004,30,80,67,001,25,79,41,122,28*69
$GLGSV,2,2,07,83,42,222,38,81,22,029,21,78,01,136,*5D
$BDGSV,2,1,05,202,28,116,26,205,45,137,27,210,08,132,26,203,03,097,*63
$BDGSV,2,2,05,208,07,039,*6A
$GPGGA,135126.0,3206.262267,N,03512.323071,E,1,09,0.7,643.3,M,19.0,M,,*59
$GNGNS,135126.0,3206.262267,N,03512.323071,E,AA,14,0.7,643.3,19.0,,*61
$GPVTG,13.4,T,13.4,M,1.6,N,3.0,K,A*27
$GPGSA,A,2,02,06,12,15,19,24,25,29,32,,,,1.0,0.7,0.7*32
$GNGSA,A,2,02,06,12,15,19,24,25,29,32,,,,1.0,0.7,0.7*2C
$GNGSA,A,2,79,80,81,82,83,,,,,,,,1.0,0.7,0.7*22
$BDGSA,A,2,,,,,,,,,,,,,1.0,0.7,0.7*23
$GPRMC,135126.0,A,3206.262267,N,03512.323071,E,1.6,13.4,030516,0.0,E,A*34
$GPGSV,4,1,13,02,56,113,37,06,32,054,33,12,56,348,35,14,09,309,24*77
$GPGSV,4,2,13,15,06,199,29,24,69,187,42,25,30,307,31,29,24,241,33*7C
$GPGSV,4,3,13,32,08,303,26,33,,,33,40,,,33,41,,,30*43
$GPGSV,4,4,13,19,18,045,*4B
$GLGSV,2,1,07,73,15,326,24,82,73,004,33,80,67,001,28,79,41,122,28*68
$GLGSV,2,2,07,83,42,222,39,81,22,029,22,78,01,136,*5F
$BDGSV,2,1,05,202,28,116,26,205,45,137,28,210,08,132,25,203,03,097,*6F
$BDGSV,2,2,05,208,07,039,*6A
$GPGGA,135127.0,3206.262771,N,03512.323218,E,1,09,0.7,642.5,M,19.0,M,,*50
$GNGNS,135127.0,3206.262771,N,03512.323218,E,AA,14,0.7,642.5,19.0,,*68
$GPVTG,13.4,T,13.4,M,1.1,N,2.0,K,A*21
$GPGSA,A,2,02,06,12,15,19,24,25,29,32,,,,1.0,0.7,0.7*32
$GNGSA,A,2,02,06,12,15,19,24,25,29,32,,,,1.0,0.7,0.7*2C
$GNGSA,A,2,79,80,81,82,83,,,,,,,,1.0,0.7,0.7*22
$BDGSA,A,2,,,,,,,,,,,,,1.0,0.7,0.7*23
$GPRMC,135127.0,A,3206.262771,N,03512.323218,E,1.1,13.4,030516,0.0,E,A*3D
$GPGSV,4,1,13,02,56,113,37,06,32,054,34,12,56,348,34,14,09,309,20*75
$GPGSV,4,2,13,15,06,199,28,24,69,187,41,25,30,307,30,29,24,241,36*7A
$GPGSV,4,3,13,32,08,303,20,33,,,30,40,,,32,41,,,30*47
$GPGSV,4,4,13,19,18,045,*4B
$GLGSV,2,1,07,73,15,326,22,82,73,004,29,80,67,001,26,79,41,122,26*65
$GLGSV,2,2,07,83,42,222,35,81,22,029,20,78,01,136,*51
$BDGSV,2,1,05,202,28,116,21,205,45,137,26,210,08,132,19,203,03,097,*69
$BDGSV,2,2,05,208,07,039,*6A
$GPGGA,135128.0,3206.263231,N,03512.323464,E,1,09,0.7,641.6,M,19.0,M,,*52
$GNGNS,135128.0,3206.263231,N,03512.323464,E,AA,14,0.7,641.6,19.0,,*6A
$GPVTG,13.4,T,13.4,M,1.3,N,2.5,K,A*26
$GPGSA,A,2,02,06,12,15,19,24,25,29,32,,,,1.0,0.7,0.7*32
$GNGSA,A,2,02,06,12,15,19,24,25,29,32,,,,1.0,0.7,0.7*2C
$GNGSA,A,2,79,80,81,82,83,,,,,,,,1.0,0.7,0.7*22
$BDGSA,A,2,,,,,,,,,,,,,1.0,0.7,0.7*23
$GPRMC,135128.0,A,3206.263231,N,03512.323464,E,1.3,13.4,030516,0.0,E,A*3D
$GPGSV,4,1,13,02,56,113,36,06,32,054,34,12,56,348,34,14,09,309,23*77
$GPGSV,4,2,13,15,06,199,27,24,69,187,39,25,30,307,36,29,24,241,39*73
$GPGSV,4,3,13,32,08,303,20,33,,,36,40,,,32,41,,,30*41
$GPGSV,4,4,13,19,18,045,*4B
$GLGSV,2,1,07,73,15,326,18,82,73,004,31,80,67,001,27,79,41,122,30*63
$GLGSV,2,2,07,83,42,222,38,81,22,029,24,78,01,136,*58
$BDGSV,2,1,05,202,28,116,21,205,45,137,26,210,08,132,20,203,03,097,*63
$BDGSV,2,2,05,208,07,039,*6A
$GPGGA,135129.0,3206.263978,N,03512.323431,E,1,09,0.7,642.2,M,19.0,M,,*52
$GNGNS,135129.0,3206.263978,N,03512.323431,E,AA,14,0.7,642.2,19.0,,*6A
$GPVTG,13.2,T,13.2,M,1.7,N,3.2,K,A*24
$GPGSA,A,2,02,06,12,15,19,24,25,29,32,,,,1.0,0.7,0.7*32
$GNGSA,A,2,02,06,12,15,19,24,25,29,32,,,,1.0,0.7,0.7*2C
$GNGSA,A,2,79,80,81,82,83,,,,,,,,1.0,0.7,0.7*22
$BDGSA,A,2,,,,,,,,,,,,,1.0,0.7,0.7*23
$GPRMC,135129.0,A,3206.263978,N,03512.323431,E,1.7,13.2,030516,0.0,E,A*38
$GPGSV,4,1,13,02,56,113,37,06,32,054,34,12,56,348,38,14,09,309,25*7C
$GPGSV,4,2,13,15,06,199,27,24,69,187,41,25,30,307,31,29,24,241,37*75
$GPGSV,4,3,13,32,08,303,20,33,,,31,40,,,35,41,,,30*41
$GPGSV,4,4,13,19,18,045,*4B
$GLGSV,2,1,07,73,15,326,18,82,73,004,33,80,67,001,29,79,41,122,30*6F
$GLGSV,2,2,07,83,42,222,40,81,22,029,28,78,01,136,*5B
$BDGSV,2,1,05,202,28,116,21,205,45,137,32,210,08,132,22,203,03,097,*64
$BDGSV,2,2,05,208,07,039,*6A
$GPGGA,135130.0,3206.264500,N,03512.323588,E,1,08,0.8,641.5,M,19.0,M,,*57
