$GPGSV,4,1,13,02,54,120,43,06,34,059,42,12,54,341,37,14,08,310,21*7E
$GPGSV,4,2,13,15,09,201,37,19,22,043,29,24,73,192,41,25,27,305,25*7D
$GPGSV,4,3,13,29,22,239,32,32,08,307,27,40,,,34,41,,,37*74
$GPGSV,4,4,13,17,,,*7D
$GLGSV,2,1,07,73,12,324,24,82,75,001,23,80,63,357,21,79,44,119,31*67
$GLGSV,2,2,07,83,39,217,28,81,25,029,33,78,04,133,*52
$BDGSV,2,1,05,205,45,137,25,202,28,116,,203,03,097,,208,08,039,*62
$BDGSV,2,2,05,210,09,130,*65
$GPGGA,134421.0,3206.258444,N,03512.374123,E,1,08,0.8,639.3,M,19.0,M,,*53
$GNGNS,134421.0,3206.258444,N,03512.374123,E,AA,13,0.8,639.3,19.0,,*6D
$GPVTG,175.2,T,175.2,M,1.9,N,3.5,K,A*2D
$GPGSA,A,2,02,06,12,15,19,24,25,29,,,,,1.1,0.8,0.8*32
$GNGSA,A,2,02,06,12,15,19,24,25,29,,,,,1.1,0.8,0.8*2C
$GNGSA,A,2,79,80,81,82,83,,,,,,,,1.1,0.8,0.8*23
$BDGSA,A,2,,,,,,,,,,,,,1.1,0.8,0.8*22
$GPRMC,134421.0,A,3206.258444,N,03512.374123,E,1.9,175.2,030516,0.0,E,A*05
$GPGSV,4,1,13,02,54,120,39,06,34,059,39,12,54,341,31,14,08,310,18*73
$GPGSV,4,2,13,15,09,201,33,19,22,043,31,24,73,192,38,25,27,305,24*7F
$GPGSV,4,3,13,29,22,239,29,32,08,307,24,40,,,31,41,,,37*78
$GPGSV,4,4,13,17,,,*7D
$GLGSV,2,1,07,73,12,324,22,82,75,001,24,80,63,357,26,79,44,119,34*64
$GLGSV,2,2,07,83,39,217,29,81,25,029,31,78,04,133,*51
$BDGSV,2,1,05,205,45,137,25,202,28,116,,203,03,097,,208,08,039,*62
$BDGSV,2,2,05,210,09,130,*65
$GPGGA,134422.0,3206.258320,N,03512.374293,E,1,08,0.8,640.0,M,19.0,M,,*50
$GNGNS,134422.0,3206.258320,N,03512.374293,E,AA,13,0.8,640.0,19.0,,*6E
$GPVTG,179.4,T,179.4,M,2.0,N,3.7,K,A*25
$GPGSA,A,2,02,06,12,15,19,24,25,29,,,,,1.1,0.8,0.8*32
$GNGSA,A,2,02,06,12,15,19,24,25,29,,,,,1.1,0.8,0.8*2C
$GNGSA,A,2,79,80,81,82,83,,,,,,,,1.1,0.8,0.8*23
$BDGSA,A,2,,,,,,,,,,,,,1.1,0.8,0.8*22
$GPRMC,134422.0,A,3206.258320,N,03512.374293,E,2.0,179.4,030516,0.0,E,A*0B
$GPGSV,4,1,13,02,54,120,35,06,34,059,37,12,54,341,32,14,08,310,18*72
$GPGSV,4,2,13,15,09,201,33,19,22,043,33,24,73,192,35,25,27,305,24*70
$GPGSV,4,3,13,29,22,239,27,32,08,307,22,40,,,31,41,,,37*70
$GPGSV,4,4,13,17,,,*7D
$GLGSV,2,1,07,73,12,324,19,82,75,001,27,80,63,357,27,79,44,119,37*6D
$GLGSV,2,2,07,83,39,217,29,81,25,029,33,78,04,133,*53
$BDGSV,2,1,05,205,45,137,28,202,28,116,,203,03,097,,208,08,039,*6F
$BDGSV,2,2,05,210,09,130,*65
$GPGGA,134423.0,3206.257936,N,03512.374489,E,1,08,0.8,640.4,M,19.0,M,,*5A
$GNGNS,134423.0,3206.257936,N,03512.374489,E,AA,13,0.8,640.4,19.0,,*64
$GPVTG,190.6,T,190.6,M,2.0,N,3.7,K,A*25
$GPGSA,A,2,02,06,12,15,19,24,25,29,,,,,1.1,0.8,0.8*32
$GNGSA,A,2,02,06,12,15,19,24,25,29,,,,,1.1,0.8,0.8*2C
$GNGSA,A,2,79,80,81,82,83,,,,,,,,1.1,0.8,0.8*23
$BDGSA,A,2,,,,,,,,,,,,,1.1,0.8,0.8*22
$GPRMC,134423.0,A,3206.257936,N,03512.374489,E,2.0,190.6,030516,0.0,E,A*00
$GPGSV,4,1,13,02,54,119,36,06,33,057,32,12,55,343,35,14,08,310,19*72
$GPGSV,4,2,13,15,08,201,35,19,21,043,25,24,72,191,35,25,28,305,20*7A
$GPGSV,4,3,13,29,22,239,24,32,08,307,21,40,,,33,41,,,37*72
$GPGSV,4,4,13,17,,,*7D
$GLGSV,2,1,07,73,12,324,19,82,75,001,28,80,63,357,26,79,44,119,35*61
$GLGSV,2,2,07,83,39,217,32,81,25,029,28,78,04,133,*53
$BDGSV,2,1,05,205,45,137,30,202,28,116,,203,03,097,,208,08,039,*66
$BDGSV,2,2,05,210,09,130,*65
$GPGGA,134424.0,3206.257337,N,03512.374367,E,1,08,0.8,640.9,M,19.0,M,,*5C
$GNGNS,134424.0,3206.257337,N,03512.374367,E,AA,13,0.8,640.9,19.0,,*62
$GPVTG,187.6,T,187.6,M,1.9,N,3.6,K,A*2E
$GPGSA,A,2,02,06,12,15,19,24,25,29,,,,,1.1,0.8,0.8*32
$GNGSA,A,2,02,06,12,15,19,24,25,29,,,,,1.1,0.8,0.8*2C
$GNGSA,A,2,79,80,81,82,83,,,,,,,,1.1,0.8,0.8*23
$BDGSA,A,2,,,,,,,,,,,,,1.1,0.8,0.8*22
$GPRMC,134424.0,A,3206.257337,N,03512.374367,E,1.9,187.6,030516,0.0,E,A*07
$GPGSV,4,1,13,02,54,119,39,06,33,057,30,12,55,343,34,14,08,310,19*7E
$GPGSV,4,2,13,15,08,201,36,19,21,043,28,24,72,191,37,25,28,305,22*74
$GPGSV,4,3,13,29,22,239,23,32,08,307,19,40,,,33,41,,,37*7E
$GPGSV,4,4,13,17,,,*7D
$GLGSV,2,1,07,73,12,324,20,82,75,001,29,80,63,357,22,79,44,119,33*68
$GLGSV,2,2,07,83,39,217,29,81,25,029,28,78,04,133,*59
$BDGSV,2,1,05,205,45,137,30,202,28,116,,203,03,097,,208,08,039,*66
$BDGSV,2,2,05,210,09,130,*65
$GPGGA,134425.0,3206.256931,N,03512.374156,E,1,08,0.8,641.5,M,19.0,M,,*5D
$GNGNS,134425.0,3206.256931,N,03512.374156,E,AA,13,0.8,641.5,19.0,,*63
$GPVTG,199.6,T,199.6,M,2.0,N,3.8,K,A*2A
$GPGSA,A,2,02,06,12,15,19,24,25,29,,,,,1.1,0.8,0.8*32
$GNGSA,A,2,02,06,12,15,19,24,25,29,,,,,1.1,0.8,0.8*2C
$GNGSA,A,2,79,80,81,82,83,,,,,,,,1.1,0.8,0.8*23
$BDGSA,A,2,,,,,,,,,,,,,1.1,0.8,0.8*22
$GPRMC,134425.0,A,3206.256931,N,03512.374156,E,2.0,199.6,030516,0.0,E,A*0E
$GPGSV,4,1,13,02,54,119,37,06,33,057,33,12,55,343,36,14,08,310,16*7E
$GPGSV,4,2,13,15,08,201,38,19,21,043,30,24,72,191,36,25,28,305,23*73
$GPGSV,4,3,13,29,22,239,29,32,08,307,23,40,,,34,41,,,37*7A
$GPGSV,4,4,13,17,,,*7D
$GLGSV,2,1,07,73,12,324,19,82,75,001,29,80,63,357,28,79,44,119,36*6D
$GLGSV,2,2,07,83,39,217,34,81,25,029,29,78,04,133,*54
$BDGSV,2,1,05,205,45,137,32,202,28,116,,203,03,097,,208,08,039,*64
$BDGSV,2,2,05,210,09,130,*65
$GPGGA,134426.0,3206.256394,N,03512.373959,E,1,08,0.8,641.9,M,19.0,M,,*57
$GNGNS,134426.0,3206.256394,N,03512.373959,E,AA,13,0.8,641.9,19.0,,*69
$GPVTG,192.0,T,192.0,M,1.9,N,3.4,K,A*2C
$GPGSA,A,2,02,06,12,15,19,24,25,29,,,,,1.1,0.8,0.8*32
$GNGSA,A,2,02,06,12,15,19,24,25,29,,,,,1.1,0.8,0.8*2C
$GNGSA,A,2,79,80,81,82,83,,,,,,,,1.1,0.8,0.8*23
$BDGSA,A,2,,,,,,,,,,,,,1.1,0.8,0.8*22
$GPRMC,134426.0,A,3206.256394,N,03512.373959,E,1.9,192.0,030516,0.0,E,A*0F
$GPGSV,4,1,13,02,54,119,42,06,33,057,37,12,55,343,38,14,08,310,21*72
$GPGSV,4,2,13,15,08,201,41,19,21,043,29,24,72,191,40,25,28,305,27*70
$GPGSV,4,3,13,29,22,239,33,32,08,307,24,40,,,37,41,,,37*75
$GPGSV,4,4,13,17,,,*7D
$GLGSV,2,1,07,73,12,324,17,82,75,001,31,80,63,357,29,79,44,119,37*6A
$GLGSV,2,2,07,83,39,217,38,81,25,029,29,78,04,133,*58
$BDGSV,2,1,05,205,45,137,34,202,28,116,,203,03,097,,208,08,039,*62
$BDGSV,2,2,05,210,09,130,*65
$GPGGA,134427.0,3206.255852,N,03512.373770,E,1,08,0.8,642.4,M,19.0,M,,*5F
$GNGNS,134427.0,3206.255852,N,03512.373770,E,AA,13,0.8,642.4,19.0,,*61
$GPVTG,196.0,T,196.0,M,1.9,N,3.5,K,A*2D
$GPGSA,A,2,02,06,12,15,19,24,25,29,,,,,1.1,0.8,0.8*32
$GNGSA,A,2,02,06,12,15,19,24,25,29,,,,,1.1,0.8,0.8*2C
$GNGSA,A,2,79,80,81,82,83,,,,,,,,1.1,0.8,0.8*23
$BDGSA,A,2,,,,,,,,,,,,,1.1,0.8,0.8*22
$GPRMC,134427.0,A,3206.255852,N,03512.373770,E,1.9,196.0,030516,0.0,E,A*0D
$GPGSV,4,1,13,02,54,119,39,06,33,057,36,12,55,343,40,14,08,310,20*71
$GPGSV,4,2,13,15,08,201,38,19,21,043,33,24,72,191,39,25,28,305,30*7D
$GPGSV,4,3,13,29,22,239,29,32,08,307,23,40,,,34,41,,,37*7A
$GPGSV,4,4,13,17,,,*7D
$GLGSV,2,1,07,73,12,324,18,82,75,001,30,80,63,357,27,79,44,119,37*6A
$GLGSV,2,2,07,83,39,217,34,81,25,029,28,78,04,133,*55
$BDGSV,2,1,05,205,45,137,32,202,28,116,,203,03,097,,208,08,039,*64
$BDGSV,2,2,05,210,09,130,*65
$GPGGA,134428.0,3206.255332,N,03512.373554,E,1,08,0.8,643.2,M,19.0,M,,*5E
$GNGNS,134428.0,3206.255332,N,03512.373554,E,AA,13,0.8,643.2,19.0,,*60
$GPVTG,186.7,T,186.7,M,1.7,N,3.1,K,A*27
$GPGSA,A,2,02,06,12,15,19,24,25,29,,,,,1.1,0.8,0.8*32
$GNGSA,A,2,02,06,12,15,19,24,25,29,,,,,1.1,0.8,0.8*2C
$GNGSA,A,2,79,80,81,82,83,,,,,,,,1.1,0.8,0.8*23
$BDGSA,A,2,,,,,,,,,,,,,1.1,0.8,0.8*22
$GPRMC,134428.0,A,3206.255332,N,03512.373554,E,1.7,186.7,030516,0.0,E,A*03
$GPGSV,4,1,13,02,54,119,39,06,33,057,37,12,55,343,39,14,08,310,22*7C
$GPGSV,4,2,13,15,08,201,38,19,21,043,37,24,72,191,40,25,28,305,30*77
$GPGSV,4,3,13,29,22,239,30,32,08,307,23,40,,,36,41,,,37*70
$GPGSV,4,4,13,17,,,*7D
$GLGSV,2,1,07,73,12,324,18,82,75,001,29,80,63,357,27,79,44,119,37*62
$GLGSV,2,2,07,83,39,217,30,81,25,029,27,78,04,133,*5E
$BDGSV,2,1,05,205,45,137,32,202,28,116,,203,03,097,,208,08,039,*64
$BDGSV,2,2,05,210,09,130,*65
$GPGGA,134429.0,3206.254869,N,03512.373701,E,1,08,0.8,643.5,M,19.0,M,,*5E
$GNGNS,134429.0,3206.254869,N,03512.373701,E,AA,13,0.8,643.5,19.0,,*60
$GPVTG,187.5,T,187.5,M,1.9,N,3.5,K,A*2D
$GPGSA,A,2,02,06,12,15,19,24,25,29,,,,,1.1,0.8,0.8*32
$GNGSA,A,2,02,06,12,15,19,24,25,29,,,,,1.1,0.8,0.8*2C
$GNGSA,A,2,79,80,81,82,83,,,,,,,,1.1,0.8,0.8*23
$BDGSA,A,2,,,,,,,,,,,,,1.1,0.8,0.8*22
$GPRMC,134429.0,A,3206.254869,N,03512.373701,E,1.9,187.5,030516,0.0,E,A*09
$GPGSV,4,1,13,02,54,119,40,06,33,057,40,12,55,343,39,14,08,310,22*72
$GPGSV,4,2,13,15,08,201,38,19,21,043,37,24,72,191,38,25,28,305,30*78
$GPGSV,4,3,13,29,22,239,33,32,08,307,25,40,,,35,41,,,37*76
$GPGSV,4,4,13,17,,,*7D
$GLGSV,2,1,07,73,12,324,22,82,75,001,31,80,63,357,28,79,44,119,34*6E
$GLGSV,2,2,07,83,39,217,30,81,25,029,28,78,04,133,*51
$BDGSV,2,1,05,205,45,137,32,210,09,130,17,202,28,116,,203,03,097,*62
$BDGSV,2,2,05,208,08,039,*65
$GPGGA,134430.0,3206.254332,N,03512.373706,E,1,08,0.8,643.2,M,19.0,M,,*53
$GNGNS,134430.0,3206.254332,N,03512.373706,E,AA,13,0.8,643.2,19.0,,*6D
$GPVTG,190.2,T,190.2,M,2.0,N,3.6,K,A*24
$GPGSA,A,2,02,06,12,15,19,24,25,29,,,,,1.1,0.8,0.8*32
$GNGSA,A,2,02,06,12,15,19,24,25,29,,,,,1.1,0.8,0.8*2C
$GNGSA,A,2,79,80,81,82,83,,,,,,,,1.1,0.8,0.8*23
$BDGSA,A,2,,,,,,,,,,,,,1.1,0.8,0.8*22
$GPRMC,134430.0,A,3206.254332,N,03512.373706,E,2.0,190.2,030516,0.0,E,A*08
$GPGSV,4,1,13,02,54,119,40,06,33,057,38,12,55,343,40,14,08,310,21*70
$GPGSV,4,2,13,15,08,201,39,19,21,043,37,24,72,191,40,25,28,305,28*7F
$GPGSV,4,3,13,29,22,239,33,32,08,307,23,40,,,34,41,,,37*71
$GPGSV,4,4,13,17,,,*7D
$GLGSV,2,1,07,73,12,324,21,82,75,001,30,80,63,357,29,79,44,119,34*6D
$GLGSV,2,2,07,83,39,217,32,81,25,029,29,78,04,133,*52
$BDGSV,2,1,05,205,45,137,31,210,09,130,19,202,28,116,,203,03,097,*6F
$BDGSV,2,2,05,208,08,039,*65
$GPGGA,134431.0,3206.253770,N,03512.373594,E,1,08,0.8,643.2,M,19.0,M,,*5E
$GNGNS,134431.0,3206.253770,N,03512.373594,E,AA,13,0.8,643.2,19.0,,*60
$GPVTG,193.6,T,193.6,M,2.1,N,3.9,K,A*2A
$GPGSA,A,2,02,06,12,15,19,24,25,29,,,,,1.1,0.8,0.8*32
$GNGSA,A,2,02,06,12,15,19,24,25,29,,,,,1.1,0.8,0.8*2C
$GNGSA,A,2,79,80,81,82,83,,,,,,,,1.1,0.8,0.8*23
$BDGSA,A,2,,,,,,,,,,,,,1.1,0.8,0.8*22
$GPRMC,134431.0,A,3206.253770,N,03512.373594,E,2.1,193.6,030516,0.0,E,A*03
$GPGSV,4,1,13,02,54,119,42,06,33,057,35,12,55,343,40,14,08,310,21*7F
$GPGSV,4,2,13,15,08,201,37,19,21,043,30,24,72,191,38,25,28,305,26*77
$GPGSV,4,3,13,29,22,239,35,32,08,307,23,40,,,36,41,,,37*75
$GPGSV,4,4,13,17,,,*7D
$GLGSV,2,1,07,73,12,324,19,82,75,001,30,80,63,357,27,79,44,119,35*69
$GLGSV,2,2,07,83,39,217,30,81,25,029,29,78,04,133,*50
$BDGSV,2,1,05,205,45,137,30,210,09,130,23,202,28,116,,203,03,097,*67
$BDGSV,2,2,05,208,08,039,*65
$GPGGA,134432.0,3206.253161,N,03512.373758,E,1,08,0.8,643.4,M,19.0,M,,*5F
$GNGNS,134432.0,3206.253161,N,03512.373758,E,AA,13,0.8,643.4,19.0,,*61
$GPVTG,174.7,T,174.7,M,2.1,N,3.9,K,A*2A
$GPGSA,A,2,02,06,12,15,19,24,25,29,,,,,1.1,0.8,0.8*32
$GNGSA,A,2,02,06,12,15,19,24,25,29,,,,,1.1,0.8,0.8*2C
$GNGSA,A,2,79,80,81,82,83,,,,,,,,1.1,0.8,0.8*23
$BDGSA,A,2,,,,,,,,,,,,,1.1,0.8,0.8*22
$GPRMC,134432.0,A,3206.253161,N,03512.373758,E,2.1,174.7,030516,0.0,E,A*0C
$GPGSV,4,1,13,02,54,119,42,06,33,057,32,12,55,343,42,14,08,310,21*7A
$GPGSV,4,2,13,15,08,201,34,19,21,043,33,24,72,191,41,25,28,305,29*76
$GPGSV,4,3,13,29,22,239,34,32,08,307,27,40,,,37,41,,,37*71
$GPGSV,4,4,13,17,,,*7D
$GLGSV,2,1,07,73,12,324,19,82,75,001,31,80,63,357,28,79,44,119,37*65
$GLGSV,2,2,07,83,39,217,30,81,25,029,29,78,04,133,*50
$BDGSV,2,1,05,205,45,137,32,210,09,130,19,202,28,116,,203,03,097,*6C
$BDGSV,2,2,05,208,08,039,*65
$GPGGA,134433.0,3206.252672,N,03512.373610,E,1,08,0.8,643.3,M,19.0,M,,*50
$GNGNS,134433.0,3206.252672,N,03512.373610,E,AA,13,0.8,643.3,19.0,,*6E
$GPVTG,166.2,T,166.2,M,1.8,N,3.4,K,A*2D
$GPGSA,A,2,02,06,12,15,19,24,25,29,,,,,1.1,0.8,0.8*32
$GNGSA,A,2,02,06,12,15,19,24,25,29,,,,,1.1,0.8,0.8*2C
$GNGSA,A,2,79,80,81,82,83,,,,,,,,1.1,0.8,0.8*23
$BDGSA,A,2,,,,,,,,,,,,,1.1,0.8,0.8*22
$GPRMC,134433.0,A,3206.252672,N,03512.373610,E,1.8,166.2,030516,0.0,E,A*08
$GPGSV,4,1,13,02,54,119,41,06,33,057,35,12,55,343,39,14,08,310,18*78
$GPGSV,4,2,13,15,08,201,35,19,21,043,33,24,72,191,40,25,28,305,30*7E
$GPGSV,4,3,13,29,22,239,31,32,08,307,23,40,,,37,41,,,37*70
$GPGSV,4,4,13,17,,,*7D
$GLGSV,2,1,07,73,12,324,19,82,75,001,32,80,63,357,29,79,44,119,35*65
$GLGSV,2,2,07,83,39,217,32,81,25,029,29,78,04,133,*52
$BDGSV,2,1,05,205,45,137,33,210,09,130,18,202,28,116,,203,03,097,*6C
$BDGSV,2,2,05,208,08,039,*65
$GPGGA,134434.0,3206.252152,N,03512.373595,E,1,08,0.8,643.5,M,19.0,M,,*5A
$GNGNS,134434.0,3206.252152,N,03512.373595,E,AA,13,0.8,643.5,19.0,,*64
$GPVTG,189.0,T,189.0,M,1.8,N,3.4,K,A*2D
$GPGSA,A,2,02,06,12,15,19,24,25,29,,,,,1.1,0.8,0.8*32
$GNGSA,A,2,02,06,12,15,19,24,25,29,,,,,1.1,0.8,0.8*2C
$GNGSA,A,2,79,80,81,82,83,,,,,,,,1.1,0.8,0.8*23
$BDGSA,A,2,,,,,,,,,,,,,1.1,0.8,0.8*22
$GPRMC,134434.0,A,3206.252152,N,03512.373595,E,1.8,189.0,030516,0.0,E,A*07
$GPGSV,4,1,13,02,54,119,41,06,33,057,34,12,55,343,40,14,08,310,23*7F
$GPGSV,4,2,13,15,08,201,36,19,21,043,32,24,72,191,39,25,28,305,28*7B
$GPGSV,4,3,13,29,22,239,35,32,08,307,25,40,,,37,41,,,37*72
$GPGSV,4,4,13,17,,,*7D
$GLGSV,2,1,07,73,12,324,19,82,75,001,32,80,63,357,31,79,44,119,37*6E
$GLGSV,2,2,07,83,39,217,34,81,25,029,30,78,04,133,*5C
$BDGSV,2,1,05,205,45,137,32,210,09,130,18,202,28,116,,203,03,097,*6D
$BDGSV,2,2,05,208,08,039,*65
$GPGGA,134435.0,3206.251729,N,03512.373491,E,1,08,0.8,643.2,M,19.0,M,,*50
$GNGNS,134435.0,3206.251729,N,03512.373491,E,AA,13,0.8,643.2,19.0,,*6E
$GPVTG,182.6,T,182.6,M,1.8,N,3.4,K,A*2D
$GPGSA,A,2,02,06,12,15,19,24,25,29,,,,,1.1,0.8,0.8*32
$GNGSA,A,2,02,06,12,15,19,24,25,29,,,,,1.1,0.8,0.8*2C
$GNGSA,A,2,79,80,81,82,83,,,,,,,,1.1,0.8,0.8*23
$BDGSA,A,2,,,,,,,,,,,,,1.1,0.8,0.8*22
$GPRMC,134435.0,A,3206.251729,N,03512.373491,E,1.8,182.6,030516,0.0,E,A*07
$GPGSV,4,1,13,02,54,119,41,06,33,057,35,12,55,343,40,14,08,310,27*7A
$GPGSV,4,2,13,15,08,201,34,19,21,043,34,24,72,191,39,25,28,305,34*72
$GPGSV,4,3,13,29,22,239,36,32,08,307,29,40,,,38,41,,,37*72
$GPGSV,4,4,13,17,,,*7D
$GLGSV,2,1,07,73,12,324,22,82,75,001,31,80,63,357,28,79,44,119,34*6E
$GLGSV,2,2,07,83,39,217,29,81,25,029,28,78,04,133,*59
$BDGSV,2,1,05,205,45,137,32,210,09,130,15,202,28,116,,203,03,097,*60
$BDGSV,2,2,05,208,08,039,*65
$GPGGA,134436.0,3206.251252,N,03512.373397,E,1,08,0.8,643.4,M,19.0,M,,*5D
$GNGNS,134436.0,3206.251252,N,03512.373397,E,AA,13,0.8,643.4,19.0,,*63
$GPVTG,183.3,T,183.3,M,1.8,N,3.4,K,A*2D
$GPGSA,A,2,02,06,12,15,19,24,25,29,,,,,1.1,0.8,0.8*32
$GNGSA,A,2,02,06,12,15,19,24,25,29,,,,,1.1,0.8,0.8*2C
$GNGSA,A,2,79,80,81,82,83,,,,,,,,1.1,0.8,0.8*23
$BDGSA,A,2,,,,,,,,,,,,,1.1,0.8,0.8*22
$GPRMC,134436.0,A,3206.251252,N,03512.373397,E,1.8,183.3,030516,0.0,E,A*08
$GPGSV,4,1,13,02,54,119,41,06,33,057,36,12,55,343,40,14,08,310,24*7A
$GPGSV,4,2,13,15,08,201,38,19,21,043,32,24,72,191,39,25,28,305,30*7C
$GPGSV,4,3,13,29,22,239,36,32,08,307,28,40,,,37,41,,,37*7C
$GPGSV,4,4,13,17,,,*7D
$GLGSV,2,1,07,73,12,324,18,82,75,001,31,80,63,357,29,79,44,119,32*60
$GLGSV,2,2,07,83,39,217,30,81,25,029,31,78,04,133,*59
$BDGSV,2,1,05,205,45,137,31,210,09,130,15,202,28,116,,203,03,097,*63
$BDGSV,2,2,05,208,08,039,*65
$GPGGA,134437.0,3206.250424,N,03512.373379,E,1,08,0.8,643.7,M,19.0,M,,*59
$GNGNS,134437.0,3206.250424,N,03512.373379,E,AA,13,0.8,643.7,19.0,,*67
$GPVTG,173.5,T,173.5,M,2.4,N,4.4,K,A*25
$GPGSA,A,2,02,06,12,15,19,24,25,29,,,,,1.1,0.8,0.8*32
$GNGSA,A,2,02,06,12,15,19,24,25,29,,,,,1.1,0.8,0.8*2C
$GNGSA,A,2,79,80,81,82,83,,,,,,,,1.1,0.8,0.8*23
$BDGSA,A,2,,,,,,,,,,,,,1.1,0.8,0.8*22
$GPRMC,134437.0,A,3206.250424,N,03512.373379,E,2.4,173.5,030516,0.0,E,A*09
$GPGSV,4,1,13,02,54,119,39,06,33,057,42,12,55,343,38,14,08,310,24*79
$GPGSV,4,2,13,15,08,201,37,19,21,043,36,24,72,191,42,25,28,305,30*7B
$GPGSV,4,3,13,29,22,239,33,32,08,306,26,40,,,37,41,,,37*76
$GPGSV,4,4,13,17,,,*7D
$GLGSV,2,1,07,73,12,324,19,82,75,001,29,80,63,357,26,79,44,119,36*63
$GLGSV,2,2,07,83,39,217,27,81,25,029,31,78,04,133,*5F
$BDGSV,2,1,05,205,45,137,33,210,09,130,15,202,28,116,,203,03,097,*61
$BDGSV,2,2,05,208,08,039,*65
$GPGGA,134438.0,3206.249944,N,03512.373687,E,1,08,0.8,644.0,M,19.0,M,,*51
$GNGNS,134438.0,3206.249944,N,03512.373687,E,AA,13,0.8,644.0,19.0,,*6F
$GPVTG,169.1,T,169.1,M,2.1,N,4.0,K,A*24
$GPGSA,A,2,02,06,12,15,19,24,25,29,,,,,1.1,0.8,0.8*32
$GNGSA,A,2,02,06,12,15,19,24,25,29,,,,,1.1,0.8,0.8*2C
$GNGSA,A,2,79,80,81,82,83,,,,,,,,1.1,0.8,0.8*23
$BDGSA,A,2,,,,,,,,,,,,,1.1,0.8,0.8*22
$GPRMC,134438.0,A,3206.249944,N,03512.373687,E,2.1,169.1,030516,0.0,E,A*0B
$GPGSV,4,1,13,02,54,119,40,06,33,057,37,12,55,343,42,14,08,310,24*78
$GPGSV,4,2,13,15,08,201,36,19,21,043,36,24,72,191,37,25,28,305,35*7D
$GPGSV,4,3,13,29,22,239,31,32,08,306,29,40,,,38,41,,,37*74
$GPGSV,4,4,13,17,,,*7D
$GLGSV,2,1,07,73,12,324,23,82,75,001,33,80,63,357,29,79,44,119,32*6A
$GLGSV,2,2,07,83,39,217,28,81,25,029,28,78,04,133,*58
$BDGSV,2,1,05,205,45,137,32,210,09,130,15,202,28,116,,203,03,097,*60
$BDGSV,2,2,05,208,08,039,*65
$GPGGA,134439.0,3206.249317,N,03512.373812,E,1,08,0.8,644.4,M,19.0,M,,*5A
$GNGNS,134439.0,3206.249317,N,03512.373812,E,AA,13,0.8,644.4,19.0,,*64
$GPVTG,175.0,T,175.0,M,2.0,N,3.7,K,A*25
$GPGSA,A,2,02,06,12,15,19,24,25,29,,,,,1.1,0.8,0.8*32
$GNGSA,A,2,02,06,12,15,19,24,25,29,,,,,1.1,0.8,0.8*2C
$GNGSA,A,2,79,80,81,82,83,,,,,,,,1.1,0.8,0.8*23
$BDGSA,A,2,,,,,,,,,,,,,1.1,0.8,0.8*22
$GPRMC,134439.0,A,3206.249317,N,03512.373812,E,2.0,175.0,030516,0.0,E,A*09
$GPGSV,4,1,13,02,54,119,40,06,33,057,35,12,55,343,42,14,08,310,25*7B
$GPGSV,4,2,13,15,08,201,36,19,21,043,36,24,72,191,38,25,28,305,34*73
$GPGSV,4,3,13,29,22,239,32,32,08,306,29,40,,,34,41,,,37*7B
$GPGSV,4,4,13,17,,,*7D
$GLGSV,2,1,07,73,12,324,20,82,75,001,37,80,63,357,33,79,44,119,33*67
$GLGSV,2,2,07,83,39,217,35,81,25,029,34,78,04,133,*59
$BDGSV,2,1,05,205,45,137,30,210,09,130,15,202,28,116,,203,03,097,*62
$BDGSV,2,2,05,208,08,039,*65
$GPGGA,134440.0,3206.248761,N,03512.373625,E,1,08,0.8,645.0,M,19.0,M,,*5F
$GNGNS,134440.0,3206.248761,N,03512.373625,E,AA,13,0.8,645.0,19.0,,*61
$GPVTG,174.2,T,174.2,M,2.1,N,4.0,K,A*24
$GPGSA,A,2,02,06,12,15,19,24,25,29,,,,,1.1,0.8,0.8*32
$GNGSA,A,2,02,06,12,15,19,24,25,29,,,,,1.1,0.8,0.8*2C
$GNGSA,A,2,79,80,81,82,83,,,,,,,,1.1,0.8,0.8*23
$BDGSA,A,2,,,,,,,,,,,,,1.1,0.8,0.8*22
$GPRMC,134440.0,A,3206.248761,N,03512.373625,E,2.1,174.2,030516,0.0,E,A*0B
$GPGSV,4,1,13,02,54,119,39,06,33,057,41,12,55,343,42,14,08,310,23*70
$GPGSV,4,2,13,15,08,201,34,19,21,043,40,24,72,191,39,25,28,305,33*76
$GPGSV,4,3,13,29,22,239,30,32,08,306,28,40,,,37,41,,,37*7B
$GPGSV,4,4,13,17,,,*7D
$GLGSV,2,1,07,73,12,324,22,82,75,001,34,80,63,357,31,79,44,119,32*65
$GLGSV,2,2,07,83,39,217,35,81,25,029,30,78,04,133,*5D
$BDGSV,2,1,05,205,45,137,32,210,09,130,13,202,28,116,,203,03,097,*66
$BDGSV,2,2,05,208,08,039,*65
$GPGGA,134441.0,3206.247892,N,03512.373527,E,1,08,0.8,646.0,M,19.0,M,,*50
$GNGNS,134441.0,3206.247892,N,03512.373527,E,AA,13,0.8,646.0,19.0,,*6E
$GPVTG,172.6,T,172.6,M,2.5,N,4.7,K,A*27
$GPGSA,A,2,02,06,12,15,19,24,25,29,,,,,1.1,0.8,0.8*32
$GNGSA,A,2,02,06,12,15,19,24,25,29,,,,,1.1,0.8,0.8*2C
$GNGSA,A,2,79,80,81,82,83,,,,,,,,1.1,0.8,0.8*23
$BDGSA,A,2,,,,,,,,,,,,,1.1,0.8,0.8*22
$GPRMC,134441.0,A,3206.247892,N,03512.373527,E,2.5,172.6,030516,0.0,E,A*01
$GPGSV,4,1,13,02,54,119,39,06,33,057,43,12,55,343,43,14,08,310,30*71
$GPGSV,4,2,13,15,08,201,33,19,21,043,41,24,72,191,38,25,28,305,38*7A
$GPGSV,4,3,13,29,22,239,31,32,08,306,34,40,,,36,41,,,37*76
$GPGSV,4,4,13,17,,,*7D
$GLGSV,2,1,07,73,12,324,28,82,75,001,34,80,63,357,32,79,44,119,31*6F
$GLGSV,2,2,07,83,39,217,35,81,25,029,28,78,04,133,*54
$BDGSV,2,1,05,205,45,137,31,210,09,130,13,202,28,116,,203,03,097,*65
$BDGSV,2,2,05,208,08,039,*65
$GPGGA,134442.0,3206.247168,N,03512.373456,E,1,08,0.8,646.1,M,19.0,M,,*59
$GNGNS,134442.0,3206.247168,N,03512.373456,E,AA,13,0.8,646.1,19.0,,*67
$GPVTG,176.1,T,176.1,M,2.0,N,3.7,K,A*25
$GPGSA,A,2,02,06,12,15,19,24,25,29,,,,,1.1,0.8,0.8*32
$GNGSA,A,2,02,06,12,15,19,24,25,29,,,,,1.1,0.8,0.8*2C
$GNGSA,A,2,79,80,81,82,83,,,,,,,,1.1,0.8,0.8*23
$BDGSA,A,2,,,,,,,,,,,,,1.1,0.8,0.8*22
$GPRMC,134442.0,A,3206.247168,N,03512.373456,E,2.0,176.1,030516,0.0,E,A*0F
$GPGSV,4,1,13,02,54,119,40,06,33,057,36,12,55,343,42,14,08,310,30*7C
$GPGSV,4,2,13,15,08,201,37,19,21,043,33,24,72,191,37,25,28,305,34*78
$GPGSV,4,3,13,29,22,239,35,32,08,306,29,40,,,36,41,,,37*7E
$GPGSV,4,4,13,17,,,*7D
$GLGSV,2,1,07,73,12,324,30,82,75,001,37,80,63,357,33,79,44,119,34*61
$GLGSV,2,2,07,83,39,217,39,81,25,029,31,78,04,133,*50
$BDGSV,2,1,05,205,45,137,28,210,09,130,13,202,28,116,,203,03,097,*6D
$BDGSV,2,2,05,208,08,039,*65
$GPGGA,134443.0,3206.246765,N,03512.373071,E,1,08,0.8,646.8,M,19.0,M,,*5A
$GNGNS,134443.0,3206.246765,N,03512.373071,E,AA,13,0.8,646.8,19.0,,*64
$GPVTG,196.5,T,196.5,M,1.9,N,3.5,K,A*2D
$GPGSA,A,2,02,06,12,15,19,24,25,29,,,,,1.1,0.8,0.8*32
$GNGSA,A,2,02,06,12,15,19,24,25,29,,,,,1.1,0.8,0.8*2C
$GNGSA,A,2,79,80,81,82,83,,,,,,,,1.1,0.8,0.8*23
$BDGSA,A,2,,,,,,,,,,,,,1.1,0.8,0.8*22
$GPRMC,134443.0,A,3206.246765,N,03512.373071,E,1.9,196.5,030516,0.0,E,A*05
$GPGSV,4,1,13,02,54,119,39,06,33,057,34,12,55,343,41,14,08,310,30*73
$GPGSV,4,2,13,15,08,201,35,19,21,043,29,24,72,191,39,25,28,305,34*7F
$GPGSV,4,3,13,29,22,239,36,32,08,306,32,40,,,36,41,,,37*77
$GPGSV,4,4,13,17,,,*7D
$GLGSV,2,1,07,73,12,324,30,82,75,001,38,80,63,357,33,79,44,119,38*62
$GLGSV,2,2,07,83,39,217,35,81,25,029,33,78,04,133,*5E
$BDGSV,2,1,05,205,45,137,30,210,09,130,13,202,28,116,,203,03,097,*64
$BDGSV,2,2,05,208,08,039,*65
$GPGGA,134444.0,3206.246250,N,03512.372784,E,1,08,0.8,646.8,M,19.0,M,,*52
$GNGNS,134444.0,3206.246250,N,03512.372784,E,AA,13,0.8,646.8,19.0,,*6C
$GPVTG,192.6,T,192.6,M,2.0,N,3.6,K,A*24
$GPGSA,A,2,02,06,12,15,19,24,25,29,,,,,1.1,0.8,0.8*32
$GNGSA,A,2,02,06,12,15,19,24,25,29,,,,,1.1,0.8,0.8*2C
$GNGSA,A,2,79,80,81,82,83,,,,,,,,1.1,0.8,0.8*23
$BDGSA,A,2,,,,,,,,,,,,,1.1,0.8,0.8*22
$GPRMC,134444.0,A,3206.246250,N,03512.372784,E,2.0,192.6,030516,0.0,E,A*00
$GPGSV,4,1,14,02,54,119,41,06,33,057,35,12,55,343,42,14,08,310,29*71
$GPGSV,4,2,14,15,08,201,35,19,21,043,31,24,72,191,37,25,28,305,35*7E
$GPGSV,4,3,14,29,22,239,40,32,08,306,29,33,,,32,40,,,35*78
$GPGSV,4,4,14,41,,,37,17,,,*7B
$GLGSV,2,1,07,73,12,324,28,82,75,001,39,80,63,357,34,79,44,119,40*62
$GLGSV,2,2,07,83,39,217,38,81,25,029,34,78,04,133,*54
$BDGSV,2,1,05,205,45,137,31,210,09,130,14,202,28,116,,203,03,097,*62
$BDGSV,2,2,05,208,08,039,*65
$GPGGA,134445.0,3206.245702,N,03512.372363,E,1,07,1.0,646.8,M,19.0,M,,*59
$GNGNS,134445.0,3206.245702,N,03512.372363,E,AA,12,1.0,646.8,19.0,,*69
$GPVTG,199.9,T,199.9,M,2.0,N,3.8,K,A*2A
$GPGSA,A,2,02,06,12,15,19,24,29,,,,,,1.2,1.0,0.8*3F
$GNGSA,A,2,02,06,12,15,19,24,29,,,,,,1.2,1.0,0.8*21
$GNGSA,A,2,79,80,81,82,83,,,,,,,,1.2,1.0,0.8*29
$BDGSA,A,2,,,,,,,,,,,,,1.2,1.0,0.8*28
$GPRMC,134445.0,A,3206.245702,N,03512.372363,E,2.0,199.9,030516,0.0,E,A*09
$GPGSV,4,1,14,02,54,119,41,06,33,057,34,12,55,343,41,14,08,310,27*7D
$GPGSV,4,2,14,15,08,201,36,19,21,043,34,24,72,191,38,25,28,305,32*70
$GPGSV,4,3,14,29,22,239,37,32,08,306,28,33,,,33,40,,,37*7A
$GPGSV,4,4,14,41,,,37,17,,,*7B
$GLGSV,2,1,07,73,12,324,28,82,75,001,38,80,63,357,35,79,44,119,38*6D
$GLGSV,2,2,07,83,39,217,38,81,25,029,35,78,04,133,*55
$BDGSV,2,1,05,205,45,137,33,210,09,130,14,202,28,116,,203,03,097,*60
$BDGSV,2,2,05,208,08,039,*65
$GPGGA,134446.0,3206.245113,N,03512.371959,E,1,07,1.0,647.0,M,19.0,M,,*55
$GNGNS,134446.0,3206.245113,N,03512.371959,E,AA,12,1.0,647.0,19.0,,*65
$GPVTG,196.0,T,196.0,M,1.9,N,3.5,K,A*2D
$GPGSA,A,2,02,06,12,15,19,24,29,,,,,,1.2,1.0,0.8*3F
$GNGSA,A,2,02,06,12,15,19,24,29,,,,,,1.2,1.0,0.8*21
$GNGSA,A,2,79,80,81,82,83,,,,,,,,1.2,1.0,0.8*29
$BDGSA,A,2,,,,,,,,,,,,,1.2,1.0,0.8*28
$GPRMC,134446.0,A,3206.245113,N,03512.371959,E,1.9,196.0,030516,0.0,E,A*00
$GPGSV,4,1,14,02,54,119,39,06,33,057,35,12,55,343,40,14,08,310,26*73
$GPGSV,4,2,14,15,08,201,34,19,21,043,36,24,72,191,40,25,28,305,31*7C
$GPGSV,4,3,14,29,22,239,36,32,08,306,28,33,,,33,40,,,37*7B
$GPGSV,4,4,14,41,,,37,17,,,*7B
$GLGSV,2,1,07,73,12,324,29,82,75,001,39,80,63,357,34,79,44,119,38*6C
$GLGSV,2,2,07,83,39,217,39,81,25,029,37,78,04,133,*56
$BDGSV,2,1,05,205,45,137,33,210,09,130,14,202,28,116,,203,03,097,*60
$BDGSV,2,2,05,208,08,039,*65
$GPGGA,134447.0,3206.244485,N,03512.371845,E,1,07,1.0,647.3,M,19.0,M,,*50
$GNGNS,134447.0,3206.244485,N,03512.371845,E,AA,12,1.0,647.3,19.0,,*60
$GPVTG,182.1,T,182.1,M,2.1,N,3.9,K,A*2A
$GPGSA,A,2,02,06,12,15,19,24,29,,,,,,1.2,1.0,0.8*3F
$GNGSA,A,2,02,06,12,15,19,24,29,,,,,,1.2,1.0,0.8*21
$GNGSA,A,2,79,80,81,82,83,,,,,,,,1.2,1.0,0.8*29
$BDGSA,A,2,,,,,,,,,,,,,1.2,1.0,0.8*28
$GPRMC,134447.0,A,3206.244485,N,03512.371845,E,2.1,182.1,030516,0.0,E,A*09
$GPGSV,4,1,14,02,54,119,41,06,33,057,39,12,55,343,40,14,08,310,26*70
$GPGSV,4,2,14,15,08,201,31,19,21,043,36,24,72,191,40,25,28,305,31*79
$GPGSV,4,3,14,29,22,239,33,32,08,306,28,33,,,29,40,,,37*75
$GPGSV,4,4,14,41,,,37,17,,,*7B
$GLGSV,2,1,07,73,12,324,34,82,75,001,38,80,63,357,32,79,44,119,35*6A
$GLGSV,2,2,07,83,39,217,36,81,25,029,32,78,04,133,*5C
$BDGSV,2,1,05,205,45,137,32,210,09,130,14,202,28,116,,203,03,097,*61
$BDGSV,2,2,05,208,08,039,*65
$GPGGA,134448.0,3206.243842,N,03512.372086,E,1,07,1.0,647.1,M,19.0,M,,*59
$GNGNS,134448.0,3206.243842,N,03512.372086,E,AA,12,1.0,647.1,19.0,,*69
$GPVTG,161.1,T,161.1,M,2.4,N,4.5,K,A*24
$GPGSA,A,2,02,06,12,15,19,24,29,,,,,,1.2,1.0,0.8*3F
$GNGSA,A,2,02,06,12,15,19,24,29,,,,,,1.2,1.0,0.8*21
$GNGSA,A,2,79,80,81,82,83,,,,,,,,1.2,1.0,0.8*29
$BDGSA,A,2,,,,,,,,,,,,,1.2,1.0,0.8*28
$GPRMC,134448.0,A,3206.243842,N,03512.372086,E,2.4,161.1,030516,0.0,E,A*0A
$GPGSV,4,1,14,02,54,119,41,06,33,057,41,12,55,343,34,14,08,310,25*7F
$GPGSV,4,2,14,15,08,201,31,19,21,043,39,24,72,191,37,25,28,305,32*75
$GPGSV,4,3,14,29,22,239,31,32,08,306,27,33,,,29,40,,,38*77
$GPGSV,4,4,14,41,,,37,17,,,*7B
$GLGSV,2,1,07,73,12,324,29,82,75,001,37,80,63,357,30,79,44,119,34*6A
$GLGSV,2,2,07,83,39,217,37,81,25,029,33,78,04,133,*5C
$BDGSV,2,1,05,205,45,137,30,210,09,130,14,202,28,116,,203,03,097,*63
$BDGSV,2,2,05,208,08,039,*65
$GPGGA,134449.0,3206.243548,N,03512.371857,E,1,07,1.0,647.0,M,19.0,M,,*59
$GNGNS,134449.0,3206.243548,N,03512.371857,E,AA,12,1.0,647.0,19.0,,*69
$GPVTG,183.7,T,183.7,M,2.0,N,3.8,K,A*2A
$GPGSA,A,2,02,06,12,15,19,24,29,,,,,,1.2,1.0,0.8*3F
$GNGSA,A,2,02,06,12,15,19,24,29,,,,,,1.2,1.0,0.8*21
$GNGSA,A,2,79,80,81,82,83,,,,,,,,1.2,1.0,0.8*29
$BDGSA,A,2,,,,,,,,,,,,,1.2,1.0,0.8*28
$GPRMC,134449.0,A,3206.243548,N,03512.371857,E,2.0,183.7,030516,0.0,E,A*05
$GPGSV,4,1,13,02,54,119,34,06,33,057,41,12,55,343,38,14,08,310,34*76
$GPGSV,4,2,13,15,08,201,29,19,21,043,39,24,72,191,36,25,28,305,35*7D
$GPGSV,4,3,13,29,22,239,32,32,08,306,32,33,,,29,40,,,38*77
$GPGSV,4,4,13,17,,,*7D
$GLGSV,2,1,07,73,12,324,32,82,75,001,36,80,63,357,33,79,44,119,36*60
$GLGSV,2,2,07,83,39,217,33,81,25,029,40,78,04,133,*5C
$BDGSV,2,1,05,205,45,137,28,210,09,130,14,202,28,116,,203,03,097,*6A
$BDGSV,2,2,05,208,08,039,*65
$GPGGA,134450.0,3206.243052,N,03512.371734,E,1,07,1.0,647.0,M,19.0,M,,*55
$GNGNS,134450.0,3206.243052,N,03512.371734,E,AA,12,1.0,647.0,19.0,,*65
$GPVTG,179.5,T,179.5,M,1.8,N,3.3,K,A*2A
$GPGSA,A,2,02,06,12,15,19,24,29,,,,,,1.2,1.0,0.8*3F
$GNGSA,A,2,02,06,12,15,19,24,29,,,,,,1.2,1.0,0.8*21
$GNGSA,A,2,79,80,81,82,83,,,,,,,,1.2,1.0,0.8*29
$BDGSA,A,2,,,,,,,,,,,,,1.2,1.0,0.8*28
$GPRMC,134450.0,A,3206.243052,N,03512.371734,E,1.8,179.5,030516,0.0,E,A*05
$GPGSV,4,1,13,02,54,119,31,06,33,057,42,12,55,343,36,14,08,310,34*7E
$GPGSV,4,2,13,15,08,201,28,19,21,043,41,24,72,191,36,25,28,305,37*71
$GPGSV,4,3,13,29,22,239,35,32,08,306,32,33,,,29,40,,,33*7B
$GPGSV,4,4,13,17,,,*7D
$GLGSV,2,1,07,73,12,324,38,82,75,001,35,80,63,357,33,79,44,119,32*6D
$GLGSV,2,2,07,83,39,217,29,81,25,029,36,78,04,133,*56
$BDGSV,2,1,05,205,45,137,28,210,09,130,14,202,28,116,,203,03,097,*6A
$BDGSV,2,2,05,208,08,039,*65
$GPGGA,134451.0,3206.242809,N,03512.371357,E,1,07,1.0,646.7,M,19.0,M,,*54
$GNGNS,134451.0,3206.242809,N,03512.371357,E,AA,12,1.0,646.7,19.0,,*64
$GPVTG,213.9,T,213.9,M,1.7,N,3.1,K,A*27
$GPGSA,A,2,02,06,12,15,19,24,29,,,,,,1.2,1.0,0.8*3F
$GNGSA,A,2,02,06,12,15,19,24,29,,,,,,1.2,1.0,0.8*21
$GNGSA,A,2,79,80,81,82,83,,,,,,,,1.2,1.0,0.8*29
$BDGSA,A,2,,,,,,,,,,,,,1.2,1.0,0.8*28
$GPRMC,134451.0,A,3206.242809,N,03512.371357,E,1.7,213.9,030516,0.0,E,A*0E
$GPGSV,4,1,13,02,54,119,41,06,33,057,35,12,55,343,39,14,08,310,27*74
$GPGSV,4,2,13,15,08,201,28,19,21,043,35,24,72,191,33,25,28,305,32*72
$GPGSV,4,3,13,29,22,239,34,32,08,306,26,33,,,29,40,,,37*7B
$GPGSV,4,4,13,17,,,*7D
$GLGSV,2,1,07,73,12,324,34,82,75,001,31,80,63,357,29,79,44,119,39*65
$GLGSV,2,2,07,83,39,217,37,81,25,029,31,78,04,133,*5E
$BDGSV,2,1,05,205,45,137,33,210,09,130,14,202,28,116,,203,03,097,*60
$BDGSV,2,2,05,208,08,039,*65
$GPGGA,134452.0,3206.242471,N,03512.370582,E,1,07,1.0,646.9,M,19.0,M,,*55
$GNGNS,134452.0,3206.242471,N,03512.370582,E,AA,12,1.0,646.9,19.0,,*65
$GPVTG,246.2,T,246.2,M,1.8,N,3.4,K,A*2D
$GPGSA,A,2,02,06,12,15,19,24,29,,,,,,1.2,1.0,0.8*3F
$GNGSA,A,2,02,06,12,15,19,24,29,,,,,,1.2,1.0,0.8*21
$GNGSA,A,2,79,80,81,82,83,,,,,,,,1.2,1.0,0.8*29
$BDGSA,A,2,,,,,,,,,,,,,1.2,1.0,0.8*28
$GPRMC,134452.0,A,3206.242471,N,03512.370582,E,1.8,246.2,030516,0.0,E,A*05
$GPGSV,4,1,13,02,54,119,37,06,33,057,32,12,55,343,30,14,08,310,28*74
$GPGSV,4,2,13,15,08,201,29,19,21,043,30,24,72,191,35,25,28,305,29*7A
$GPGSV,4,3,13,29,22,239,31,32,08,306,29,33,,,29,40,,,38*7E
$GPGSV,4,4,13,17,,,*7D
$GLGSV,2,1,07,73,12,324,29,82,75,001,31,80,63,357,26,79,44,119,34*6B
$GLGSV,2,2,07,83,39,217,35,81,25,029,30,78,04,133,*5D
$BDGSV,2,1,05,205,45,137,34,202,28,116,,203,03,097,,208,08,039,*62
$BDGSV,2,2,05,210,09,130,*65
$GPGGA,134453.0,3206.242541,N,03512.369862,E,1,08,0.8,646.8,M,19.0,M,,*5A
$GNGNS,134453.0,3206.242541,N,03512.369862,E,AA,13,0.8,646.8,19.0,,*64
$GPVTG,279.3,T,279.3,M,1.6,N,2.9,K,A*2F
$GPGSA,A,2,02,06,12,15,19,24,25,29,,,,,1.1,0.8,0.8*32
$GNGSA,A,2,02,06,12,15,19,24,25,29,,,,,1.1,0.8,0.8*2C
$GNGSA,A,2,79,80,81,82,83,,,,,,,,1.1,0.8,0.8*23
$BDGSA,A,2,,,,,,,,,,,,,1.1,0.8,0.8*22
$GPRMC,134453.0,A,3206.242541,N,03512.369862,E,1.6,279.3,030516,0.0,E,A*0E
$GPGSV,4,1,13,02,54,119,38,06,33,057,36,12,55,343,36,14,08,310,27*76
$GPGSV,4,2,13,15,08,201,31,19,21,043,33,24,72,191,38,25,28,305,27*73
$GPGSV,4,3,13,29,22,239,36,32,08,306,30,33,,,34,40,,,37*72
$GPGSV,4,4,13,17,,,*7D
$GLGSV,2,1,07,73,12,324,30,82,75,001,32,80,63,357,29,79,44,119,37*6C
$GLGSV,2,2,07,83,39,217,36,81,25,029,30,78,04,133,*5E
$BDGSV,2,1,05,205,45,137,33,202,28,116,,203,03,097,,208,08,039,*65
$BDGSV,2,2,05,210,09,130,*65
$GPGGA,134454.0,3206.242686,N,03512.369253,E,1,08,0.8,646.5,M,19.0,M,,*50
$GNGNS,134454.0,3206.242686,N,03512.369253,E,AA,13,0.8,646.5,19.0,,*6E
$GPVTG,284.6,T,284.6,M,1.7,N,3.1,K,A*27
$GPGSA,A,2,02,06,12,15,19,24,25,29,,,,,1.1,0.8,0.8*32
$GNGSA,A,2,02,06,12,15,19,24,25,29,,,,,1.1,0.8,0.8*2C
$GNGSA,A,2,79,80,81,82,83,,,,,,,,1.1,0.8,0.8*23
$BDGSA,A,2,,,,,,,,,,,,,1.1,0.8,0.8*22
$GPRMC,134454.0,A,3206.242686,N,03512.369253,E,1.7,284.6,030516,0.0,E,A*0F
$GPGSV,4,1,13,02,54,119,38,06,33,057,33,12,55,343,33,14,08,310,30*70
$GPGSV,4,2,13,15,08,201,26,19,21,043,33,24,72,191,39,25,28,305,30*72
$GPGSV,4,3,13,29,22,239,39,32,08,306,30,33,,,31,40,,,39*76
$GPGSV,4,4,13,17,,,*7D
$GLGSV,2,1,07,73,12,324,30,82,75,001,34,80,63,357,28,79,44,119,35*69
$GLGSV,2,2,07,83,39,217,40,81,25,029,36,78,04,133,*59
$BDGSV,2,1,05,205,45,137,35,202,28,116,,203,03,097,,208,08,039,*63
$BDGSV,2,2,05,210,09,130,*65
$GPGGA,134455.0,3206.242495,N,03512.368644,E,1,08,0.8,646.1,M,19.0,M,,*56
$GNGNS,134455.0,3206.242495,N,03512.368644,E,AA,13,0.8,646.1,19.0,,*68
$GPVTG,284.6,T,284.6,M,1.2,N,2.3,K,A*21
$GPGSA,A,2,02,06,12,15,19,24,25,29,,,,,1.1,0.8,0.8*32
$GNGSA,A,2,02,06,12,15,19,24,25,29,,,,,1.1,0.8,0.8*2C
$GNGSA,A,2,79,80,81,82,83,,,,,,,,1.1,0.8,0.8*23
$BDGSA,A,2,,,,,,,,,,,,,1.1,0.8,0.8*22
$GPRMC,134455.0,A,3206.242495,N,03512.368644,E,1.2,284.6,030516,0.0,E,A*08
$GPGSV,4,1,13,02,54,119,39,06,33,057,36,12,55,343,34,14,08,310,27*75
$GPGSV,4,2,13,15,08,201,30,19,21,043,35,24,72,191,39,25,28,305,31*72
$GPGSV,4,3,13,29,22,239,39,32,08,306,32,33,,,33,40,,,36*79
$GPGSV,4,4,13,17,,,*7D
$GLGSV,2,1,07,73,12,324,30,82,75,001,37,80,63,357,28,79,44,119,33*6C
$GLGSV,2,2,07,83,39,217,41,81,25,029,36,78,04,133,*58
$BDGSV,2,1,05,205,45,137,31,202,28,116,,203,03,097,,208,08,039,*67
$BDGSV,2,2,05,210,09,130,*65
$GPGGA,134456.0,3206.242307,N,03512.368034,E,1,08,0.8,645.9,M,19.0,M,,*53
$GNGNS,134456.0,3206.242307,N,03512.368034,E,AA,13,0.8,645.9,19.0,,*6D
$GPVTG,275.2,T,275.2,M,1.6,N,2.9,K,A*2F
$GPGSA,A,2,02,06,12,15,19,24,25,29,,,,,1.1,0.8,0.8*32
$GNGSA,A,2,02,06,12,15,19,24,25,29,,,,,1.1,0.8,0.8*2C
$GNGSA,A,2,79,80,81,82,83,,,,,,,,1.1,0.8,0.8*23
$BDGSA,A,2,,,,,,,,,,,,,1.1,0.8,0.8*22
$GPRMC,134456.0,A,3206.242307,N,03512.368034,E,1.6,275.2,030516,0.0,E,A*08
$GPGSV,4,1,13,02,54,119,38,06,33,057,33,12,55,343,34,14,08,310,27*71
$GPGSV,4,2,13,15,08,201,28,19,21,043,32,24,72,191,38,25,28,305,27*7A
$GPGSV,4,3,13,29,22,239,39,32,08,306,27,33,,,34,40,,,34*78
$GPGSV,4,4,13,17,,,*7D
$GLGSV,2,1,07,73,12,324,31,82,75,001,35,80,63,357,25,79,44,119,33*62
$GLGSV,2,2,07,83,39,217,40,81,25,029,34,78,04,133,*5B
$BDGSV,2,1,05,205,45,137,29,202,28,116,,203,03,097,,208,08,039,*6E
$BDGSV,2,2,05,210,09,130,*65
$GPGGA,134457.0,3206.242070,N,03512.367205,E,1,08,0.8,646.2,M,19.0,M,,*56
$GNGNS,134457.0,3206.242070,N,03512.367205,E,AA,13,0.8,646.2,19.0,,*68
$GPVTG,265.3,T,265.3,M,2.0,N,3.6,K,A*24
$GPGSA,A,2,02,06,12,15,19,24,25,29,,,,,1.1,0.8,0.8*32
$GNGSA,A,2,02,06,12,15,19,24,25,29,,,,,1.1,0.8,0.8*2C
$GNGSA,A,2,79,80,81,82,83,,,,,,,,1.1,0.8,0.8*23
$BDGSA,A,2,,,,,,,,,,,,,1.1,0.8,0.8*22
$GPRMC,134457.0,A,3206.242070,N,03512.367205,E,2.0,265.3,030516,0.0,E,A*00
$GPGSV,4,1,13,02,54,119,39,06,33,057,35,12,55,343,28,14,08,310,31*7C
$GPGSV,4,2,13,15,08,201,27,19,21,043,33,24,72,191,38,25,28,305,28*7B
$GPGSV,4,3,13,29,22,239,38,32,08,306,30,33,,,35,40,,,33*79
$GPGSV,4,4,13,17,,,*7D
$GLGSV,2,1,07,73,12,324,34,82,75,001,37,80,63,357,27,79,44,119,33*67
$GLGSV,2,2,07,83,39,217,40,81,25,029,30,78,04,133,*5F
$BDGSV,2,1,05,205,45,137,29,202,28,116,,203,03,097,,208,08,039,*6E
$BDGSV,2,2,05,210,09,130,*65
$GPGGA,134458.0,3206.242036,N,03512.366554,E,1,08,0.8,646.0,M,19.0,M,,*5B
$GNGNS,134458.0,3206.242036,N,03512.366554,E,AA,13,0.8,646.0,19.0,,*65
$GPVTG,277.7,T,277.7,M,1.7,N,3.1,K,A*27
$GPGSA,A,2,02,06,12,15,19,24,25,29,,,,,1.1,0.8,0.8*32
$GNGSA,A,2,02,06,12,15,19,24,25,29,,,,,1.1,0.8,0.8*2C
$GNGSA,A,2,79,80,81,82,83,,,,,,,,1.1,0.8,0.8*23
$BDGSA,A,2,,,,,,,,,,,,,1.1,0.8,0.8*22
$GPRMC,134458.0,A,3206.242036,N,03512.366554,E,1.7,277.7,030516,0.0,E,A*0C
$GPGSV,4,1,13,02,54,119,37,06,33,057,34,12,55,343,33,14,08,310,32*7A
$GPGSV,4,2,13,15,08,201,30,19,21,043,28,24,72,191,38,25,28,305,31*7F
$GPGSV,4,3,13,29,22,239,36,32,08,306,34,33,,,33,40,,,34*72
$GPGSV,4,4,13,17,,,*7D
$GLGSV,2,1,07,73,12,324,34,82,75,001,36,80,63,357,25,79,44,119,33*64
$GLGSV,2,2,07,83,39,217,38,81,25,029,30,78,04,133,*50
$BDGSV,2,1,05,205,45,137,32,202,28,116,,203,03,097,,208,08,039,*64
$BDGSV,2,2,05,210,09,130,*65
$GPGGA,134459.0,3206.241879,N,03512.365954,E,1,08,0.8,645.5,M,19.0,M,,*53
$GNGNS,134459.0,3206.241879,N,03512.365954,E,AA,13,0.8,645.5,19.0,,*6D
$GPVTG,273.7,T,273.7,M,1.8,N,3.3,K,A*2A
$GPGSA,A,2,02,06,12,15,19,24,25,29,,,,,1.1,0.8,0.8*32
$GNGSA,A,2,02,06,12,15,19,24,25,29,,,,,1.1,0.8,0.8*2C
$GNGSA,A,2,79,80,81,82,83,,,,,,,,1.1,0.8,0.8*23
$BDGSA,A,2,,,,,,,,,,,,,1.1,0.8,0.8*22
$GPRMC,134459.0,A,3206.241879,N,03512.365954,E,1.8,273.7,030516,0.0,E,A*09
$GPGSV,4,1,13,02,54,119,38,06,33,057,34,12,55,343,28,14,08,310,32*7F
$GPGSV,4,2,13,15,08,201,29,19,21,043,27,24,72,191,39,25,28,305,33*7B
$GPGSV,4,3,13,29,22,239,35,32,08,306,34,33,,,32,40,,,34*70
$GPGSV,4,4,13,17,,,*7D
$GLGSV,2,1,07,73,12,324,32,82,75,001,37,80,63,357,26,79,44,119,33*60
$GLGSV,2,2,07,83,39,217,37,81,25,029,28,78,04,133,*56
$BDGSV,2,1,05,205,45,137,31,202,28,116,,203,03,097,,208,08,039,*67
$BDGSV,2,2,05,210,09,130,*65
$GPGGA,134500.0,3206.241930,N,03512.365169,E,1,08,0.8,645.1,M,19.0,M,,*50
$GNGNS,134500.0,3206.241930,N,03512.365169,E,AA,13,0.8,645.1,19.0,,*6E
$GPVTG,287.2,T,287.2,M,1.7,N,3.2,K,A*24
$GPGSA,A,2,02,06,12,15,19,24,25,29,,,,,1.1,0.8,0.8*32
$GNGSA,A,2,02,06,12,15,19,24,25,29,,,,,1.1,0.8,0.8*2C
$GNGSA,A,2,79,80,81,82,83,,,,,,,,1.1,0.8,0.8*23
$BDGSA,A,2,,,,,,,,,,,,,1.1,0.8,0.8*22
$GPRMC,134500.0,A,3206.241930,N,03512.365169,E,1.7,287.2,030516,0.0,E,A*0F
$GPGSV,4,1,13,02,54,119,38,06,33,057,36,12,55,343,33,14,08,310,32*77
$GPGSV,4,2,13,15,08,201,29,19,21,043,30,24,72,191,38,25,28,305,31*7E
$GPGSV,4,3,13,29,22,239,38,32,08,306,32,33,,,34,40,,,33*7A
$GPGSV,4,4,13,17,,,*7D
$GLGSV,2,1,07,73,12,324,33,82,75,001,36,80,63,357,25,79,44,119,36*66
$GLGSV,2,2,07,83,39,217,38,81,25,029,29,78,04,133,*58
$BDGSV,2,1,05,205,45,137,31,202,28,116,,203,03,097,,208,08,039,*67
$BDGSV,2,2,05,210,09,130,*65
$GPGGA,134501.0,3206.241907,N,03512.364610,E,1,08,0.8,644.8,M,19.0,M,,*55
$GNGNS,134501.0,3206.241907,N,03512.364610,E,AA,13,0.8,644.8,19.0,,*6B
$GPVTG,282.0,T,282.0,M,1.9,N,3.4,K,A*2C
$GPGSA,A,2,02,06,12,15,19,24,25,29,,,,,1.1,0.8,0.8*32
$GNGSA,A,2,02,06,12,15,19,24,25,29,,,,,1.1,0.8,0.8*2C
$GNGSA,A,2,79,80,81,82,83,,,,,,,,1.1,0.8,0.8*23
$BDGSA,A,2,,,,,,,,,,,,,1.1,0.8,0.8*22
$GPRMC,134501.0,A,3206.241907,N,03512.364610,E,1.9,282.0,030516,0.0,E,A*0B
$GPGSV,4,1,13,02,54,119,38,06,33,057,34,12,55,343,30,14,08,310,30*74
$GPGSV,4,2,13,15,08,201,31,19,21,043,27,24,72,191,37,25,28,305,36*79
$GPGSV,4,3,13,29,22,239,39,32,08,306,34,33,,,34,40,,,33*7D
$GPGSV,4,4,13,17,,,*7D
$GLGSV,2,1,07,73,12,324,33,82,75,001,35,80,63,357,24,79,44,119,35*67
$GLGSV,2,2,07,83,39,217,37,81,25,029,28,78,04,133,*56
$BDGSV,2,1,05,205,45,137,30,202,28,116,,203,03,097,,208,08,039,*66
$BDGSV,2,2,05,210,09,130,*65
$GPGGA,134502.0,3206.242179,N,03512.363971,E,1,08,0.8,644.8,M,19.0,M,,*5B
$GNGNS,134502.0,3206.242179,N,03512.363971,E,AA,13,0.8,644.8,19.0,,*65
$GPVTG,288.7,T,288.7,M,1.7,N,3.2,K,A*24
$GPGSA,A,2,02,06,12,15,19,24,25,29,,,,,1.1,0.8,0.8*32
$GNGSA,A,2,02,06,12,15,19,24,25,29,,,,,1.1,0.8,0.8*2C
$GNGSA,A,2,79,80,81,82,83,,,,,,,,1.1,0.8,0.8*23
$BDGSA,A,2,,,,,,,,,,,,,1.1,0.8,0.8*22
$GPRMC,134502.0,A,3206.242179,N,03512.363971,E,1.7,288.7,030516,0.0,E,A*06
$GPGSV,4,1,13,02,54,119,34,06,33,057,35,12,55,343,33,14,08,310,28*73
$GPGSV,4,2,13,15,08,201,32,19,21,043,29,24,72,191,39,25,28,305,38*74
$GPGSV,4,3,13,29,22,239,36,32,08,306,35,33,,,33,40,,,34*73
$GPGSV,4,4,13,17,,,*7D
$GLGSV,2,1,07,73,12,324,30,82,75,001,33,80,63,357,26,79,44,119,31*64
$GLGSV,2,2,07,83,39,217,36,81,25,029,25,78,04,133,*5A
$BDGSV,2,1,05,205,45,137,30,202,28,116,,203,03,097,,208,08,039,*66
$BDGSV,2,2,05,210,09,130,*65
$GPGGA,134503.0,3206.242280,N,03512.363415,E,1,08,0.8,644.7,M,19.0,M,,*5F
$GNGNS,134503.0,3206.242280,N,03512.363415,E,AA,13,0.8,644.7,19.0,,*61
$GPVTG,279.9,T,279.9,M,1.5,N,2.7,K,A*22
$GPGSA,A,2,02,06,12,15,19,24,25,29,,,,,1.1,0.8,0.8*32
$GNGSA,A,2,02,06,12,15,19,24,25,29,,,,,1.1,0.8,0.8*2C
$GNGSA,A,2,79,80,81,82,83,,,,,,,,1.1,0.8,0.8*23
$BDGSA,A,2,,,,,,,,,,,,,1.1,0.8,0.8*22
$GPRMC,134503.0,A,3206.242280,N,03512.363415,E,1.5,279.9,030516,0.0,E,A*0F
$GPGSV,4,1,13,02,54,119,37,06,33,057,36,12,55,343,36,14,08,310,31*7E
$GPGSV,4,2,13,15,08,201,32,19,21,043,29,24,72,191,38,25,28,305,34*79
$GPGSV,4,3,13,29,22,239,34,32,08,306,35,33,,,31,40,,,34*73
$GPGSV,4,4,13,17,,,*7D
$GLGSV,2,1,07,73,12,324,25,82,75,001,32,80,63,357,25,79,44,119,30*63
$GLGSV,2,2,07,83,39,217,33,81,25,029,27,78,04,133,*5D
$BDGSV,2,1,05,205,45,137,32,202,28,116,,203,03,097,,208,08,039,*64
$BDGSV,2,2,05,210,09,130,*65
$GPGGA,134504.0,3206.242290,N,03512.362876,E,1,08,0.8,644.5,M,19.0,M,,*53
$GNGNS,134504.0,3206.242290,N,03512.362876,E,AA,13,0.8,644.5,19.0,,*6D
$GPVTG,275.2,T,275.2,M,1.7,N,3.2,K,A*24
$GPGSA,A,2,02,06,12,15,19,24,25,29,,,,,1.1,0.8,0.8*32
$GNGSA,A,2,02,06,12,15,19,24,25,29,,,,,1.1,0.8,0.8*2C
$GNGSA,A,2,79,80,81,82,83,,,,,,,,1.1,0.8,0.8*23
$BDGSA,A,2,,,,,,,,,,,,,1.1,0.8,0.8*22
$GPRMC,134504.0,A,3206.242290,N,03512.362876,E,1.7,275.2,030516,0.0,E,A*04
$GPGSV,4,1,13,02,54,119,35,06,33,057,33,12,55,343,36,14,08,310,31*79
$GPGSV,4,2,13,15,08,201,33,19,21,043,28,24,72,191,39,25,28,305,33*7F
$GPGSV,4,3,13,29,22,239,37,32,08,306,34,33,,,32,40,,,34*72
$GPGSV,4,4,13,17,,,*7D
$GLGSV,2,1,07,73,12,324,29,82,75,001,37,80,63,357,25,79,44,119,32*68
$GLGSV,2,2,07,83,39,217,36,81,25,029,24,78,04,133,*5B
$BDGSV,2,1,05,205,45,137,31,202,28,116,,203,03,097,,208,08,039,*67
$BDGSV,2,2,05,210,09,130,*65
$GPGGA,134505.0,3206.242295,N,03512.362076,E,1,07,1.0,644.7,M,19.0,M,,*5B
$GNGNS,134505.0,3206.242295,N,03512.362076,E,AA,12,1.0,644.7,19.0,,*6B
$GPVTG,273.1,T,273.1,M,1.9,N,3.6,K,A*2E
$GPGSA,A,2,02,06,12,15,19,24,29,,,,,,1.2,1.0,0.8*3F
$GNGSA,A,2,02,06,12,15,19,24,29,,,,,,1.2,1.0,0.8*21
$GNGSA,A,2,79,80,81,82,83,,,,,,,,1.2,1.0,0.8*29
$BDGSA,A,2,,,,,,,,,,,,,1.2,1.0,0.8*28
$GPRMC,134505.0,A,3206.242295,N,03512.362076,E,1.9,273.1,030516,0.0,E,A*03
$GPGSV,4,1,13,02,54,119,38,06,33,057,33,12,55,343,36,14,08,310,31*74
$GPGSV,4,2,13,15,08,201,32,19,21,043,25,24,72,191,39,25,28,305,32*72
$GPGSV,4,3,13,29,22,239,38,32,08,306,35,33,,,32,40,,,33*7B
$GPGSV,4,4,13,17,,,*7D
$GLGSV,2,1,07,73,12,324,28,82,75,001,37,80,63,357,26,79,44,119,33*6B
$GLGSV,2,2,07,83,39,217,37,81,25,029,30,78,04,133,*5F
$BDGSV,2,1,05,205,45,137,30,202,28,116,,203,03,097,,208,08,039,*66
$BDGSV,2,2,05,210,09,130,*65
$GPGGA,134506.0,3206.242219,N,03512.361404,E,1,07,1.0,644.5,M,19.0,M,,*5C
$GNGNS,134506.0,3206.242219,N,03512.361404,E,AA,12,1.0,644.5,19.0,,*6C
$GPVTG,280.0,T,280.0,M,1.9,N,3.4,K,A*2C
$GPGSA,A,2,02,06,12,15,19,24,29,,,,,,1.2,1.0,0.8*3F
$GNGSA,A,2,02,06,12,15,19,24,29,,,,,,1.2,1.0,0.8*21
$GNGSA,A,2,79,80,81,82,83,,,,,,,,1.2,1.0,0.8*29
$BDGSA,A,2,,,,,,,,,,,,,1.2,1.0,0.8*28
$GPRMC,134506.0,A,3206.242219,N,03512.361404,E,1.9,280.0,030516,0.0,E,A*0B
$GPGSV,4,1,13,02,54,119,39,06,33,057,32,12,55,343,36,14,08,310,33*76
$GPGSV,4,2,13,15,08,201,31,19,21,043,26,24,72,191,38,25,28,305,32*73
$GPGSV,4,3,13,29,22,239,40,32,08,306,36,33,,,33,40,,,34*71
$GPGSV,4,4,13,17,,,*7D
$GLGSV,2,1,07,73,12,324,29,82,75,001,36,80,63,357,27,79,44,119,35*6C
$GLGSV,2,2,07,83,39,217,40,81,25,029,34,78,04,133,*5B
$BDGSV,2,1,05,205,45,137,29,202,28,116,,203,03,097,,208,08,039,*6E
$BDGSV,2,2,05,210,09,130,*65
$GPGGA,134507.0,3206.242201,N,03512.360765,E,1,07,1.0,644.5,M,19.0,M,,*51
$GNGNS,134507.0,3206.242201,N,03512.360765,E,AA,12,1.0,644.5,19.0,,*61
$GPVTG,279.8,T,279.8,M,1.7,N,3.1,K,A*27
$GPGSA,A,2,02,06,12,15,19,24,29,,,,,,1.2,1.0,0.8*3F
$GNGSA,A,2,02,06,12,15,19,24,29,,,,,,1.2,1.0,0.8*21
$GNGSA,A,2,79,80,81,82,83,,,,,,,,1.2,1.0,0.8*29
$BDGSA,A,2,,,,,,,,,,,,,1.2,1.0,0.8*28
$GPRMC,134507.0,A,3206.242201,N,03512.360765,E,1.7,279.8,030516,0.0,E,A*06
$GPGSV,4,1,13,02,54,119,39,06,33,057,31,12,55,343,34,14,08,310,30*74
$GPGSV,4,2,13,15,08,201,30,19,21,043,29,24,72,191,38,25,28,305,30*7F
$GPGSV,4,3,13,29,22,239,40,32,08,306,33,33,,,34,40,,,34*73
$GPGSV,4,4,13,17,,,*7D
$GLGSV,2,1,07,73,12,324,33,82,75,001,37,80,63,357,30,79,44,119,32*67
$GLGSV,2,2,07,83,39,217,39,81,25,029,30,78,04,133,*51
$BDGSV,2,1,05,205,45,137,29,202,28,116,,203,03,097,,208,08,039,*6E
$BDGSV,2,2,05,210,09,130,*65
$GPGGA,134508.0,3206.242171,N,03512.360345,E,1,07,1.0,643.9,M,19.0,M,,*57
$GNGNS,134508.0,3206.242171,N,03512.360345,E,AA,12,1.0,643.9,19.0,,*67
$GPVTG,258.7,T,258.7,M,1.5,N,2.8,K,A*2D
$GPGSA,A,2,02,06,12,15,19,24,29,,,,,,1.2,1.0,0.8*3F
$GNGSA,A,2,02,06,12,15,19,24,29,,,,,,1.2,1.0,0.8*21
$GNGSA,A,2,79,80,81,82,83,,,,,,,,1.2,1.0,0.8*29
$BDGSA,A,2,,,,,,,,,,,,,1.2,1.0,0.8*28
$GPRMC,134508.0,A,3206.242171,N,03512.360345,E,1.5,258.7,030516,0.0,E,A*05
$GPGSV,4,1,13,02,54,119,38,06,33,057,30,12,55,343,33,14,08,310,27*75
$GPGSV,4,2,13,15,08,201,29,19,21,043,30,24,72,191,38,25,28,305,28*76
$GPGSV,4,3,13,29,22,239,40,32,08,306,28,33,,,36,40,,,35*7A
$GPGSV,4,4,13,17,,,*7D
$GLGSV,2,1,07,73,12,324,30,82,75,001,39,80,63,357,31,79,44,119,35*6C
$GLGSV,2,2,07,83,39,217,38,81,25,029,29,78,04,133,*58
$BDGSV,2,1,05,205,45,137,27,202,28,116,,203,03,097,,208,08,039,*60
$BDGSV,2,2,05,210,09,130,*65
$GPGGA,134509.0,3206.242027,N,03512.359829,E,1,08,0.8,643.1,M,19.0,M,,*51
$GNGNS,134509.0,3206.242027,N,03512.359829,E,AA,13,0.8,643.1,19.0,,*6F
$GPVTG,258.7,T,258.7,M,1.3,N,2.4,K,A*27
$GPGSA,A,2,02,06,12,15,19,24,25,29,,,,,1.1,0.8,0.8*32
$GNGSA,A,2,02,06,12,15,19,24,25,29,,,,,1.1,0.8,0.8*2C
$GNGSA,A,2,79,80,81,82,83,,,,,,,,1.1,0.8,0.8*23
$BDGSA,A,2,,,,,,,,,,,,,1.1,0.8,0.8*22
$GPRMC,134509.0,A,3206.242027,N,03512.359829,E,1.3,258.7,030516,0.0,E,A*0B
$GPGSV,4,1,13,02,54,119,38,06,33,057,32,12,55,343,35,14,08,310,25*73
$GPGSV,4,2,13,15,08,201,28,19,21,043,32,24,72,191,39,25,28,305,29*75
$GPGSV,4,3,13,29,22,239,40,32,08,306,29,33,,,33,40,,,35*7E
$GPGSV,4,4,13,17,,,*7D
$GLGSV,2,1,07,73,12,324,28,82,75,001,37,80,63,357,30,79,44,119,36*69
$GLGSV,2,2,07,83,39,217,38,81,25,029,33,78,04,133,*53
$BDGSV,2,1,05,205,45,137,30,202,28,116,,203,03,097,,208,08,039,*66
$BDGSV,2,2,05,210,09,130,*65
$GPGGA,134510.0,3206.241921,N,03512.359126,E,1,08,0.8,643.0,M,19.0,M,,*52
$GNGNS,134510.0,3206.241921,N,03512.359126,E,AA,13,0.8,643.0,19.0,,*6C
$GPVTG,272.8,T,272.8,M,1.9,N,3.6,K,A*2E
$GPGSA,A,2,02,06,12,15,19,24,25,29,,,,,1.1,0.8,0.8*32
$GNGSA,A,2,02,06,12,15,19,24,25,29,,,,,1.1,0.8,0.8*2C
$GNGSA,A,2,79,80,81,82,83,,,,,,,,1.1,0.8,0.8*23
$BDGSA,A,2,,,,,,,,,,,,,1.1,0.8,0.8*22
$GPRMC,134510.0,A,3206.241921,N,03512.359126,E,1.9,272.8,030516,0.0,E,A*04
$GPGSV,4,1,13,02,54,119,37,06,33,057,30,12,55,343,31,14,08,310,30*7E
$GPGSV,4,2,13,15,08,201,29,19,21,043,33,24,72,191,38,25,28,305,29*74
$GPGSV,4,3,13,29,22,239,39,32,08,306,31,33,,,33,40,,,34*78
$GPGSV,4,4,13,17,,,*7D
$GLGSV,2,1,07,73,12,324,28,82,75,001,38,80,63,357,28,79,44,119,34*6D
$GLGSV,2,2,07,83,39,217,37,81,25,029,32,78,04,133,*5D
$BDGSV,2,1,05,205,45,137,29,202,28,116,,203,03,097,,208,08,039,*6E
$BDGSV,2,2,05,210,09,130,*65
$GPGGA,134511.0,3206.242020,N,03512.358819,E,1,08,0.8,641.9,M,19.0,M,,*57
$GNGNS,134511.0,3206.242020,N,03512.358819,E,AA,13,0.8,641.9,19.0,,*69
$GPVTG,272.8,T,272.8,M,1.4,N,2.5,K,A*21
$GPGSA,A,2,02,06,12,15,19,24,25,29,,,,,1.1,0.8,0.8*32
$GNGSA,A,2,02,06,12,15,19,24,25,29,,,,,1.1,0.8,0.8*2C
$GNGSA,A,2,79,80,81,82,83,,,,,,,,1.1,0.8,0.8*23
$BDGSA,A,2,,,,,,,,,,,,,1.1,0.8,0.8*22
$GPRMC,134511.0,A,3206.242020,N,03512.358819,E,1.4,272.8,030516,0.0,E,A*07
$GPGSV,4,1,13,02,54,119,37,06,33,057,35,12,55,343,30,14,08,310,25*7E
$GPGSV,4,2,13,15,08,201,31,19,21,043,33,24,72,191,38,25,28,305,24*70
$GPGSV,4,3,13,29,22,239,39,32,08,306,27,33,,,36,40,,,35*7B
$GPGSV,4,4,13,17,,,*7D
$GLGSV,2,1,07,73,12,324,23,82,75,001,38,80,63,357,29,79,44,119,34*67
$GLGSV,2,2,07,83,39,217,38,81,25,029,33,78,04,133,*53
$BDGSV,2,1,05,205,45,137,31,202,28,116,,203,03,097,,208,08,039,*67
$BDGSV,2,2,05,210,09,130,*65
$GPGGA,134512.0,3206.242238,N,03512.358142,E,1,08,0.8,641.3,M,19.0,M,,*52
$GNGNS,134512.0,3206.242238,N,03512.358142,E,AA,13,0.8,641.3,19.0,,*6C
$GPVTG,305.2,T,305.2,M,2.0,N,3.6,K,A*24
$GPGSA,A,2,02,06,12,15,19,24,25,29,,,,,1.1,0.8,0.8*32
$GNGSA,A,2,02,06,12,15,19,24,25,29,,,,,1.1,0.8,0.8*2C
$GNGSA,A,2,79,80,81,82,83,,,,,,,,1.1,0.8,0.8*23
$BDGSA,A,2,,,,,,,,,,,,,1.1,0.8,0.8*22
$GPRMC,134512.0,A,3206.242238,N,03512.358142,E,2.0,305.2,030516,0.0,E,A*04
$GPGSV,4,1,13,02,54,119,36,06,33,057,39,12,55,343,36,14,08,310,25*75
$GPGSV,4,2,13,15,08,201,28,19,21,043,40,24,72,191,39,25,28,305,22*7B
$GPGSV,4,3,13,29,22,239,41,32,08,306,30,33,,,37,40,,,34*72
$GPGSV,4,4,13,17,,,*7D
$GLGSV,2,1,07,73,12,324,24,82,75,001,34,80,63,357,27,79,44,119,30*66
$GLGSV,2,2,07,83,39,217,39,81,25,029,34,78,04,133,*55
$BDGSV,2,1,05,205,45,137,31,202,28,116,,203,03,097,,208,08,039,*67
$BDGSV,2,2,05,210,09,130,*65
$GPGGA,134513.0,3206.242492,N,03512.357552,E,1,08,0.8,640.7,M,19.0,M,,*5A
$GNGNS,134513.0,3206.242492,N,03512.357552,E,AA,13,0.8,640.7,19.0,,*64
$GPVTG,294.2,T,294.2,M,2.0,N,3.6,K,A*24
$GPGSA,A,2,02,06,12,15,19,24,25,29,,,,,1.1,0.8,0.8*32
$GNGSA,A,2,02,06,12,15,19,24,25,29,,,,,1.1,0.8,0.8*2C
$GNGSA,A,2,79,80,81,82,83,,,,,,,,1.1,0.8,0.8*23
$BDGSA,A,2,,,,,,,,,,,,,1.1,0.8,0.8*22
$GPRMC,134513.0,A,3206.242492,N,03512.357552,E,2.0,294.2,030516,0.0,E,A*00
$GPGSV,4,1,13,02,54,119,39,06,33,057,34,12,55,343,26,14,08,310,30*72
$GPGSV,4,2,13,15,08,201,35,19,21,043,31,24,72,191,40,25,28,305,23*7E
$GPGSV,4,3,13,29,22,239,40,32,08,306,29,33,,,38,40,,,37*77
$GPGSV,4,4,13,17,,,*7D
$GLGSV,2,1,07,73,12,324,20,82,75,001,21,80,63,357,17,79,44,119,32*67
$GLGSV,2,2,07,83,39,217,37,81,25,029,23,78,04,133,*5D
$BDGSV,2,1,05,205,45,137,34,210,09,130,15,202,28,116,,203,03,097,*66
$BDGSV,2,2,05,208,08,039,*65
$GPGGA,134514.0,3206.242562,N,03512.356644,E,1,08,0.8,641.3,M,19.0,M,,*53
$GNGNS,134514.0,3206.242562,N,03512.356644,E,AA,13,0.8,641.3,19.0,,*6D
$GPVTG,279.7,T,279.7,M,2.3,N,4.2,K,A*24
$GPGSA,A,2,02,06,12,15,19,24,25,29,,,,,1.1,0.8,0.8*32
$GNGSA,A,2,02,06,12,15,19,24,25,29,,,,,1.1,0.8,0.8*2C
$GNGSA,A,2,79,80,81,82,83,,,,,,,,1.1,0.8,0.8*23
$BDGSA,A,2,,,,,,,,,,,,,1.1,0.8,0.8*22
$GPRMC,134514.0,A,3206.242562,N,03512.356644,E,2.3,279.7,030516,0.0,E,A*09
$GPGSV,4,1,13,02,54,119,38,06,33,057,25,12,55,343,29,14,08,310,27*7A
$GPGSV,4,2,13,15,08,201,36,19,21,043,28,24,72,191,42,25,28,305,28*7C
$GPGSV,4,3,13,29,22,239,43,32,08,306,28,33,,,37,40,,,36*7B
$GPGSV,4,4,13,17,,,*7D
$GLGSV,2,1,07,73,12,324,26,82,75,001,22,80,63,357,19,79,44,119,37*69
$GLGSV,2,2,07,83,39,217,43,81,25,029,26,78,04,133,*5B
$BDGSV,2,1,05,205,45,137,27,210,09,130,15,202,28,116,,203,03,097,*64
$BDGSV,2,2,05,208,08,039,*65
$GPGGA,134515.0,3206.242820,N,03512.355963,E,1,08,0.8,641.1,M,19.0,M,,*52
$GNGNS,134515.0,3206.242820,N,03512.355963,E,AA,13,0.8,641.1,19.0,,*6C
$GPVTG,290.8,T,290.8,M,2.0,N,3.7,K,A*25
$GPGSA,A,2,02,06,12,15,19,24,25,29,,,,,1.1,0.8,0.8*32
$GNGSA,A,2,02,06,12,15,19,24,25,29,,,,,1.1,0.8,0.8*2C
$GNGSA,A,2,79,80,81,82,83,,,,,,,,1.1,0.8,0.8*23
$BDGSA,A,2,,,,,,,,,,,,,1.1,0.8,0.8*22
$GPRMC,134515.0,A,3206.242820,N,03512.355963,E,2.0,290.8,030516,0.0,E,A*01
$GPGSV,4,1,13,02,54,119,40,06,33,057,24,12,55,343,25,14,08,310,27*78
$GPGSV,4,2,13,15,08,201,33,19,21,043,29,24,72,191,39,25,28,305,29*75
$GPGSV,4,3,13,29,22,239,39,32,08,306,29,33,,,36,40,,,37*77
$GPGSV,4,4,13,17,,,*7D
$GLGSV,2,1,07,73,12,324,27,82,75,001,29,80,63,357,20,79,44,119,39*67
$GLGSV,2,2,07,83,39,217,42,81,25,029,26,78,04,133,*5A
$BDGSV,2,1,05,202,28,116,36,205,45,137,37,203,03,097,,208,08,039,*64
$BDGSV,2,2,05,210,09,130,*65
$GPGGA,134516.0,3206.243032,N,03512.355184,E,1,08,0.8,640.9,M,19.0,M,,*53
$GNGNS,134516.0,3206.243032,N,03512.355184,E,AA,13,0.8,640.9,19.0,,*6D
$GPVTG,288.2,T,288.2,M,2.2,N,4.2,K,A*25
$GPGSA,A,2,02,06,12,15,19,24,25,29,,,,,1.1,0.8,0.8*32
$GNGSA,A,2,02,06,12,15,19,24,25,29,,,,,1.1,0.8,0.8*2C
$GNGSA,A,2,79,80,81,82,83,,,,,,,,1.1,0.8,0.8*23
$BDGSA,A,2,,,,,,,,,,,,,1.1,0.8,0.8*22
$GPRMC,134516.0,A,3206.243032,N,03512.355184,E,2.2,288.2,030516,0.0,E,A*08
$GPGSV,3,1,12,02,54,119,40,06,33,057,27,12,55,343,34,14,09,309,25*76
$GPGSV,3,2,12,15,08,201,31,19,21,043,27,24,72,191,38,25,28,305,32*74
$GPGSV,3,3,12,29,22,239,39,32,08,306,29,33,,,33,40,,,34*77
$GLGSV,2,1,07,73,12,324,29,82,75,001,27,80,63,357,24,79,44,119,38*62
$GLGSV,2,2,07,83,39,217,40,81,25,029,30,78,04,133,*5F
$BDGSV,2,1,05,202,28,116,32,205,45,137,35,203,03,097,,208,08,039,*62
$BDGSV,2,2,05,210,08,130,*64
$GPGGA,134517.0,3206.243104,N,03512.354399,E,1,08,0.8,640.6,M,19.0,M,,*56
$GNGNS,134517.0,3206.243104,N,03512.354399,E,AA,13,0.8,640.6,19.0,,*68
$GPVTG,285.1,T,285.1,M,2.0,N,3.8,K,A*2A
$GPGSA,A,2,02,06,12,15,19,24,25,29,,,,,1.1,0.8,0.8*32
$GNGSA,A,2,02,06,12,15,19,24,25,29,,,,,1.1,0.8,0.8*2C
$GNGSA,A,2,79,80,81,82,83,,,,,,,,1.1,0.8,0.8*23
$BDGSA,A,2,,,,,,,,,,,,,1.1,0.8,0.8*22
$GPRMC,134517.0,A,3206.243104,N,03512.354399,E,2.0,285.1,030516,0.0,E,A*0E
$GPGSV,3,1,12,02,54,119,40,06,33,057,27,12,55,343,34,14,09,309,31*73
$GPGSV,3,2,12,15,08,201,30,19,21,043,31,24,72,191,38,25,28,305,34*74
$GPGSV,3,3,12,29,22,239,42,32,08,306,29,33,,,35,40,,,35*7C
$GLGSV,2,1,07,73,12,324,36,82,75,001,35,80,63,357,28,79,44,119,33*68
$GLGSV,2,2,07,83,39,217,39,81,25,029,29,78,04,133,*59
$BDGSV,2,1,05,202,28,116,26,205,45,137,31,203,03,097,,208,08,039,*63
$BDGSV,2,2,05,210,08,130,*64
$GPGGA,134518.0,3206.242920,N,03512.353987,E,1,08,0.8,639.6,M,19.0,M,,*5A
$GNGNS,134518.0,3206.242920,N,03512.353987,E,AA,13,0.8,639.6,19.0,,*64
$GPVTG,285.1,T,285.1,M,1.2,N,2.3,K,A*21
$GPGSA,A,2,02,06,12,15,19,24,25,29,,,,,1.1,0.8,0.8*32
$GNGSA,A,2,02,06,12,15,19,24,25,29,,,,,1.1,0.8,0.8*2C
$GNGSA,A,2,79,80,81,82,83,,,,,,,,1.1,0.8,0.8*23
$BDGSA,A,2,,,,,,,,,,,,,1.1,0.8,0.8*22
$GPRMC,134518.0,A,3206.242920,N,03512.353987,E,1.2,285.1,030516,0.0,E,A*0D
$GPGSV,3,1,12,02,54,119,38,06,33,057,28,12,55,343,35,14,09,309,30*73
$GPGSV,3,2,12,15,08,201,30,19,21,043,34,24,72,191,39,25,28,305,30*74
$GPGSV,3,3,12,29,22,239,41,32,08,306,27,33,,,35,40,,,39*7D
$GLGSV,2,1,07,73,12,324,32,82,75,001,38,80,63,357,32,79,44,119,37*6E
$GLGSV,2,2,07,83,39,217,41,81,25,029,32,78,04,133,*5C
$BDGSV,2,1,05,202,28,116,29,205,45,137,32,203,03,097,,208,08,039,*6F
$BDGSV,2,2,05,210,08,130,*64
$GPGGA,134519.0,3206.243030,N,03512.353541,E,1,08,0.8,638.9,M,19.0,M,,*5A
$GNGNS,134519.0,3206.243030,N,03512.353541,E,AA,13,0.8,638.9,19.0,,*64
$GPVTG,285.1,T,285.1,M,1.3,N,2.4,K,A*27
$GPGSA,A,2,02,06,12,15,19,24,25,29,,,,,1.1,0.8,0.8*32
$GNGSA,A,2,02,06,12,15,19,24,25,29,,,,,1.1,0.8,0.8*2C
$GNGSA,A,2,79,80,81,82,83,,,,,,,,1.1,0.8,0.8*23
$BDGSA,A,2,,,,,,,,,,,,,1.1,0.8,0.8*22
$GPRMC,134519.0,A,3206.243030,N,03512.353541,E,1.3,285.1,030516,0.0,E,A*02
$GPGSV,3,1,12,02,54,119,39,06,33,057,36,12,55,343,34,14,09,309,28*75
$GPGSV,3,2,12,15,08,201,26,19,21,043,33,24,72,191,38,25,28,305,28*7C
$GPGSV,3,3,12,29,22,239,40,32,08,306,28,33,,,35,40,,,38*72
$GLGSV,2,1,07,73,14,324,36,82,75,001,38,80,64,358,32,79,43,120,33*6D
$GLGSV,2,2,07,83,40,219,40,81,25,029,41,78,03,135,*58
$BDGSV,2,1,05,202,28,116,25,205,45,137,31,203,03,097,,208,08,039,*60
$BDGSV,2,2,05,210,08,130,*64
$GPGGA,134520.0,3206.242974,N,03512.352707,E,1,08,0.8,639.1,M,19.0,M,,*50
$GNGNS,134520.0,3206.242974,N,03512.352707,E,AA,13,0.8,639.1,19.0,,*6E
$GPVTG,282.0,T,282.0,M,1.8,N,3.4,K,A*2D
$GPGSA,A,2,02,06,12,15,19,24,25,29,,,,,1.1,0.8,0.8*32
$GNGSA,A,2,02,06,12,15,19,24,25,29,,,,,1.1,0.8,0.8*2C
$GNGSA,A,2,79,80,81,82,83,,,,,,,,1.1,0.8,0.8*23
$BDGSA,A,2,,,,,,,,,,,,,1.1,0.8,0.8*22
$GPRMC,134520.0,A,3206.242974,N,03512.352707,E,1.8,282.0,030516,0.0,E,A*0C
$GPGSV,3,1,12,02,54,119,40,06,33,057,36,12,55,343,39,14,09,309,31*7E
$GPGSV,3,2,12,15,08,201,28,19,21,043,32,24,72,191,39,25,28,305,31*7A
$GPGSV,3,3,12,29,22,239,39,32,08,306,30,33,,,37,40,,,36*79
$GLGSV,2,1,07,73,14,324,37,82,75,001,37,80,64,358,30,79,43,120,33*61
$GLGSV,2,2,07,83,40,219,38,81,25,029,38,78,03,135,*59
$BDGSV,2,1,05,202,28,116,27,205,45,137,29,203,03,097,,208,08,039,*6B
$BDGSV,2,2,05,210,08,130,*64
$GPGGA,134521.0,3206.242850,N,03512.352030,E,1,08,0.8,639.1,M,19.0,M,,*55
$GNGNS,134521.0,3206.242850,N,03512.352030,E,AA,13,0.8,639.1,19.0,,*6B
$GPVTG,270.8,T,270.8,M,1.9,N,3.5,K,A*2D
$GPGSA,A,2,02,06,12,15,19,24,25,29,,,,,1.1,0.8,0.8*32
$GNGSA,A,2,02,06,12,15,19,24,25,29,,,,,1.1,0.8,0.8*2C
$GNGSA,A,2,79,80,81,82,83,,,,,,,,1.1,0.8,0.8*23
$BDGSA,A,2,,,,,,,,,,,,,1.1,0.8,0.8*22
$GPRMC,134521.0,A,3206.242850,N,03512.352030,E,1.9,270.8,030516,0.0,E,A*0D
$GPGSV,3,1,12,02,54,119,38,06,33,057,36,12,55,343,39,14,09,309,29*78
$GPGSV,3,2,12,15,08,201,28,19,21,043,34,24,72,191,39,25,28,305,29*75
$GPGSV,3,3,12,29,22,239,40,32,08,306,33,33,,,36,40,,,36*75
$GLGSV,2,1,07,73,14,324,32,82,75,001,36,80,64,358,28,79,43,120,31*6E
$GLGSV,2,2,07,83,40,219,40,81,25,029,35,78,03,135,*5B
$BDGSV,2,1,05,202,28,116,29,205,45,137,30,203,03,097,,208,08,039,*6D
$BDGSV,2,2,05,210,08,130,*64
$GPGGA,134522.0,3206.242635,N,03512.351443,E,1,08,0.8,638.9,M,19.0,M,,*51
$GNGNS,134522.0,3206.242635,N,03512.351443,E,AA,13,0.8,638.9,19.0,,*6F
$GPVTG,274.4,T,274.4,M,1.9,N,3.5,K,A*2D
$GPGSA,A,2,02,06,12,15,19,24,25,29,,,,,1.1,0.8,0.8*32
$GNGSA,A,2,02,06,12,15,19,24,25,29,,,,,1.1,0.8,0.8*2C
$GNGSA,A,2,79,80,81,82,83,,,,,,,,1.1,0.8,0.8*23
$BDGSA,A,2,,,,,,,,,,,,,1.1,0.8,0.8*22
$GPRMC,134522.0,A,3206.242635,N,03512.351443,E,1.9,274.4,030516,0.0,E,A*08
$GPGSV,3,1,12,02,54,119,39,06,33,057,39,12,55,343,33,14,09,309,33*77
$GPGSV,3,2,12,15,08,201,26,19,21,043,35,24,72,191,39,25,28,305,29*7A
$GPGSV,3,3,12,29,22,239,39,32,08,306,34,33,,,35,40,,,34*7D
$GLGSV,2,1,07,73,14,324,28,82,75,001,35,80,64,358,25,79,43,120,33*69
$GLGSV,2,2,07,83,40,219,36,81,25,029,30,78,03,135,*5F
$BDGSV,2,1,05,202,28,116,28,205,45,137,29,203,03,097,,208,08,039,*64
$BDGSV,2,2,05,210,08,130,*64
$GPGGA,134523.0,3206.242426,N,03512.350929,E,1,08,0.8,638.6,M,19.0,M,,*5F
$GNGNS,134523.0,3206.242426,N,03512.350929,E,AA,13,0.8,638.6,19.0,,*61
$GPVTG,265.5,T,265.5,M,1.8,N,3.4,K,A*2D
$GPGSA,A,2,02,06,12,15,19,24,25,29,,,,,1.1,0.8,0.8*32
$GNGSA,A,2,02,06,12,15,19,24,25,29,,,,,1.1,0.8,0.8*2C
$GNGSA,A,2,79,80,81,82,83,,,,,,,,1.1,0.8,0.8*23
$BDGSA,A,2,,,,,,,,,,,,,1.1,0.8,0.8*22
$GPRMC,134523.0,A,3206.242426,N,03512.350929,E,1.8,265.5,030516,0.0,E,A*09
$GPGSV,3,1,12,02,54,119,37,06,33,057,34,12,55,343,29,14,09,309,30*7C
$GPGSV,3,2,12,15,08,201,22,19,21,043,28,24,72,191,39,25,28,305,31*7B
$GPGSV,3,3,12,29,22,239,37,32,08,306,34,33,,,32,40,,,34*74
$GLGSV,2,1,07,73,14,324,28,82,75,001,27,80,64,358,22,79,43,120,29*66
$GLGSV,2,2,07,83,40,219,32,81,25,029,25,78,03,135,*5F
$BDGSV,2,1,05,202,28,116,27,205,45,137,32,203,03,097,,208,08,039,*61
$BDGSV,2,2,05,210,08,130,*64
$GPGGA,134524.0,3206.242449,N,03512.350355,E,1,08,0.8,638.4,M,19.0,M,,*52
$GNGNS,134524.0,3206.242449,N,03512.350355,E,AA,13,0.8,638.4,19.0,,*6C
$GPVTG,275.6,T,275.6,M,1.8,N,3.4,K,A*2D
$GPGSA,A,2,02,06,12,15,19,24,25,29,,,,,1.1,0.8,0.8*32
$GNGSA,A,2,02,06,12,15,19,24,25,29,,,,,1.1,0.8,0.8*2C
$GNGSA,A,2,79,80,81,82,83,,,,,,,,1.1,0.8,0.8*23
$BDGSA,A,2,,,,,,,,,,,,,1.1,0.8,0.8*22
$GPRMC,134524.0,A,3206.242449,N,03512.350355,E,1.8,275.6,030516,0.0,E,A*04
$GPGSV,3,1,12,02,54,119,37,06,33,057,31,12,55,343,36,14,09,309,34*73
$GPGSV,3,2,12,15,08,201,26,19,21,043,30,24,72,191,38,25,28,305,32*74
$GPGSV,3,3,12,29,22,239,37,32,08,306,31,33,,,33,40,,,35*71
$GLGSV,2,1,07,73,14,324,29,82,75,001,32,80,64,358,23,79,43,120,34*6E
$GLGSV,2,2,07,83,40,219,40,81,25,029,27,78,03,135,*58
$BDGSV,2,1,05,202,28,116,26,205,45,137,31,203,03,097,,208,08,039,*63
$BDGSV,2,2,05,210,08,130,*64
$GPGGA,134525.0,3206.242724,N,03512.349880,E,1,08,0.8,638.0,M,19.0,M,,*54
$GNGNS,134525.0,3206.242724,N,03512.349880,E,AA,13,0.8,638.0,19.0,,*6A
$GPVTG,303.6,T,303.6,M,2.1,N,3.8,K,A*2B
$GPGSA,A,2,02,06,12,15,19,24,25,29,,,,,1.1,0.8,0.8*32
$GNGSA,A,2,02,06,12,15,19,24,25,29,,,,,1.1,0.8,0.8*2C
$GNGSA,A,2,79,80,81,82,83,,,,,,,,1.1,0.8,0.8*23
$BDGSA,A,2,,,,,,,,,,,,,1.1,0.8,0.8*22
$GPRMC,134525.0,A,3206.242724,N,03512.349880,E,2.1,303.6,030516,0.0,E,A*0C
$GPGSV,4,1,13,02,54,119,38,06,33,057,29,12,55,343,36,14,09,309,32*75
$GPGSV,4,2,13,15,08,201,28,19,21,043,29,24,72,191,40,25,28,305,34*7D
$GPGSV,4,3,13,29,22,239,38,32,08,306,32,33,,,35,40,,,34*7C
$GPGSV,4,4,13,41,,,33*7E
$GLGSV,2,1,07,73,14,324,26,82,75,001,34,80,64,358,27,79,43,120,35*62
$GLGSV,2,2,07,83,40,219,39,81,25,029,27,78,03,135,*56
$BDGSV,2,1,05,202,28,116,26,205,45,137,29,203,03,097,,208,08,039,*6A
$BDGSV,2,2,05,210,08,130,*64
$GPGGA,134526.0,3206.242778,N,03512.349177,E,1,08,0.8,637.4,M,19.0,M,,*54
$GNGNS,134526.0,3206.242778,N,03512.349177,E,AA,13,0.8,637.4,19.0,,*6A
$GPVTG,289.2,T,289.2,M,2.1,N,3.9,K,A*2A
$GPGSA,A,2,02,06,12,15,19,24,25,29,,,,,1.1,0.8,0.8*32
$GNGSA,A,2,02,06,12,15,19,24,25,29,,,,,1.1,0.8,0.8*2C
$GNGSA,A,2,79,80,81,82,83,,,,,,,,1.1,0.8,0.8*23
$BDGSA,A,2,,,,,,,,,,,,,1.1,0.8,0.8*22
$GPRMC,134526.0,A,3206.242778,N,03512.349177,E,2.1,289.2,030516,0.0,E,A*00
$GPGSV,4,1,13,02,54,119,39,06,33,057,28,12,55,343,37,14,09,309,28*7F
$GPGSV,4,2,13,15,08,201,28,19,21,043,30,24,72,191,38,25,28,305,35*7B
