$GPGGA,044208.00,3201.752727,N,03448.118695,E,1,11,1.2,23.6,M,19.1,M,,*50
$PGLOR,5,STA,044208.00,0.007,0.000,389,1,12,3,P,F,L,0,C,3,S,0002,93,2,R,33F4,TPEF,20,90,LC,,*59
$PGLOR,1,UNC,044208.00,0.022,12.0,3.4,0.19,0.77,10.6,5.7,-6.4*01
$PGLOR,2,SAT,4,1,R14,017,33,G23,032,1F,R04,030,3F,G03,024,1F,G09,031,1F,G07,036,1F*4A
$PGLOR,2,SAT,4,2,G06,027,1F,G22,020,1F,R03,019,17,G16,024,1B,R05,015,30,R13,014,30*59
$PGLOR,2,SAT,4,3,G26,019,1F,G30,011,10,R20,007,30,G01,007,10,R19,007,30,G02,007,10*45
$PGLOR,2,SAT,4,4,R21,007,30,R15,028,3*08
$PGLOR,2,SIO,TxERR,0,RxERR,0,TxCNT,373,RxCNT,4140,MLFRMPKT,0,DTMS,999,DTIN,15,19,DTOUT,753,979,HATMD,71*16
$PGLOR,3,PWR,mA,26.9,RFTm,998,OscTm,1000,MeasTm,1000,UTC,044208.00*09
$GPGSV,3,1,11,23,59,017,33,03,57,121,30,09,53,316,31,07,44,219,36*71
$GPGSV,3,2,11,06,33,291,27,22,29,129,23,16,28,082,28,26,16,054,25*79
$GPGSV,3,3,11,30,14,219,17,01,10,177,13,02,03,324,15*40
$GLGSV,3,1,10,78,71,066,22,68,58,028,31,67,29,100,24,69,27,325,15*63
$GLGSV,3,2,10,77,19,029,18,84,11,288,09,83,05,238,13,85,01,333,07*65
$GLGSV,3,3,10,79,53,183,32,80,00,201,*6C
$GPGSA,A,3,03,06,07,09,16,22,23,26,,,,,2.1,1.0,1.8*30
$GNGSA,A,3,03,06,07,09,16,22,23,26,,,,,2.1,1.0,1.8*2E
$GNGSA,A,3,67,68,78,,,,,,,,,,2.1,1.0,1.8*27
$QZGSA,A,3,,,,,,,,,,,,,2.1,1.0,1.8*25
$IMGSA,A,3,,,,,,,,,,,,,2.1,1.0,1.8*2A
$PGLOR,1,FIX,1.0,1.0*20
$GPRMC,044208.00,A,3201.752727,N,03448.118695,E,017.9,258.4,280416,,,A*52
$PGLOR,SPL,20160428074207.6,POS,20160428044207.999,32.029212,34.801978,12,12,0,43,3,1.100000
$GPGGA,044209.00,3201.751599,N,03448.112888,E,1,11,1.2,23.3,M,19.1,M,,*58
$PGLOR,5,STA,044209.00,0.007,0.000,389,1,12,3,P,F,L,0,C,3,S,0002,102,2,R,33F4,TPEF,20,91,LC,,*60
$PGLOR,1,UNC,044209.00,0.021,12.0,3.3,0.21,0.95,10.6,5.6,-3.7*04
$PGLOR,2,SAT,4,1,R14,017,33,G23,030,1F,R04,027,3F,G03,024,1F,G09,029,1F,G07,034,1F*45
$PGLOR,2,SAT,4,2,G06,025,1F,G22,018,1F,R03,022,1B,G16,026,1F,R05,017,30,R13,011,30*2C
$PGLOR,2,SAT,4,3,G26,021,1F,G30,012,10,R20,007,30,G01,007,10,R19,007,30,G02,007,10*4D
$PGLOR,2,SAT,4,4,R21,007,30,R15,027,3*07
$PGLOR,2,SIO,TxERR,0,RxERR,0,TxCNT,487,RxCNT,4182,MLFRMPKT,0,DTMS,1001,DTIN,14,18,DTOUT,880,984,HATMD,72*2D
$PGLOR,3,PWR,mA,26.9,RFTm,1002,OscTm,1000,MeasTm,1000,UTC,044209.00*33
$GPGSV,3,1,11,23,59,017,32,03,57,121,29,09,53,316,31,07,44,219,35*7B
$GPGSV,3,2,11,06,33,291,27,22,29,129,23,16,28,082,28,26,16,054,24*78
$GPGSV,3,3,11,30,14,219,17,01,10,177,12,02,03,324,14*40
$GLGSV,3,1,10,78,71,066,22,68,58,028,30,67,29,100,24,69,27,325,17*60
$GLGSV,3,2,10,77,19,029,17,84,11,288,09,83,05,238,12,85,01,333,07*6B
$GLGSV,3,3,10,79,53,183,31,80,00,201,*6F
$GPGSA,A,3,03,06,07,09,16,22,23,26,,,,,2.1,1.0,1.8*30
$GNGSA,A,3,03,06,07,09,16,22,23,26,,,,,2.1,1.0,1.8*2E
$GNGSA,A,3,67,68,78,,,,,,,,,,2.1,1.0,1.8*27
$QZGSA,A,3,,,,,,,,,,,,,2.1,1.0,1.8*25
$IMGSA,A,3,,,,,,,,,,,,,2.1,1.0,1.8*2A
$PGLOR,1,FIX,1.0,1.0*20
$GPRMC,044209.00,A,3201.751599,N,03448.112888,E,017.2,257.6,280416,,,A*59
$PGLOR,SPL,20160428074208.6,POS,20160428044208.999,32.029193,34.801881,12,12,0,42,3,1.100000
$GPGGA,044210.00,3201.750411,N,03448.107056,E,1,12,1.2,22.8,M,19.1,M,,*56
$PGLOR,5,STA,044210.00,0.007,0.000,389,1,12,3,P,F,L,0,C,3,S,0002,112,2,R,33F4,TPEF,20,92,LC,,*6A
$PGLOR,1,UNC,044210.00,0.022,12.0,3.3,0.43,2.42,10.5,5.8,-0.7*0D
$PGLOR,2,SAT,4,1,R14,018,3F,G23,030,1F,R04,026,3F,G03,024,1F,G09,028,1F,G07,033,1F*38
$PGLOR,2,SAT,4,2,G06,025,1B,G22,017,1F,R03,027,1F,G16,028,1F,R05,015,30,R13,015,30*2E
$PGLOR,2,SAT,4,3,G26,019,1B,G30,021,1F,R20,009,30,G01,007,10,R19,013,30,G02,007,10*3F
$PGLOR,2,SAT,4,4,R21,007,30,R15,027,3*07
$PGLOR,2,SIO,TxERR,0,RxERR,0,TxCNT,389,RxCNT,4156,MLFRMPKT,0,DTMS,998,DTIN,16,23,DTOUT,874,974,HATMD,70*19
$PGLOR,3,PWR,mA,26.9,RFTm,998,OscTm,1000,MeasTm,1000,UTC,044210.00*00
$GPGSV,3,1,11,23,59,017,32,03,57,121,29,09,53,316,31,07,44,219,35*7B
$GPGSV,3,2,11,06,33,291,27,22,29,129,22,16,28,082,28,26,16,054,24*79
$GPGSV,3,3,11,30,14,219,21,01,10,177,12,02,03,324,13*42
$GLGSV,3,1,10,78,71,066,21,68,58,028,30,67,29,100,27,69,27,325,17*60
$GLGSV,3,2,10,77,19,029,17,84,11,288,09,83,05,238,13,85,01,333,07*6A
$GLGSV,3,3,10,79,53,183,31,80,00,201,*6F
$GPGSA,A,3,03,06,07,09,16,22,23,26,30,,,,2.3,1.2,2.0*38
$GNGSA,A,3,03,06,07,09,16,22,23,26,30,,,,2.3,1.2,2.0*26
$GNGSA,A,3,67,68,78,,,,,,,,,,2.3,1.2,2.0*2C
$QZGSA,A,3,,,,,,,,,,,,,2.3,1.2,2.0*2E
$IMGSA,A,3,,,,,,,,,,,,,2.3,1.2,2.0*21
$PGLOR,1,FIX,1.0,1.0*20
$GPRMC,044210.00,A,3201.750411,N,03448.107056,E,017.4,256.6,280416,,,A*59
$PGLOR,SPL,20160428074209.6,POS,20160428044209.999,32.029174,34.801784,12,12,0,42,3,1.100000
$GPGGA,044211.00,3201.749583,N,03448.101598,E,1,13,1.2,22.6,M,19.1,M,,*5B
$PGLOR,5,STA,044211.00,0.007,0.000,389,1,12,3,P,F,L,0,C,3,S,0002,120,2,R,33F4,TPEF,20,93,LC,,*6B
$PGLOR,1,UNC,044211.00,0.021,12.0,3.2,0.68,4.21,10.3,6.2,4.7*22
$PGLOR,2,SAT,4,1,R14,019,33,G23,030,1F,R04,024,3B,G03,022,1F,G09,030,1F,G07,032,1F*44
$PGLOR,2,SAT,4,2,G06,023,1F,G22,015,1F,R03,028,1F,G16,028,1F,R05,016,3B,R13,013,30*56
$PGLOR,2,SAT,4,3,G26,023,1F,G30,016,15,R20,007,30,G01,018,10,R19,007,30,G02,012,10*44
$PGLOR,2,SAT,4,4,R21,007,30,R15,024,3*04
$PGLOR,2,SIO,TxERR,0,RxERR,0,TxCNT,362,RxCNT,4234,MLFRMPKT,0,DTMS,1002,DTIN,18,23,DTOUT,552,978,HATMD,72*29
$PGLOR,3,PWR,mA,26.9,RFTm,1002,OscTm,1000,MeasTm,1000,UTC,044211.00*3A
$GPGSV,3,1,11,23,59,017,32,03,57,121,28,09,53,316,31,07,44,219,35*7A
$GPGSV,3,2,11,06,33,291,26,22,29,129,21,16,28,082,28,26,16,054,24*7B
$GPGSV,3,3,11,30,14,219,20,01,10,177,18,02,03,324,13*49
$GLGSV,3,1,10,78,71,066,21,68,58,028,29,67,29,100,28,69,27,325,17*67
$GLGSV,3,2,10,77,19,029,16,84,11,288,09,83,05,238,12,85,01,333,07*6A
$GLGSV,3,3,10,79,53,183,30,80,00,201,*6E
$GPGSA,A,3,03,06,07,09,16,22,23,26,30,,,,1.8,0.9,1.6*3F
$GNGSA,A,3,03,06,07,09,16,22,23,26,30,,,,1.8,0.9,1.6*21
$GNGSA,A,3,67,68,69,78,,,,,,,,,1.8,0.9,1.6*24
$QZGSA,A,3,,,,,,,,,,,,,1.8,0.9,1.6*29
$IMGSA,A,3,,,,,,,,,,,,,1.8,0.9,1.6*26
$PGLOR,1,FIX,1.0,1.0*20
$GPRMC,044211.00,A,3201.749583,N,03448.101598,E,016.6,259.1,280416,,,A*50
$PGLOR,SPL,20160428074210.6,POS,20160428044210.999,32.029160,34.801693,12,12,0,42,3,1.100000
$GPGGA,044212.00,3201.749084,N,03448.096088,E,1,13,1.2,22.8,M,19.1,M,,*5F
$PGLOR,5,STA,044212.00,0.007,0.000,388,1,12,3,P,F,L,0,C,3,S,0002,129,2,R,33F4,TPEF,20,94,LC,,*67
$PGLOR,1,UNC,044212.00,0.022,12.0,3.3,0.35,1.93,10.4,6.1,5.2*27
$PGLOR,2,SAT,4,1,R14,019,33,G23,027,1F,R04,022,3F,G03,022,1F,G09,029,1F,G07,028,1F*43
$PGLOR,2,SAT,4,2,G06,022,1B,G22,014,1F,R03,026,1F,G16,027,1F,R05,014,33,R13,021,30*21
$PGLOR,2,SAT,4,3,G26,019,1F,G30,012,11,R20,007,30,G01,007,10,R19,007,30,G02,011,10*40
$PGLOR,2,SAT,4,4,R21,007,30,R15,021,3*01
$PGLOR,2,SIO,TxERR,0,RxERR,0,TxCNT,405,RxCNT,4122,MLFRMPKT,0,DTMS,999,DTIN,15,21,DTOUT,876,977,HATMD,71*19
$PGLOR,3,PWR,mA,26.9,RFTm,998,OscTm,1000,MeasTm,1000,UTC,044212.00*02
$GPGSV,3,1,11,23,59,017,31,03,57,121,27,09,53,316,30,07,44,219,34*76
$GPGSV,3,2,11,06,33,291,26,22,29,129,21,16,28,082,28,26,16,054,23*7C
$GPGSV,3,3,11,30,14,219,20,01,10,177,17,02,03,324,13*46
$GLGSV,3,1,10,78,71,066,21,68,58,028,28,67,29,100,28,69,27,325,17*66
$GLGSV,3,2,10,77,19,029,21,84,11,288,09,83,05,238,12,85,01,333,07*6E
$GLGSV,3,3,10,79,53,183,29,80,00,201,*66
$GPGSA,A,3,03,06,07,09,16,22,23,26,30,,,,2.5,1.2,2.2*3C
$GNGSA,A,3,03,06,07,09,16,22,23,26,30,,,,2.5,1.2,2.2*22
$GNGSA,A,3,67,68,69,78,,,,,,,,,2.5,1.2,2.2*27
$QZGSA,A,3,,,,,,,,,,,,,2.5,1.2,2.2*2A
$IMGSA,A,3,,,,,,,,,,,,,2.5,1.2,2.2*25
$PGLOR,1,FIX,1.0,1.0*20
$GPRMC,044212.00,A,3201.749084,N,03448.096088,E,016.5,262.9,280416,,,A*59
$PGLOR,SPL,20160428074211.6,POS,20160428044211.999,32.029151,34.801601,12,12,0,42,3,1.100000
$GPGGA,044213.00,3201.748815,N,03448.090167,E,1,12,1.2,22.9,M,19.1,M,,*59
$PGLOR,5,STA,044213.00,0.007,0.000,388,1,12,3,P,F,L,0,C,3,S,0002,138,2,R,33F4,TPEF,20,95,LC,,*67
$PGLOR,1,UNC,044213.00,0.022,12.0,3.3,0.21,1.14,10.3,6.1,5.1*28
$PGLOR,2,SAT,4,1,R14,021,3F,G23,029,1F,R04,024,3B,G03,026,1F,G09,030,1F,G07,029,1F*3C
$PGLOR,2,SAT,4,2,G06,023,1F,G22,024,1F,R03,029,1F,G16,025,1F,R05,017,37,R13,007,30*29
$PGLOR,2,SAT,4,3,G26,019,1F,G30,007,10,R20,007,30,G01,019,10,R19,007,30,G02,007,10*4D
$PGLOR,2,SAT,4,4,R21,007,30,R15,025,3*05
$PGLOR,2,SIO,TxERR,0,RxERR,0,TxCNT,350,RxCNT,4210,MLFRMPKT,0,DTMS,1002,DTIN,17,23,DTOUT,877,979,HATMD,73*2B
$PGLOR,3,PWR,mA,26.9,RFTm,1002,OscTm,1000,MeasTm,1000,UTC,044213.00*38
$GPGSV,3,1,11,23,59,017,31,03,57,121,27,09,53,316,30,07,44,219,34*76
$GPGSV,3,2,11,06,33,291,26,22,29,129,24,16,28,082,28,26,16,053,23*7E
$GPGSV,3,3,11,30,14,219,18,01,10,177,19,02,03,324,12*42
$GLGSV,3,1,10,78,71,066,21,68,58,028,28,67,29,100,29,69,27,325,17*67
$GLGSV,3,2,10,77,18,029,19,84,11,288,09,83,05,238,11,85,01,333,07*67
$GLGSV,3,3,10,79,53,183,29,80,00,201,*66
$GPGSA,A,3,03,06,07,09,16,22,23,26,,,,,1.8,0.9,1.6*3C
$GNGSA,A,3,03,06,07,09,16,22,23,26,,,,,1.8,0.9,1.6*22
$GNGSA,A,3,67,68,69,78,,,,,,,,,1.8,0.9,1.6*24
$QZGSA,A,3,,,,,,,,,,,,,1.8,0.9,1.6*29
$IMGSA,A,3,,,,,,,,,,,,,1.8,0.9,1.6*26
$PGLOR,1,FIX,1.0,1.0*20
$GPRMC,044213.00,A,3201.748815,N,03448.090167,E,016.5,265.2,280416,,,A*53
$PGLOR,SPL,20160428074212.6,POS,20160428044212.999,32.029147,34.801503,12,12,0,42,3,1.100000
$GPGGA,044214.00,3201.748956,N,03448.084509,E,1,12,0.8,22.5,M,19.1,M,,*56
$PGLOR,5,STA,044214.00,0.007,0.000,389,1,8,3,P,F,L,0,C,3,S,0002,147,2,R,33F4,TPEF,20,96,LC,,*51
$PGLOR,1,UNC,044214.00,0.022,8.0,3.3,0.16,0.84,6.8,4.1,6.6*22
$PGLOR,2,SAT,4,1,R14,023,3F,G23,029,1F,R04,025,3F,G03,027,1F,G09,031,1F,G07,036,1F*35
$PGLOR,2,SAT,4,2,G06,023,1F,G22,022,1F,R03,031,1F,G16,028,1F,R05,017,33,R13,011,30*28
$PGLOR,2,SAT,4,3,G26,016,13,G30,019,10,R20,007,30,G01,013,10,R19,007,30,G02,007,10*32
$PGLOR,2,SAT,4,4,R21,007,30,R15,026,3*06
$PGLOR,2,SIO,TxERR,0,RxERR,0,TxCNT,496,RxCNT,4184,MLFRMPKT,0,DTMS,998,DTIN,14,23,DTOUT,511,975,HATMD,71*13
$PGLOR,3,PWR,mA,26.9,RFTm,998,OscTm,1000,MeasTm,1000,UTC,044214.00*04
$GPGSV,3,1,11,23,59,017,31,03,57,121,27,09,53,316,31,07,44,219,36*75
$GPGSV,3,2,11,06,33,291,25,22,29,129,24,16,28,082,28,26,16,053,22*7C
$GPGSV,3,3,11,30,14,219,19,01,10,177,19,02,03,324,12*43
$GLGSV,3,1,10,78,71,066,23,68,58,028,28,67,29,100,31,69,27,325,17*6C
$GLGSV,3,2,10,77,18,029,19,84,11,288,08,83,05,238,11,85,01,333,07*66
$GLGSV,3,3,10,79,53,183,28,80,00,201,*67
$GPGSA,A,3,03,06,07,09,16,22,23,26,,,,,2.3,1.1,2.0*38
$GNGSA,A,3,03,06,07,09,16,22,23,26,,,,,2.3,1.1,2.0*26
$GNGSA,A,3,67,68,69,78,,,,,,,,,2.3,1.1,2.0*20
$QZGSA,A,3,,,,,,,,,,,,,2.3,1.1,2.0*2D
$IMGSA,A,3,,,,,,,,,,,,,2.3,1.1,2.0*22
$PGLOR,1,FIX,1.0,1.0*20
$GPRMC,044214.00,A,3201.748956,N,03448.084509,E,016.4,268.3,280416,,,A*56
$PGLOR,SPL,20160428074213.6,POS,20160428044213.999,32.029149,34.801408,8,8,0,42,3,1.100000
$GPGGA,044215.00,3201.749166,N,03448.079226,E,1,13,0.8,21.9,M,19.1,M,,*5B
$PGLOR,5,STA,044215.00,0.007,0.000,389,1,8,3,P,F,L,0,C,3,S,0002,155,2,R,33F4,TPEF,20,97,LC,,*52
$PGLOR,1,UNC,044215.00,0.022,8.0,3.3,0.19,0.89,6.9,4.1,7.1*26
$PGLOR,2,SAT,4,1,R14,025,3F,G23,030,1F,R04,023,3F,G03,029,1F,G09,031,1F,G07,034,1F*31
$PGLOR,2,SAT,4,2,G06,022,1F,G22,019,1F,R03,029,1F,G16,027,1F,R05,016,33,R13,015,33*21
$PGLOR,2,SAT,4,3,G26,023,1B,G30,012,10,R20,007,30,G01,013,10,R19,007,30,G02,007,10*4E
$PGLOR,2,SAT,4,4,R21,012,30,R15,022,3*06
$PGLOR,2,SIO,TxERR,0,RxERR,0,TxCNT,381,RxCNT,4285,MLFRMPKT,0,DTMS,1002,DTIN,15,21,DTOUT,878,981,HATMD,73*23
$PGLOR,3,PWR,mA,26.9,RFTm,1003,OscTm,1000,MeasTm,1000,UTC,044215.00*3F
$GPGSV,3,1,11,23,59,017,31,03,57,121,29,09,53,316,31,07,44,219,35*78
$GPGSV,3,2,11,06,33,291,25,22,29,129,23,16,28,082,28,26,16,053,23*7A
$GPGSV,3,3,11,30,14,219,18,01,10,177,18,02,03,324,11*40
$GLGSV,3,1,10,78,71,066,25,68,58,028,27,67,29,100,30,69,27,325,17*64
$GLGSV,3,2,10,77,18,029,18,84,11,288,08,83,05,238,10,85,01,333,12*62
$GLGSV,3,3,10,79,53,183,28,80,00,201,*67
$GPGSA,A,3,03,06,07,09,16,22,23,26,,,,,2.3,1.1,2.0*38
$GNGSA,A,3,03,06,07,09,16,22,23,26,,,,,2.3,1.1,2.0*26
$GNGSA,A,3,67,68,69,77,78,,,,,,,,2.3,1.1,2.0*20
$QZGSA,A,3,,,,,,,,,,,,,2.3,1.1,2.0*2D
$IMGSA,A,3,,,,,,,,,,,,,2.3,1.1,2.0*22
$PGLOR,1,FIX,1.0,1.0*20
$GPRMC,044215.00,A,3201.749166,N,03448.079226,E,017.1,269.7,280416,,,A*54
$PGLOR,SPL,20160428074214.6,POS,20160428044214.999,32.029153,34.801320,8,8,0,41,3,1.100000
$GPGGA,044216.00,3201.749389,N,03448.073649,E,1,13,0.8,21.9,M,19.1,M,,*5C
$PGLOR,5,STA,044216.00,0.007,0.000,388,1,8,3,P,F,L,0,C,3,S,0002,164,2,R,33F4,TPEF,20,98,LC,,*5D
$PGLOR,1,UNC,044216.00,0.021,8.0,3.2,0.18,0.84,6.9,4.0,7.3*28
$PGLOR,2,SAT,4,1,R14,025,3F,G23,030,1F,R04,021,33,G03,029,1F,G09,030,1F,G07,033,1F*40
$PGLOR,2,SAT,4,2,G06,021,1F,G22,020,1F,R03,029,1F,G16,024,1F,R05,015,33,R13,016,33*2B
$PGLOR,2,SAT,4,3,G26,026,1F,G30,007,10,R20,007,30,G01,007,10,R19,007,30,G02,007,10*4E
$PGLOR,2,SAT,4,4,R21,007,30,R15,023,3*03
$PGLOR,2,SIO,TxERR,0,RxERR,0,TxCNT,379,RxCNT,4131,MLFRMPKT,0,DTMS,998,DTIN,14,19,DTOUT,877,978,HATMD,71*12
$PGLOR,3,PWR,mA,26.9,RFTm,997,OscTm,1000,MeasTm,1000,UTC,044216.00*09
$GPGSV,3,1,11,23,59,017,31,03,57,121,29,09,53,316,31,07,44,219,35*78
$GPGSV,3,2,11,06,33,291,25,22,29,129,23,16,28,082,28,26,16,053,26*7F
$GPGSV,3,3,11,30,14,219,17,01,10,177,17,02,03,324,11*40
$GLGSV,3,1,10,78,71,066,25,68,58,028,27,67,29,100,30,69,27,325,17*64
$GLGSV,3,2,10,77,18,029,18,84,11,288,08,83,05,238,10,85,01,333,12*62
$GLGSV,3,3,10,79,53,183,27,80,00,201,*68
$GPGSA,A,3,03,06,07,09,16,22,23,26,,,,,2.0,1.0,1.7*3E
$GNGSA,A,3,03,06,07,09,16,22,23,26,,,,,2.0,1.0,1.7*20
$GNGSA,A,3,67,68,69,77,78,,,,,,,,2.0,1.0,1.7*26
$QZGSA,A,3,,,,,,,,,,,,,2.0,1.0,1.7*2B
$IMGSA,A,3,,,,,,,,,,,,,2.0,1.0,1.7*24
$PGLOR,1,FIX,1.0,1.0*20
$GPRMC,044216.00,A,3201.749389,N,03448.073649,E,018.3,270.4,280416,,,A*55
$PGLOR,SPL,20160428074215.6,POS,20160428044215.999,32.029156,34.801227,8,8,0,41,3,1.100000
$GPGGA,044217.00,3201.749820,N,03448.068222,E,1,12,0.8,22.0,M,19.1,M,,*5D
$PGLOR,5,STA,044217.00,0.007,0.000,388,1,8,3,P,F,L,0,C,3,S,0002,173,2,R,33F4,TPEF,20,99,LC,,*5B
$PGLOR,1,UNC,044217.00,0.022,8.0,3.2,0.28,1.32,6.9,4.0,8.2*2B
$PGLOR,2,SAT,4,1,R14,026,3B,G23,028,1F,R04,021,3F,G03,030,1F,G09,027,1F,G07,035,1F*33
$PGLOR,2,SAT,4,2,G06,023,1F,G22,021,1F,R03,030,1F,G16,021,1F,R05,010,30,R13,015,33*20
$PGLOR,2,SAT,4,3,G26,022,1B,G30,013,10,R20,007,30,G01,007,10,R19,007,30,G02,007,10*4B
$PGLOR,2,SAT,4,4,R21,007,30,R15,026,3*06
$PGLOR,2,SIO,TxERR,0,RxERR,0,TxCNT,369,RxCNT,4278,MLFRMPKT,0,DTMS,1002,DTIN,15,23,DTOUT,703,980,HATMD,73*27
$PGLOR,3,PWR,mA,26.9,RFTm,1003,OscTm,1000,MeasTm,1000,UTC,044217.00*3D
$GPGSV,3,1,11,23,59,017,31,03,57,121,30,09,53,316,31,07,44,219,35*70
$GPGSV,3,2,11,06,33,291,24,22,29,129,23,16,28,082,27,26,16,053,26*71
$GPGSV,3,3,11,30,14,219,17,01,10,177,16,02,03,324,10*40
$GLGSV,3,1,10,78,71,066,26,68,58,028,26,67,29,100,30,69,27,325,16*67
$GLGSV,3,2,10,77,18,029,18,84,11,288,08,83,05,238,10,85,01,333,11*61
$GLGSV,3,3,10,79,53,183,27,80,00,201,*68
$GPGSA,A,3,03,06,07,09,16,22,23,26,,,,,2.6,1.1,2.3*3E
$GNGSA,A,3,03,06,07,09,16,22,23,26,,,,,2.6,1.1,2.3*20
$GNGSA,A,3,67,68,77,78,,,,,,,,,2.6,1.1,2.3*29
$QZGSA,A,3,,,,,,,,,,,,,2.6,1.1,2.3*2B
$IMGSA,A,3,,,,,,,,,,,,,2.6,1.1,2.3*24
$PGLOR,1,FIX,1.0,1.0*20
$GPRMC,044217.00,A,3201.749820,N,03448.068222,E,017.5,271.5,280416,,,A*56
$PGLOR,SPL,20160428074216.6,POS,20160428044216.999,32.029164,34.801137,8,8,0,41,3,1.100000
$GPGGA,044218.00,3201.750275,N,03448.062920,E,1,11,0.8,22.6,M,19.1,M,,*56
$PGLOR,5,STA,044218.00,0.007,0.000,388,1,8,3,P,F,L,0,C,3,S,0002,181,2,R,33F4,TPEF,20,100,LC,,*68
$PGLOR,1,UNC,044218.00,0.022,8.0,3.2,0.30,1.64,6.9,4.1,9.4*28
$PGLOR,2,SAT,4,1,R14,024,3B,G23,026,1F,R04,019,33,G03,029,1F,G09,024,1F,G07,033,1F*4C
$PGLOR,2,SAT,4,2,G06,022,1F,G22,019,1F,R03,030,1F,G16,023,1F,R05,007,30,R13,010,30*28
$PGLOR,2,SAT,4,3,G26,018,13,G30,007,10,R20,007,30,G01,007,10,R19,014,30,G02,007,10*34
$PGLOR,2,SAT,4,4,R21,007,30,R15,025,3*05
$PGLOR,2,SIO,TxERR,0,RxERR,0,TxCNT,410,RxCNT,4148,MLFRMPKT,0,DTMS,998,DTIN,14,17,DTOUT,877,980,HATMD,71*1D
$PGLOR,3,PWR,mA,26.9,RFTm,998,OscTm,1000,MeasTm,1000,UTC,044218.00*08
$GPGSV,3,1,11,23,59,018,30,03,57,121,30,09,53,316,30,07,44,219,35*7F
$GPGSV,3,2,11,06,33,291,24,22,29,129,22,16,28,082,27,26,16,053,25*73
$GPGSV,3,3,11,30,14,219,16,01,10,177,15,02,03,324,10*42
$GLGSV,3,1,10,78,71,066,26,68,58,028,25,67,29,100,30,69,27,325,15*67
$GLGSV,3,2,10,77,18,029,17,84,11,288,08,83,05,238,14,85,01,333,11*6A
$GLGSV,3,3,10,79,53,183,27,80,00,201,*68
$GPGSA,A,3,03,06,07,09,16,22,23,26,,,,,2.7,1.2,2.4*3B
$GNGSA,A,3,03,06,07,09,16,22,23,26,,,,,2.7,1.2,2.4*25
$GNGSA,A,3,67,68,78,,,,,,,,,,2.7,1.2,2.4*2C
$QZGSA,A,3,,,,,,,,,,,,,2.7,1.2,2.4*2E
$IMGSA,A,3,,,,,,,,,,,,,2.7,1.2,2.4*21
$PGLOR,1,FIX,1.0,1.0*20
$GPRMC,044218.00,A,3201.750275,N,03448.062920,E,017.1,271.9,280416,,,A*50
$PGLOR,SPL,20160428074217.6,POS,20160428044217.999,32.029171,34.801049,8,8,0,42,3,1.100000
$GPGGA,044219.00,3201.750729,N,03448.057424,E,1,12,0.8,23.3,M,19.1,M,,*53
$PGLOR,5,STA,044219.00,0.007,0.000,388,1,8,3,P,F,L,0,C,3,S,0002,190,2,R,33F4,TPEF,20,101,LC,,*68
$PGLOR,1,UNC,044219.00,0.022,8.0,3.2,0.71,3.96,6.8,4.2,9.8*2D
$PGLOR,2,SAT,4,1,R14,023,3B,G23,024,1F,R04,022,3F,G03,029,1F,G09,027,1F,G07,028,1F*3D
$PGLOR,2,SAT,4,2,G06,020,1B,G22,023,1F,R03,026,1F,G16,026,1F,R05,012,33,R13,011,30*23
$PGLOR,2,SAT,4,3,G26,016,1F,G30,013,10,R20,008,30,G01,007,10,R19,012,30,G02,007,10*43
$PGLOR,2,SAT,4,4,R21,007,30,R15,024,3*04
$PGLOR,2,SIO,TxERR,0,RxERR,0,TxCNT,457,RxCNT,4226,MLFRMPKT,0,DTMS,1002,DTIN,15,24,DTOUT,878,978,HATMD,73*25
$PGLOR,3,PWR,mA,26.9,RFTm,1002,OscTm,1000,MeasTm,1000,UTC,044219.00*32
$GPGSV,3,1,11,23,59,018,30,03,57,121,29,09,53,316,30,07,44,219,34*76
$GPGSV,3,2,11,06,33,291,24,22,29,129,23,16,28,082,27,26,16,053,24*73
$GPGSV,3,3,11,30,14,219,15,01,10,177,14,02,03,324,10*40
$GLGSV,3,1,10,78,71,066,25,68,58,028,25,67,29,100,30,69,27,325,15*64
$GLGSV,3,2,10,77,18,029,16,84,11,288,08,83,05,238,14,85,01,333,10*6A
$GLGSV,3,3,10,79,53,183,27,80,00,201,*68
$GPGSA,A,3,03,06,07,09,16,22,23,26,,,,,2.5,1.2,2.2*3F
$GNGSA,A,3,03,06,07,09,16,22,23,26,,,,,2.5,1.2,2.2*21
$GNGSA,A,3,67,68,69,78,,,,,,,,,2.5,1.2,2.2*27
$QZGSA,A,3,,,,,,,,,,,,,2.5,1.2,2.2*2A
$IMGSA,A,3,,,,,,,,,,,,,2.5,1.2,2.2*25
$PGLOR,1,FIX,1.0,1.0*20
$GPRMC,044219.00,A,3201.750729,N,03448.057424,E,016.9,273.4,280416,,,A*54
$PGLOR,SPL,20160428074218.6,POS,20160428044218.999,32.029179,34.800957,8,8,0,42,3,1.100000
$GPGGA,044220.00,3201.749664,N,03448.052374,E,1,12,1.6,23.3,M,19.1,M,,*51
$PGLOR,5,STA,044220.00,0.007,0.000,388,1,16,1,P,F,L,0,C,3,S,0002,198,2,R,33F4,TPEF,20,102,LC,,*54
$PGLOR,1,UNC,044220.00,0.023,16.0,3.4,0.31,1.54,13.8,8.1,0.9*24
$PGLOR,2,SAT,4,1,R14,023,3B,G23,024,1F,R04,023,3F,G03,027,1F,G09,029,1F,G07,029,1F*3D
$PGLOR,2,SAT,4,2,G06,015,1F,G22,021,1F,R03,023,17,G16,027,1F,R05,017,37,R13,012,30*54
$PGLOR,2,SAT,4,3,G26,015,1F,G30,017,10,R20,008,30,G01,011,10,R19,007,30,G02,007,10*47
$PGLOR,2,SAT,4,4,R21,007,30,R15,021,3*01
$PGLOR,2,SIO,TxERR,0,RxERR,0,TxCNT,376,RxCNT,4220,MLFRMPKT,0,DTMS,998,DTIN,14,17,DTOUT,876,980,HATMD,71*16
$PGLOR,3,PWR,mA,26.9,RFTm,998,OscTm,1000,MeasTm,1000,UTC,044220.00*03
$GPGSV,3,1,11,23,59,018,29,03,57,121,29,09,53,316,30,07,44,219,34*7E
$GPGSV,3,2,11,06,33,291,23,22,29,129,22,16,28,082,27,26,16,053,23*72
$GPGSV,3,3,11,30,14,219,17,01,10,177,14,02,03,324,10*42
$GLGSV,3,1,10,78,71,066,25,68,58,028,25,67,29,100,29,69,27,325,17*6E
$GLGSV,3,2,10,77,18,029,16,84,11,288,08,83,05,238,13,85,01,333,10*6D
$GLGSV,3,3,10,79,53,183,26,80,00,201,*69
$GPGSA,A,3,03,06,07,09,16,22,23,26,,,,,1.9,0.9,1.7*3C
$GNGSA,A,3,03,06,07,09,16,22,23,26,,,,,1.9,0.9,1.7*22
$GNGSA,A,3,67,68,69,78,,,,,,,,,1.9,0.9,1.7*24
$QZGSA,A,3,,,,,,,,,,,,,1.9,0.9,1.7*29
$IMGSA,A,3,,,,,,,,,,,,,1.9,0.9,1.7*26
$PGLOR,1,FIX,1.0,1.0*20
$GPRMC,044220.00,A,3201.749664,N,03448.052374,E,017.9,255.5,280416,,,A*5D
$PGLOR,SPL,20160428074219.6,POS,20160428044219.999,32.029161,34.800873,16,16,0,42,3,1.100000
$GPGGA,044221.00,3201.748403,N,03448.045495,E,1,12,1.2,23.8,M,19.1,M,,*53
$PGLOR,5,STA,044221.00,0.007,0.000,387,1,12,3,P,F,L,0,C,3,S,0002,209,2,R,33F4,TPEF,20,103,LC,,*56
$PGLOR,1,UNC,044221.00,0.023,12.0,3.4,0.23,0.90,10.3,6.2,-1.6*0D
$PGLOR,2,SAT,4,1,R14,021,37,G23,026,1F,R04,024,33,G03,027,1F,G09,030,1F,G07,032,1F*38
$PGLOR,2,SAT,4,2,G06,010,10,G22,017,1F,R03,020,1F,G16,027,1F,R05,017,33,R13,012,37*53
$PGLOR,2,SAT,4,3,G26,014,1F,G30,019,10,R20,007,30,G01,012,10,R19,007,30,G02,012,10*40
$PGLOR,2,SAT,4,4,R21,007,30,R15,025,3*05
$PGLOR,2,SIO,TxERR,0,RxERR,0,TxCNT,397,RxCNT,4241,MLFRMPKT,0,DTMS,1002,DTIN,14,20,DTOUT,878,982,HATMD,73*2F
$PGLOR,3,PWR,mA,26.9,RFTm,1002,OscTm,1000,MeasTm,1000,UTC,044221.00*39
$GPGSV,3,1,11,23,59,018,29,03,57,121,29,09,53,316,30,07,44,219,34*7E
$GPGSV,3,2,11,06,33,291,22,22,29,129,22,16,28,082,27,26,16,053,22*72
$GPGSV,3,3,11,30,14,219,19,01,10,177,14,02,03,324,12*4E
$GLGSV,3,1,10,78,71,066,25,68,58,028,25,67,29,100,28,69,27,325,17*6F
$GLGSV,3,2,10,77,18,029,15,84,11,288,08,83,05,238,12,85,01,333,10*6F
$GLGSV,3,3,10,79,53,183,26,80,00,201,*69
$GPGSA,A,3,03,07,09,16,22,23,26,,,,,,2.1,1.1,1.8*37
$GNGSA,A,3,03,07,09,16,22,23,26,,,,,,2.1,1.1,1.8*29
$GNGSA,A,3,67,68,69,77,78,,,,,,,,2.1,1.1,1.8*29
$QZGSA,A,3,,,,,,,,,,,,,2.1,1.1,1.8*24
$IMGSA,A,3,,,,,,,,,,,,,2.1,1.1,1.8*2B
$PGLOR,1,FIX,1.0,1.0*20
$GPRMC,044221.00,A,3201.748403,N,03448.045495,E,021.3,255.9,280416,,,A*53
$PGLOR,SPL,20160428074220.6,POS,20160428044220.999,32.029140,34.800758,12,12,0,43,3,1.100000
$GPGGA,044222.00,3201.747195,N,03448.038226,E,1,12,1.2,24.0,M,19.1,M,,*5E
$PGLOR,5,STA,044222.00,0.007,0.000,388,1,12,3,P,F,L,0,C,3,S,0002,221,2,R,33F4,TPEF,20,104,LC,,*57
$PGLOR,1,UNC,044222.00,0.023,12.0,3.5,0.21,0.74,10.4,6.1,-3.8*0F
$PGLOR,2,SAT,4,1,R14,023,3B,G23,027,1F,R04,023,3B,G03,029,1F,G09,031,1F,G07,032,1F*37
$PGLOR,2,SAT,4,2,G06,009,10,G22,020,1F,R03,019,17,G16,028,1F,R05,021,37,R13,013,3F*5A
$PGLOR,2,SAT,4,3,G26,022,1F,G30,018,10,R20,007,30,G01,014,10,R19,013,30,G02,024,10*42
$PGLOR,2,SAT,4,4,R21,007,30,R15,025,3*05
$PGLOR,2,SIO,TxERR,0,RxERR,0,TxCNT,379,RxCNT,4169,MLFRMPKT,0,DTMS,998,DTIN,15,18,DTOUT,752,980,HATMD,71*10
$PGLOR,3,PWR,mA,26.9,RFTm,998,OscTm,1000,MeasTm,1000,UTC,044222.00*01
$GPGSV,3,1,11,23,59,018,28,03,57,121,29,09,53,316,31,07,44,219,33*79
$GPGSV,3,2,11,06,33,291,20,22,29,129,22,16,28,082,28,26,16,053,22*7F
$GPGSV,3,3,11,30,14,219,19,01,10,177,14,02,03,324,24*4B
$GLGSV,3,1,10,78,71,066,25,68,58,028,25,67,29,100,27,69,27,325,21*65
$GLGSV,3,2,10,77,18,029,15,84,11,288,08,83,05,238,13,85,01,333,09*66
$GLGSV,3,3,10,79,53,183,26,80,00,201,*69
$GPGSA,A,3,03,07,09,16,22,23,26,,,,,,2.2,1.0,1.9*34
$GNGSA,A,3,03,07,09,16,22,23,26,,,,,,2.2,1.0,1.9*2A
$GNGSA,A,3,67,68,69,77,78,,,,,,,,2.2,1.0,1.9*2A
$QZGSA,A,3,,,,,,,,,,,,,2.2,1.0,1.9*27
$IMGSA,A,3,,,,,,,,,,,,,2.2,1.0,1.9*28
$PGLOR,1,FIX,1.0,1.0*20
$GPRMC,044222.00,A,3201.747195,N,03448.038226,E,023.0,257.7,280416,,,A*5C
$PGLOR,SPL,20160428074221.6,POS,20160428044221.999,32.029120,34.800637,12,12,0,43,3,1.100000
$GPGGA,044223.00,3201.745742,N,03448.030057,E,1,12,1.2,23.9,M,19.1,M,,*53
$PGLOR,5,STA,044223.00,0.007,0.000,389,1,12,3,P,F,L,0,C,3,S,0002,234,2,R,33F4,TPEF,20,105,LC,,*52
$PGLOR,1,UNC,044223.00,0.023,12.0,3.5,0.22,0.75,10.3,6.2,-3.7*07
$PGLOR,2,SAT,4,1,R14,023,3B,G23,027,1F,R04,026,3F,G03,029,1F,G09,028,1F,G07,031,1F*3D
$PGLOR,2,SAT,4,2,G06,008,10,G22,019,1F,R03,019,17,G16,028,1F,R05,022,3F,R13,018,37*59
$PGLOR,2,SAT,4,3,G26,025,1F,G30,011,10,R20,015,30,G01,007,10,R19,007,30,G02,007,10*49
$PGLOR,2,SAT,4,4,R21,007,30,R15,023,3*03
$PGLOR,2,SIO,TxERR,0,RxERR,0,TxCNT,381,RxCNT,4222,MLFRMPKT,0,DTMS,1003,DTIN,15,21,DTOUT,878,981,HATMD,74*28
$PGLOR,3,PWR,mA,26.9,RFTm,1003,OscTm,1000,MeasTm,1000,UTC,044223.00*3A
$GPGSV,3,1,11,23,59,018,28,03,57,121,29,09,53,316,31,07,44,219,33*79
$GPGSV,3,2,11,06,33,291,19,22,29,129,21,16,28,082,28,26,16,053,25*71
$GPGSV,3,3,11,30,14,219,18,01,10,177,14,02,03,324,23*4D
$GLGSV,3,1,10,78,71,066,24,68,58,028,26,67,29,100,27,69,27,325,22*64
$GLGSV,3,2,10,77,18,029,18,84,11,288,15,83,05,238,12,85,01,333,09*66
$GLGSV,3,3,10,79,53,183,26,80,00,201,*69
$GPGSA,A,3,03,07,09,16,22,23,26,,,,,,1.9,1.0,1.7*32
$GNGSA,A,3,03,07,09,16,22,23,26,,,,,,1.9,1.0,1.7*2C
$GNGSA,A,3,67,68,69,77,78,,,,,,,,1.9,1.0,1.7*2C
$QZGSA,A,3,,,,,,,,,,,,,1.9,1.0,1.7*21
$IMGSA,A,3,,,,,,,,,,,,,1.9,1.0,1.7*2E
$PGLOR,1,FIX,1.0,1.0*20
$GPRMC,044223.00,A,3201.745742,N,03448.030057,E,024.9,258.4,280416,,,A*5D
$PGLOR,SPL,20160428074222.6,POS,20160428044222.999,32.029096,34.800501,12,12,0,43,3,1.100000
$GPGGA,044224.00,3201.744270,N,03448.021392,E,1,12,1.2,23.5,M,19.1,M,,*57
$PGLOR,5,STA,044224.00,0.007,0.000,389,1,12,3,P,F,L,0,C,3,S,0002,248,2,R,33F4,TPEF,20,106,LC,,*5D
$PGLOR,1,UNC,044224.00,0.023,12.0,3.6,0.39,1.11,10.3,6.2,-3.9*04
$PGLOR,2,SAT,4,1,R14,023,3F,G23,026,1F,R04,025,3F,G03,028,1F,G09,023,1F,G07,032,1F*32
$PGLOR,2,SAT,4,2,G06,009,10,G22,019,1B,R03,020,17,G16,027,1F,R05,017,3F,R13,016,37*51
$PGLOR,2,SAT,4,3,G26,029,1F,G30,007,10,R20,016,30,G01,007,10,R19,007,30,G02,007,10*41
$PGLOR,2,SAT,4,4,R21,007,30,R15,024,3*04
$PGLOR,2,SIO,TxERR,0,RxERR,0,TxCNT,477,RxCNT,4161,MLFRMPKT,0,DTMS,998,DTIN,15,22,DTOUT,875,975,HATMD,72*1B
$PGLOR,3,PWR,mA,26.9,RFTm,997,OscTm,1000,MeasTm,1000,UTC,044224.00*08
$GPGSV,3,1,11,23,59,018,28,03,57,121,29,09,53,316,30,07,44,219,33*78
$GPGSV,3,2,11,06,33,291,18,22,29,129,21,16,28,082,28,26,16,053,29*7C
$GPGSV,3,3,11,30,14,219,17,01,10,177,13,02,03,324,21*47
$GLGSV,3,1,10,78,71,066,24,68,58,028,26,67,29,100,26,69,27,325,21*66
$GLGSV,3,2,10,77,18,029,17,84,11,288,16,83,05,238,12,85,01,333,09*6A
$GLGSV,3,3,10,79,53,183,25,80,00,201,*6A
$GPGSA,A,3,03,07,09,16,22,23,26,,,,,,1.8,1.0,1.5*31
$GNGSA,A,3,03,07,09,16,22,23,26,,,,,,1.8,1.0,1.5*2F
$GNGSA,A,3,67,68,69,77,78,,,,,,,,1.8,1.0,1.5*2F
$QZGSA,A,3,,,,,,,,,,,,,1.8,1.0,1.5*22
$IMGSA,A,3,,,,,,,,,,,,,1.8,1.0,1.5*2D
$PGLOR,1,FIX,1.0,1.0*20
$GPRMC,044224.00,A,3201.744270,N,03448.021392,E,026.2,258.2,280416,,,A*5A
$PGLOR,SPL,20160428074223.6,POS,20160428044223.999,32.029071,34.800357,12,12,0,43,4,1.100000
$GPGGA,044225.00,3201.742649,N,03448.013413,E,1,12,1.6,23.2,M,19.1,M,,*52
$PGLOR,5,STA,044225.00,0.007,0.000,389,1,16,3,P,F,L,0,C,3,S,0002,260,2,R,33F4,TPEF,20,107,LC,,*53
$PGLOR,1,UNC,044225.00,0.020,16.0,3.6,0.31,1.06,13.5,8.6,-0.9*00
$PGLOR,2,SAT,4,1,R14,023,3F,G23,025,1F,R04,025,37,G03,028,1F,G09,018,10,G07,034,1F*38
$PGLOR,2,SAT,4,2,G06,011,13,G22,018,13,R03,020,17,G16,029,1F,R05,016,31,R13,012,37*57
$PGLOR,2,SAT,4,3,G26,035,1F,G30,009,10,R20,007,30,G01,015,10,R19,007,30,G02,007,10*41
$PGLOR,2,SAT,4,4,R21,007,30,R15,026,3*06
$PGLOR,2,SIO,TxERR,0,RxERR,0,TxCNT,350,RxCNT,4274,MLFRMPKT,0,DTMS,1002,DTIN,15,24,DTOUT,553,978,HATMD,74*21
$PGLOR,3,PWR,mA,26.9,RFTm,1002,OscTm,1000,MeasTm,1000,UTC,044225.00*3D
$GPGSV,3,1,11,23,59,018,28,03,57,121,29,09,53,316,29,07,44,219,34*77
$GPGSV,3,2,11,06,33,291,17,22,29,129,21,16,28,082,29,26,16,053,35*7F
$GPGSV,3,3,11,30,14,219,16,01,10,177,15,02,03,324,20*41
$GLGSV,3,1,10,78,71,066,24,68,58,028,26,67,29,100,25,69,27,325,21*65
$GLGSV,3,2,10,77,18,029,17,84,11,288,15,83,05,238,11,85,01,333,09*6A
$GLGSV,3,3,10,79,53,183,26,80,00,201,*69
$GPGSA,A,3,03,06,07,16,22,23,26,,,,,,2.1,1.3,1.7*35
$GNGSA,A,3,03,06,07,16,22,23,26,,,,,,2.1,1.3,1.7*2B
$GNGSA,A,3,67,68,69,77,78,,,,,,,,2.1,1.3,1.7*24
$QZGSA,A,3,,,,,,,,,,,,,2.1,1.3,1.7*29
$IMGSA,A,3,,,,,,,,,,,,,2.1,1.3,1.7*26
$PGLOR,1,FIX,1.0,1.0*20
$GPRMC,044225.00,A,3201.742649,N,03448.013413,E,025.2,255.0,280416,,,A*50
$PGLOR,SPL,20160428074224.6,POS,20160428044224.999,32.029044,34.800224,16,16,0,42,4,1.100000
$GPGGA,044226.00,3201.741017,N,03448.005429,E,1,12,1.6,22.9,M,19.1,M,,*5B
$PGLOR,5,STA,044226.00,0.007,0.000,389,1,16,3,P,F,L,0,C,3,S,0002,273,2,R,33F4,TPEF,20,108,LC,,*5D
$PGLOR,1,UNC,044226.00,0.019,16.0,3.6,0.39,1.39,13.3,8.9,2.8*2A
$PGLOR,2,SAT,4,1,R14,024,3F,G23,020,10,R04,021,37,G03,028,1F,G09,014,11,G07,034,1F*45
$PGLOR,2,SAT,4,2,G06,020,1F,G22,021,17,R03,024,1F,G16,027,1F,R05,015,31,R13,014,3F*21
$PGLOR,2,SAT,4,3,G26,034,1F,G30,007,10,R20,007,30,G01,007,10,R19,016,30,G02,007,10*4D
$PGLOR,2,SAT,4,4,R21,007,30,R15,028,3*08
$PGLOR,2,SIO,TxERR,0,RxERR,0,TxCNT,405,RxCNT,4154,MLFRMPKT,0,DTMS,998,DTIN,14,18,DTOUT,876,980,HATMD,72*19
$PGLOR,3,PWR,mA,26.9,RFTm,998,OscTm,1000,MeasTm,1000,UTC,044226.00*05
$GPGSV,3,1,11,23,59,018,27,03,56,121,29,09,53,316,27,07,44,219,34*77
$GPGSV,3,2,11,06,33,291,20,22,29,129,21,16,28,082,28,26,16,053,35*7A
$GPGSV,3,3,11,30,14,219,15,01,10,177,14,02,03,324,18*48
$GLGSV,3,1,10,78,71,066,24,68,58,028,25,67,29,100,25,69,27,325,20*67
$GLGSV,3,2,10,77,18,029,17,84,11,288,14,83,05,238,16,85,01,333,09*6C
$GLGSV,3,3,10,79,53,183,28,80,00,201,*67
$GPGSA,A,3,03,06,07,09,16,22,26,,,,,,1.9,1.0,1.6*34
$GNGSA,A,3,03,06,07,09,16,22,26,,,,,,1.9,1.0,1.6*2A
$GNGSA,A,3,67,68,69,77,78,,,,,,,,1.9,1.0,1.6*2D
$QZGSA,A,3,,,,,,,,,,,,,1.9,1.0,1.6*20
$IMGSA,A,3,,,,,,,,,,,,,1.9,1.0,1.6*2F
$PGLOR,1,FIX,1.0,1.0*20
$GPRMC,044226.00,A,3201.741017,N,03448.005429,E,025.3,254.8,280416,,,A*5B
$PGLOR,SPL,20160428074225.6,POS,20160428044225.999,32.029017,34.800090,16,16,0,42,4,1.100000
$GPGGA,044227.00,3201.739320,N,03447.997228,E,1,11,1.6,23.0,M,19.1,M,,*53
$PGLOR,5,STA,044227.00,0.007,0.000,389,1,16,3,P,F,L,0,C,3,S,0002,287,2,R,33F4,TPEF,20,109,LC,,*56
$PGLOR,1,UNC,044227.00,0.019,16.0,3.6,0.21,0.76,13.3,8.8,2.3*22
$PGLOR,2,SAT,4,1,R14,023,3F,G23,015,11,R04,015,33,G03,028,1F,G09,027,1F,G07,036,1F*33
$PGLOR,2,SAT,4,2,G06,023,1B,G22,023,1F,R03,024,1F,G16,029,1F,R05,015,30,R13,009,30*20
$PGLOR,2,SAT,4,3,G26,031,1F,G30,015,10,R20,007,30,G01,007,10,R19,013,30,G02,013,10*4B
$PGLOR,2,SAT,4,4,R21,007,30,R15,030,3*01
$PGLOR,2,SIO,TxERR,0,RxERR,0,TxCNT,347,RxCNT,4197,MLFRMPKT,0,DTMS,1001,DTIN,14,18,DTOUT,879,983,HATMD,73*22
$PGLOR,3,PWR,mA,26.9,RFTm,1002,OscTm,1000,MeasTm,1000,UTC,044227.00*3F
$GPGSV,3,1,11,23,59,018,26,03,56,121,29,09,53,316,27,07,44,219,36*74
$GPGSV,3,2,11,06,33,291,23,22,29,129,23,16,28,082,29,26,16,053,34*7B
$GPGSV,3,3,11,30,14,219,15,01,10,177,13,02,03,324,18*4F
$GLGSV,3,1,10,78,71,066,24,68,58,028,24,67,29,100,25,69,27,325,20*66
$GLGSV,3,2,10,77,18,029,16,84,11,288,13,83,05,238,16,85,01,333,08*6B
$GLGSV,3,3,10,79,53,183,30,80,00,201,*6E
$GPGSA,A,3,03,06,07,09,16,22,23,26,,,,,2.4,1.3,2.1*3C
$GNGSA,A,3,03,06,07,09,16,22,23,26,,,,,2.4,1.3,2.1*22
$GNGSA,A,3,67,68,78,,,,,,,,,,2.4,1.3,2.1*2B
$QZGSA,A,3,,,,,,,,,,,,,2.4,1.3,2.1*29
$IMGSA,A,3,,,,,,,,,,,,,2.4,1.3,2.1*26
$PGLOR,1,FIX,1.0,1.0*20
$GPRMC,044227.00,A,3201.739320,N,03447.997228,E,024.6,254.4,280416,,,A*50
$PGLOR,SPL,20160428074226.6,POS,20160428044226.999,32.028989,34.799954,16,16,0,42,4,1.100000
$GPGGA,044228.00,3201.737868,N,03447.989888,E,1,11,1.2,23.6,M,19.1,M,,*58
$PGLOR,5,STA,044228.00,0.007,0.000,389,1,12,3,P,F,L,0,C,3,S,0002,298,2,R,33F4,TPEF,20,110,LC,,*5B
$PGLOR,1,UNC,044228.00,0.020,12.0,3.5,0.19,0.72,10.0,6.6,0.7*29
$PGLOR,2,SAT,4,1,R14,022,3F,G23,012,10,R04,014,31,G03,028,1F,G09,030,1F,G07,036,1F*31
$PGLOR,2,SAT,4,2,G06,025,1F,G22,022,1F,R03,024,1F,G16,027,1F,R05,015,33,R13,007,30*20
$PGLOR,2,SAT,4,3,G26,027,1F,G30,017,10,R20,012,30,G01,007,10,R19,010,30,G02,015,10*4F
$PGLOR,2,SAT,4,4,R21,010,30,R15,031,3*06
$PGLOR,2,SIO,TxERR,0,RxERR,0,TxCNT,372,RxCNT,4186,MLFRMPKT,0,DTMS,999,DTIN,14,22,DTOUT,509,977,HATMD,72*14
$PGLOR,3,PWR,mA,26.9,RFTm,998,OscTm,1000,MeasTm,1000,UTC,044228.00*0B
$GPGSV,3,1,11,23,59,018,24,03,56,121,29,09,53,316,30,07,44,219,36*70
$GPGSV,3,2,11,06,33,291,25,22,29,129,23,16,28,082,28,26,16,053,34*7C
$GPGSV,3,3,11,30,14,219,17,01,10,177,13,02,03,323,18*4A
$GLGSV,3,1,10,78,71,065,24,68,58,028,23,67,29,100,25,69,27,325,19*68
$GLGSV,3,2,10,77,18,029,15,84,11,288,13,83,05,238,15,85,01,333,10*62
$GLGSV,3,3,10,79,53,183,31,80,00,201,*6F
$GPGSA,A,3,03,06,07,09,16,22,26,,,,,,2.1,1.1,1.8*30
$GNGSA,A,3,03,06,07,09,16,22,26,,,,,,2.1,1.1,1.8*2E
$GNGSA,A,3,67,68,69,78,,,,,,,,,2.1,1.1,1.8*29
$QZGSA,A,3,,,,,,,,,,,,,2.1,1.1,1.8*24
$IMGSA,A,3,,,,,,,,,,,,,2.1,1.1,1.8*2B
$PGLOR,1,FIX,1.0,1.0*20
$GPRMC,044228.00,A,3201.737868,N,03447.989888,E,022.5,254.9,280416,,,A*51
$PGLOR,SPL,20160428074227.6,POS,20160428044227.999,32.028964,34.799831,12,12,0,43,4,1.100000
$GPGGA,044229.00,3201.736804,N,03447.983281,E,1,11,1.2,23.7,M,19.1,M,,*5A
$PGLOR,5,STA,044229.00,0.007,0.000,388,1,12,3,P,F,L,0,C,3,S,0002,309,2,R,33F4,TPEF,20,111,LC,,*53
$PGLOR,1,UNC,044229.00,0.020,12.0,3.4,0.20,0.91,10.0,6.6,-1.2*07
$PGLOR,2,SAT,4,1,R14,023,3F,G23,022,1F,R04,014,31,G03,027,1F,G09,030,1F,G07,035,1F*49
$PGLOR,2,SAT,4,2,G06,028,1F,G22,021,1F,R03,024,13,G16,028,1F,R05,016,33,R13,007,30*57
$PGLOR,2,SAT,4,3,G26,022,10,G30,029,10,R20,010,30,G01,007,10,R19,007,30,G02,007,10*36
$PGLOR,2,SAT,4,4,R21,010,30,R15,032,3*05
$PGLOR,2,SIO,TxERR,0,RxERR,0,TxCNT,488,RxCNT,4219,MLFRMPKT,0,DTMS,1002,DTIN,14,20,DTOUT,879,982,HATMD,74*2D
$PGLOR,3,PWR,mA,26.9,RFTm,1002,OscTm,1000,MeasTm,1000,UTC,044229.00*31
$GPGSV,3,1,11,23,59,018,24,03,56,121,28,09,53,316,30,07,44,219,36*71
$GPGSV,3,2,11,06,33,291,28,22,29,129,23,16,28,082,28,26,16,053,33*76
$GPGSV,3,3,11,30,14,219,29,01,10,177,12,02,03,323,16*48
$GLGSV,3,1,10,78,71,065,24,68,58,028,22,67,29,100,25,69,27,325,19*69
$GLGSV,3,2,10,77,18,029,14,84,11,288,13,83,05,238,14,85,01,333,10*62
$GLGSV,3,3,10,79,53,183,32,80,00,201,*6C
$GPGSA,A,3,03,06,07,09,16,22,23,,,,,,2.4,1.2,2.1*39
$GNGSA,A,3,03,06,07,09,16,22,23,,,,,,2.4,1.2,2.1*27
$GNGSA,A,3,67,68,69,78,,,,,,,,,2.4,1.2,2.1*25
$QZGSA,A,3,,,,,,,,,,,,,2.4,1.2,2.1*28
$IMGSA,A,3,,,,,,,,,,,,,2.4,1.2,2.1*27
$PGLOR,1,FIX,1.0,1.0*20
$GPRMC,044229.00,A,3201.736804,N,03447.983281,E,018.6,256.7,280416,,,A*54
$PGLOR,SPL,20160428074228.6,POS,20160428044228.999,32.028947,34.799721,12,12,0,43,3,1.100000
$GPGGA,044230.00,3201.735766,N,03447.977099,E,1,10,1.2,24.2,M,19.1,M,,*59
$PGLOR,5,STA,044230.00,0.007,0.000,388,1,12,3,P,F,L,0,C,3,S,0002,319,2,R,33F4,TPEF,20,112,LC,,*59
$PGLOR,1,UNC,044230.00,0.021,12.0,3.4,0.20,0.94,10.1,6.5,-1.4*0F
$PGLOR,2,SAT,4,1,R14,022,3B,G23,030,1F,R04,023,3B,G03,029,1F,G09,028,1F,G07,032,1F*38
$PGLOR,2,SAT,4,2,G06,027,1F,G22,019,1F,R03,023,1F,G16,028,1F,R05,025,30,R13,009,30*2C
$PGLOR,2,SAT,4,3,G26,017,10,G30,025,10,R20,011,30,G01,013,10,R19,007,30,G02,007,10*38
$PGLOR,2,SAT,4,4,R21,007,30,R15,030,3*01
$PGLOR,2,SIO,TxERR,0,RxERR,0,TxCNT,371,RxCNT,4190,MLFRMPKT,0,DTMS,998,DTIN,16,24,DTOUT,872,974,HATMD,72*17
$PGLOR,3,PWR,mA,26.9,RFTm,998,OscTm,1000,MeasTm,1000,UTC,044230.00*02
$GPGSV,3,1,11,23,59,018,30,03,56,121,29,09,53,316,30,07,44,219,35*76
$GPGSV,3,2,11,06,33,291,28,22,29,129,23,16,28,082,28,26,16,053,31*74
$GPGSV,3,3,11,30,14,219,28,01,10,177,13,02,03,323,16*48
$GLGSV,3,1,10,78,71,065,24,68,58,028,23,67,29,100,25,69,27,325,25*67
$GLGSV,3,2,10,77,18,029,14,84,11,288,13,83,05,238,14,85,01,333,10*62
$GLGSV,3,3,10,79,53,183,32,80,00,201,*6C
$GPGSA,A,3,03,06,07,09,16,22,23,,,,,,2.7,1.2,2.4*3F
$GNGSA,A,3,03,06,07,09,16,22,23,,,,,,2.7,1.2,2.4*21
$GNGSA,A,3,67,68,78,,,,,,,,,,2.7,1.2,2.4*2C
$QZGSA,A,3,,,,,,,,,,,,,2.7,1.2,2.4*2E
$IMGSA,A,3,,,,,,,,,,,,,2.7,1.2,2.4*21
$PGLOR,1,FIX,1.0,1.0*20
$GPRMC,044230.00,A,3201.735766,N,03447.977099,E,018.1,258.2,280416,,,A*58
$PGLOR,SPL,20160428074229.6,POS,20160428044229.999,32.028929,34.799618,12,12,0,43,3,1.100000
$GPGGA,044231.00,3201.735037,N,03447.970388,E,1,11,1.2,24.7,M,19.1,M,,*5B
$PGLOR,5,STA,044231.00,0.007,0.000,387,1,12,3,P,F,L,0,C,3,S,0002,330,2,R,33F4,TPEF,20,113,LC,,*5D
$PGLOR,1,UNC,044231.00,0.021,12.0,3.3,0.20,0.83,10.1,6.4,0.8*2E
$PGLOR,2,SAT,4,1,R14,023,3B,G23,029,1F,R04,022,3F,G03,029,1F,G09,028,1B,G07,032,1F*30
$PGLOR,2,SAT,4,2,G06,025,1F,G22,017,13,R03,026,1F,G16,025,1F,R05,020,30,R13,016,30*56
$PGLOR,2,SAT,4,3,G26,012,10,G30,025,1F,R20,018,30,G01,009,10,R19,007,30,G02,012,10*4D
$PGLOR,2,SAT,4,4,R21,007,30,R15,027,3*07
$PGLOR,2,SIO,TxERR,0,RxERR,0,TxCNT,350,RxCNT,4253,MLFRMPKT,0,DTMS,1001,DTIN,13,22,DTOUT,701,979,HATMD,73*24
$PGLOR,3,PWR,mA,26.9,RFTm,1002,OscTm,1000,MeasTm,1000,UTC,044231.00*38
$GPGSV,3,1,11,23,59,018,30,03,56,121,29,09,53,316,29,07,44,219,35*7E
$GPGSV,3,2,11,06,33,290,27,22,29,129,22,16,28,082,28,26,16,053,29*72
$GPGSV,3,3,11,30,14,219,28,01,10,177,13,02,03,323,15*4B
$GLGSV,3,1,10,78,71,065,24,68,58,028,23,67,29,100,26,69,27,325,24*65
$GLGSV,3,2,10,77,18,029,16,84,11,288,18,83,05,238,13,85,01,333,10*6C
$GLGSV,3,3,10,79,53,183,32,80,00,201,*6C
$GPGSA,A,3,03,06,07,09,16,22,23,30,,,,,2.3,1.1,2.0*3F
$GNGSA,A,3,03,06,07,09,16,22,23,30,,,,,2.3,1.1,2.0*21
$GNGSA,A,3,67,68,78,,,,,,,,,,2.3,1.1,2.0*2F
$QZGSA,A,3,,,,,,,,,,,,,2.3,1.1,2.0*2D
$IMGSA,A,3,,,,,,,,,,,,,2.3,1.1,2.0*22
$PGLOR,1,FIX,1.0,1.0*20
$GPRMC,044231.00,A,3201.735037,N,03447.970388,E,020.0,261.5,280416,,,A*59
$PGLOR,SPL,20160428074230.6,POS,20160428044230.999,32.028917,34.799506,12,12,0,44,3,1.100000
$GPGGA,044232.00,3201.734902,N,03447.963850,E,1,12,1.2,25.4,M,19.1,M,,*5B
$PGLOR,5,STA,044232.00,0.007,0.000,388,1,12,3,P,F,L,0,C,3,S,0002,340,2,R,33F4,TPEF,20,114,LC,,*51
$PGLOR,1,UNC,044232.00,0.021,12.0,3.2,0.38,1.52,10.1,6.4,5.3*26
$PGLOR,2,SAT,4,1,R14,024,3B,G23,033,1F,R04,024,37,G03,030,1F,G09,027,1F,G07,032,1F*48
$PGLOR,2,SAT,4,2,G06,024,1F,G22,020,1B,R03,026,1F,G16,025,1F,R05,019,30,R13,021,37*2B
$PGLOR,2,SAT,4,3,G26,011,10,G30,022,1F,R20,018,30,G01,007,10,R19,007,30,G02,012,10*47
$PGLOR,2,SAT,4,4,R21,016,30,R15,025,3*05
$PGLOR,2,SIO,TxERR,0,RxERR,0,TxCNT,403,RxCNT,4166,MLFRMPKT,0,DTMS,999,DTIN,13,17,DTOUT,876,981,HATMD,72*16
$PGLOR,3,PWR,mA,26.9,RFTm,998,OscTm,1000,MeasTm,1000,UTC,044232.00*00
$GPGSV,3,1,11,23,59,018,33,03,56,121,30,09,53,316,29,07,44,219,35*75
$GPGSV,3,2,11,06,33,290,27,22,29,129,22,16,28,082,28,26,16,053,27*7C
$GPGSV,3,3,11,30,14,219,27,01,10,177,12,02,03,323,15*45
$GLGSV,3,1,10,78,71,065,24,68,58,028,24,67,29,100,26,69,27,325,24*62
$GLGSV,3,2,10,77,18,029,21,84,11,288,18,83,05,238,12,85,01,333,16*6F
$GLGSV,3,3,10,79,53,183,31,80,00,201,*6F
$GPGSA,A,3,03,06,07,09,16,22,23,30,,,,,1.7,0.9,1.5*37
$GNGSA,A,3,03,06,07,09,16,22,23,30,,,,,1.7,0.9,1.5*29
$GNGSA,A,3,67,68,77,78,,,,,,,,,1.7,0.9,1.5*27
$QZGSA,A,3,,,,,,,,,,,,,1.7,0.9,1.5*25
$IMGSA,A,3,,,,,,,,,,,,,1.7,0.9,1.5*2A
$PGLOR,1,FIX,1.0,1.0*20
$GPRMC,044232.00,A,3201.734902,N,03447.963850,E,020.8,265.2,280416,,,A*53
$PGLOR,SPL,20160428074231.6,POS,20160428044231.999,32.028915,34.799398,12,12,0,44,3,1.100000
$GPGGA,044233.00,3201.736094,N,03447.957173,E,1,14,0.8,25.6,M,19.1,M,,*5E
$PGLOR,5,STA,044233.00,0.007,0.000,388,1,8,1,P,F,L,0,C,3,S,0002,351,2,R,33F4,TPEF,20,115,LC,,*68
$PGLOR,1,UNC,044233.00,0.020,8.0,3.1,0.56,2.61,6.7,4.3,12.2*16
$PGLOR,2,SAT,4,1,R14,023,3F,G23,034,1F,R04,027,33,G03,029,1F,G09,031,1F,G07,032,1F*44
$PGLOR,2,SAT,4,2,G06,025,1F,G22,025,1F,R03,027,1F,G16,028,1F,R05,019,37,R13,017,33*21
$PGLOR,2,SAT,4,3,G26,009,10,G30,020,1B,R20,014,33,G01,017,10,R19,015,30,G02,007,10*41
$PGLOR,2,SAT,4,4,R21,007,30,R15,024,3*04
$PGLOR,2,SIO,TxERR,0,RxERR,0,TxCNT,355,RxCNT,4227,MLFRMPKT,0,DTMS,1001,DTIN,16,25,DTOUT,877,976,HATMD,73*21
$PGLOR,3,PWR,mA,26.9,RFTm,1002,OscTm,1000,MeasTm,1000,UTC,044233.00*3A
$GPGSV,3,1,11,23,59,018,34,03,56,121,30,09,53,316,31,07,44,219,34*7A
$GPGSV,3,2,11,06,33,290,27,22,29,129,25,16,28,082,28,26,16,053,25*79
$GPGSV,3,3,11,30,14,219,27,01,10,177,17,02,03,323,14*41
$GLGSV,3,1,10,78,71,065,24,68,58,028,27,67,29,100,27,69,27,325,23*67
$GLGSV,3,2,10,77,18,029,20,84,11,288,18,83,05,238,15,85,01,333,15*6A
$GLGSV,3,3,10,79,53,183,30,80,00,201,*6E
$GPGSA,A,3,03,06,07,09,16,22,23,30,,,,,2.0,1.0,1.7*39
$GNGSA,A,3,03,06,07,09,16,22,23,30,,,,,2.0,1.0,1.7*27
$GNGSA,A,3,67,68,69,77,78,84,,,,,,,2.0,1.0,1.7*2A
$QZGSA,A,3,,,,,,,,,,,,,2.0,1.0,1.7*2B
$IMGSA,A,3,,,,,,,,,,,,,2.0,1.0,1.7*24
$PGLOR,1,FIX,1.0,1.0*20
$GPRMC,044233.00,A,3201.736094,N,03447.957173,E,019.9,279.3,280416,,,A*5E
$PGLOR,SPL,20160428074232.6,POS,20160428044232.999,32.028935,34.799286,8,8,0,45,3,1.100000
$GPGGA,044234.00,3201.737580,N,03447.950951,E,1,13,0.8,26.5,M,19.1,M,,*50
$PGLOR,5,STA,044234.00,0.007,0.000,388,1,8,3,P,F,L,0,C,3,S,0002,361,2,R,33F4,TPEF,20,116,LC,,*6D
$PGLOR,1,UNC,044234.00,0.021,8.0,3.1,0.16,0.68,6.9,4.1,17.4*10
$PGLOR,2,SAT,4,1,R14,023,3F,G23,034,1F,R04,028,3B,G03,027,1F,G09,036,1F,G07,032,1F*33
$PGLOR,2,SAT,4,2,G06,023,1B,G22,026,1F,R03,024,1F,G16,031,1F,R05,015,33,R13,012,33*26
$PGLOR,2,SAT,4,3,G26,016,10,G30,016,11,R20,011,30,G01,007,10,R19,009,30,G02,009,10*3D
$PGLOR,2,SAT,4,4,R21,007,30,R15,023,3*03
$PGLOR,2,SIO,TxERR,0,RxERR,0,TxCNT,497,RxCNT,4214,MLFRMPKT,0,DTMS,998,DTIN,14,24,DTOUT,875,973,HATMD,71*16
$PGLOR,3,PWR,mA,26.9,RFTm,998,OscTm,1000,MeasTm,1000,UTC,044234.00*06
$GPGSV,3,1,11,23,59,018,34,03,56,121,30,09,53,316,36,07,44,219,34*7D
$GPGSV,3,2,11,06,33,290,26,22,29,129,26,16,28,082,31,26,16,053,25*73
$GPGSV,3,3,11,30,14,219,26,01,10,177,16,02,03,323,14*41
$GLGSV,3,1,10,78,71,065,23,68,58,028,28,67,29,100,27,69,27,325,23*6F
$GLGSV,3,2,10,77,18,029,20,84,11,288,17,83,05,238,14,85,01,333,14*65
$GLGSV,3,3,10,79,53,183,29,80,00,201,*66
$GPGSA,A,3,03,06,07,09,16,22,23,30,,,,,3.0,1.4,2.6*3E
$GNGSA,A,3,03,06,07,09,16,22,23,30,,,,,3.0,1.4,2.6*20
$GNGSA,A,3,67,68,69,77,78,,,,,,,,3.0,1.4,2.6*21
$QZGSA,A,3,,,,,,,,,,,,,3.0,1.4,2.6*2C
$IMGSA,A,3,,,,,,,,,,,,,3.0,1.4,2.6*23
$PGLOR,1,FIX,1.0,1.0*20
$GPRMC,044234.00,A,3201.737580,N,03447.950951,E,019.4,283.4,280416,,,A*58
$PGLOR,SPL,20160428074233.6,POS,20160428044233.999,32.028960,34.799183,8,8,0,46,3,1.100000
$GPGGA,044235.00,3201.740200,N,03447.945283,E,1,11,0.8,27.2,M,19.1,M,,*5A
$PGLOR,5,STA,044235.00,0.007,0.000,388,1,8,1,P,F,L,0,C,3,S,0002,371,2,R,33F4,TPEF,20,117,LC,,*6E
$PGLOR,1,UNC,044235.00,0.021,8.0,3.1,0.32,1.51,6.9,4.0,23.3*1D
$PGLOR,2,SAT,4,1,R14,024,3B,G23,034,1F,R04,028,3F,G03,025,1F,G09,035,1F,G07,030,1F*37
$PGLOR,2,SAT,4,2,G06,019,1B,G22,023,1F,R03,023,1F,G16,031,1F,R05,010,30,R13,007,30*2C
$PGLOR,2,SAT,4,3,G26,018,10,G30,018,1F,R20,007,30,G01,019,10,R19,020,30,G02,007,10*47
$PGLOR,2,SAT,4,4,R21,014,30,R15,021,3*03
$PGLOR,2,SIO,TxERR,0,RxERR,0,TxCNT,385,RxCNT,4350,MLFRMPKT,0,DTMS,1003,DTIN,13,24,DTOUT,877,978,HATMD,74*22
$PGLOR,3,PWR,mA,26.9,RFTm,1002,OscTm,1000,MeasTm,1000,UTC,044235.00*3C
$GPGSV,3,1,11,23,59,018,34,03,56,121,29,09,53,316,36,07,44,219,34*75
$GPGSV,3,2,11,06,33,290,26,22,29,129,26,16,28,082,31,26,16,053,24*72
$GPGSV,3,3,11,30,14,219,25,01,10,177,19,02,03,323,13*4A
$GLGSV,3,1,10,78,71,065,24,68,58,028,28,67,29,100,26,69,27,325,21*6B
$GLGSV,3,2,10,77,18,029,18,84,11,288,16,83,05,238,20,85,01,333,14*68
$GLGSV,3,3,10,79,53,183,29,80,00,201,*66
$GPGSA,A,3,03,06,07,09,16,22,23,30,,,,,2.5,1.2,2.2*38
$GNGSA,A,3,03,06,07,09,16,22,23,30,,,,,2.5,1.2,2.2*26
$GNGSA,A,3,67,68,78,,,,,,,,,,2.5,1.2,2.2*28
$QZGSA,A,3,,,,,,,,,,,,,2.5,1.2,2.2*2A
$IMGSA,A,3,,,,,,,,,,,,,2.5,1.2,2.2*25
$PGLOR,1,FIX,1.0,1.0*20
$GPRMC,044235.00,A,3201.740200,N,03447.945283,E,019.5,296.9,280416,,,A*5E
$PGLOR,SPL,20160428074234.6,POS,20160428044234.999,32.029003,34.799088,8,8,0,46,3,1.100000
$GPGGA,044236.00,3201.742785,N,03447.940096,E,1,12,0.8,27.4,M,19.1,M,,*55
$PGLOR,5,STA,044236.00,0.007,0.000,387,1,8,3,P,F,L,0,C,3,S,0002,380,2,R,33F4,TPEF,20,118,LC,,*61
$PGLOR,1,UNC,044236.00,0.021,8.0,3.1,0.23,0.90,7.0,4.0,26.4*18
$PGLOR,2,SAT,4,1,R14,025,3F,G23,032,1F,R04,028,3F,G03,024,1F,G09,033,1F,G07,031,1F*32
$PGLOR,2,SAT,4,2,G06,018,1F,G22,026,1F,R03,026,1F,G16,026,1F,R05,013,33,R13,007,30*2F
$PGLOR,2,SAT,4,3,G26,017,10,G30,017,13,R20,011,30,G01,025,10,R19,014,30,G02,007,10*3D
$PGLOR,2,SAT,4,4,R21,011,30,R15,020,3*07
$PGLOR,2,SIO,TxERR,0,RxERR,0,TxCNT,378,RxCNT,4192,MLFRMPKT,0,DTMS,997,DTIN,21,32,DTOUT,746,966,HATMD,71*18
$PGLOR,3,PWR,mA,26.9,RFTm,998,OscTm,1000,MeasTm,1000,UTC,044236.00*04
$GPGSV,3,1,11,23,59,018,34,03,56,121,29,09,53,316,36,07,44,220,33*78
$GPGSV,3,2,11,06,33,290,25,22,29,129,26,16,28,082,31,26,16,053,23*76
$GPGSV,3,3,11,30,14,219,24,01,10,177,25,02,03,323,12*45
$GLGSV,3,1,10,78,71,065,25,68,58,028,28,67,29,100,26,69,27,325,20*6B
$GLGSV,3,2,10,77,18,029,17,84,11,288,16,83,05,238,19,85,01,333,14*6D
$GLGSV,3,3,10,79,53,183,28,80,00,201,*67
$GPGSA,A,3,03,06,07,09,16,22,23,30,,,,,2.3,1.1,2.0*3F
$GNGSA,A,3,03,06,07,09,16,22,23,30,,,,,2.3,1.1,2.0*21
$GNGSA,A,3,67,68,69,78,,,,,,,,,2.3,1.1,2.0*20
$QZGSA,A,3,,,,,,,,,,,,,2.3,1.1,2.0*2D
$IMGSA,A,3,,,,,,,,,,,,,2.3,1.1,2.0*22
$PGLOR,1,FIX,1.0,1.0*20
$GPRMC,044236.00,A,3201.742785,N,03447.940096,E,019.3,297.5,280416,,,A*5F
$PGLOR,SPL,20160428074235.6,POS,20160428044235.999,32.029046,34.799002,8,8,0,47,3,1.100000
$GPGGA,044237.00,3201.745496,N,03447.935168,E,1,12,0.8,27.6,M,19.1,M,,*52
$PGLOR,5,STA,044237.00,0.007,0.000,387,1,8,3,P,F,L,0,C,3,S,0002,389,2,R,33F4,TPEF,20,119,LC,,*68
$PGLOR,1,UNC,044237.00,0.022,8.0,3.1,0.28,1.18,7.0,3.9,28.7*13
$PGLOR,2,SAT,4,1,R14,026,3F,G23,031,1F,R04,026,3F,G03,024,1F,G09,033,1F,G07,031,1F*3C
$PGLOR,2,SAT,4,2,G06,022,1B,G22,029,1F,R03,029,1F,G16,022,1F,R05,008,30,R13,014,33*2E
$PGLOR,2,SAT,4,3,G26,007,10,G30,023,1B,R20,008,30,G01,022,10,R19,010,30,G02,007,10*41
$PGLOR,2,SAT,4,4,R21,009,30,R15,016,3*0B
$PGLOR,2,SIO,TxERR,0,RxERR,0,TxCNT,398,RxCNT,4281,MLFRMPKT,0,DTMS,1003,DTIN,14,19,DTOUT,877,984,HATMD,74*29
$PGLOR,3,PWR,mA,26.9,RFTm,1003,OscTm,1000,MeasTm,1000,UTC,044237.00*3F
$GPGSV,3,1,11,23,59,018,34,03,56,121,28,09,53,316,35,07,44,220,33*7A
$GPGSV,3,2,11,06,33,290,25,22,29,129,29,16,28,082,30,26,16,053,22*79
$GPGSV,3,3,11,30,14,219,24,01,10,177,25,02,03,323,12*45
$GLGSV,3,1,10,78,71,065,26,68,58,028,28,67,29,100,29,69,27,325,19*6D
$GLGSV,3,2,10,77,18,029,17,84,11,288,15,83,05,238,18,85,01,333,13*68
$GLGSV,3,3,10,79,53,183,26,80,00,201,*69
$GPGSA,A,3,03,06,07,09,16,22,23,30,,,,,2.9,1.3,2.6*31
$GNGSA,A,3,03,06,07,09,16,22,23,30,,,,,2.9,1.3,2.6*2F
$GNGSA,A,3,67,68,77,78,,,,,,,,,2.9,1.3,2.6*21
$QZGSA,A,3,,,,,,,,,,,,,2.9,1.3,2.6*23
$IMGSA,A,3,,,,,,,,,,,,,2.9,1.3,2.6*2C
$PGLOR,1,FIX,1.0,1.0*20
$GPRMC,044237.00,A,3201.745496,N,03447.935168,E,017.9,299.5,280416,,,A*50
$PGLOR,SPL,20160428074236.6,POS,20160428044236.999,32.029092,34.798919,8,8,0,47,3,1.100000
$GPGGA,044238.00,3201.748496,N,03447.930326,E,1,13,0.8,27.6,M,19.1,M,,*5C
$PGLOR,5,STA,044238.00,0.007,0.000,387,1,8,3,P,F,L,0,C,3,S,0002,399,2,R,33F4,TPEF,20,120,LC,,*6C
$PGLOR,1,UNC,044238.00,0.022,8.0,3.1,0.17,0.79,7.1,3.8,30.8*10
$PGLOR,2,SAT,4,1,R14,026,3B,G23,032,1F,R04,027,3F,G03,025,1F,G09,032,1F,G07,032,1F*39
$PGLOR,2,SAT,4,2,G06,021,1F,G22,029,1F,R03,029,1F,G16,018,1F,R05,007,30,R13,013,33*28
$PGLOR,2,SAT,4,3,G26,007,10,G30,024,1F,R20,013,30,G01,023,1F,R19,012,30,G02,007,10*3D
$PGLOR,2,SAT,4,4,R21,007,30,R15,015,3*06
$PGLOR,2,SIO,TxERR,0,RxERR,0,TxCNT,373,RxCNT,4200,MLFRMPKT,0,DTMS,998,DTIN,14,16,DTOUT,871,982,HATMD,72*16
$PGLOR,3,PWR,mA,26.9,RFTm,998,OscTm,1000,MeasTm,1000,UTC,044238.00*0A
$GPGSV,3,1,11,23,59,018,34,03,56,121,28,09,53,316,35,07,44,220,33*7A
$GPGSV,3,2,11,06,33,290,24,22,29,129,29,16,28,082,29,26,16,053,20*72
$GPGSV,3,3,11,30,14,219,24,01,10,177,25,02,03,323,11*46
$GLGSV,3,1,10,78,70,065,26,68,58,028,28,67,29,100,29,69,27,325,18*6D
$GLGSV,3,2,10,77,18,029,17,84,11,288,15,83,05,238,18,85,01,333,13*68
$GLGSV,3,3,10,79,53,183,25,80,00,201,*6A
$GPGSA,A,3,01,03,06,07,09,16,22,23,30,,,,2.1,1.0,1.9*37
$GNGSA,A,3,01,03,06,07,09,16,22,23,30,,,,2.1,1.0,1.9*29
$GNGSA,A,3,67,68,77,78,,,,,,,,,2.1,1.0,1.9*26
$QZGSA,A,3,,,,,,,,,,,,,2.1,1.0,1.9*24
$IMGSA,A,3,,,,,,,,,,,,,2.1,1.0,1.9*2B
$PGLOR,1,FIX,1.0,1.0*20
$GPRMC,044238.00,A,3201.748496,N,03447.930326,E,017.3,302.3,280416,,,A*50
$PGLOR,SPL,20160428074237.6,POS,20160428044237.999,32.029142,34.798839,8,8,0,47,3,1.100000
$GPGGA,044239.00,3201.752145,N,03447.926230,E,1,10,0.8,27.6,M,19.1,M,,*5F
$PGLOR,5,STA,044239.00,0.007,0.000,387,1,8,1,P,F,L,0,C,3,S,0002,408,2,R,33F4,TPEF,20,121,LC,,*61
$PGLOR,1,UNC,044239.00,0.022,8.0,3.1,0.18,0.82,7.1,3.8,35.4*13
$PGLOR,2,SAT,4,1,R14,026,3B,G23,033,1F,R04,027,30,G03,028,1F,G09,031,1F,G07,031,1F*43
$PGLOR,2,SAT,4,2,G06,019,1F,G22,026,1F,R03,028,1F,G16,015,13,R05,009,30,R13,008,30*52
$PGLOR,2,SAT,4,3,G26,007,10,G30,028,10,R20,008,30,G01,025,1F,R19,007,30,G02,007,10*4F
$PGLOR,2,SAT,4,4,R21,007,30,R15,014,3*07
$PGLOR,2,SIO,TxERR,0,RxERR,0,TxCNT,459,RxCNT,4319,MLFRMPKT,0,DTMS,1002,DTIN,15,23,DTOUT,555,978,HATMD,74*24
$PGLOR,3,PWR,mA,26.9,RFTm,1002,OscTm,1000,MeasTm,1000,UTC,044239.00*30
$GPGSV,3,1,11,23,59,018,34,03,56,121,28,09,53,316,35,07,44,220,33*7A
$GPGSV,3,2,11,06,33,290,24,22,29,129,29,16,28,082,27,26,16,053,19*76
$GPGSV,3,3,11,30,14,219,28,01,10,177,25,02,03,323,11*4A
$GLGSV,3,1,10,78,70,065,26,68,58,028,28,67,29,100,29,69,27,325,17*62
$GLGSV,3,2,10,77,18,029,16,84,11,288,14,83,05,238,16,85,01,333,12*67
$GLGSV,3,3,10,79,53,183,24,80,00,201,*6B
$GPGSA,A,3,01,03,06,07,09,16,22,23,,,,,2.5,1.2,2.2*3A
$GNGSA,A,3,01,03,06,07,09,16,22,23,,,,,2.5,1.2,2.2*24
$GNGSA,A,3,67,78,,,,,,,,,,,2.5,1.2,2.2*26
$QZGSA,A,3,,,,,,,,,,,,,2.5,1.2,2.2*2A
$IMGSA,A,3,,,,,,,,,,,,,2.5,1.2,2.2*25
$PGLOR,1,FIX,1.0,1.0*20
$GPRMC,044239.00,A,3201.752145,N,03447.926230,E,017.3,315.0,280416,,,A*55
$PGLOR,SPL,20160428074238.6,POS,20160428044238.999,32.029202,34.798771,8,8,0,47,3,1.100000
$GPGGA,044240.00,3201.755454,N,03447.922265,E,1,13,0.8,27.6,M,19.1,M,,*54
$PGLOR,5,STA,044240.00,0.007,0.000,388,1,8,3,P,F,L,0,C,3,S,0002,417,2,R,33F4,TPEF,20,122,LC,,*6F
$PGLOR,1,UNC,044240.00,0.022,8.0,3.1,0.19,0.95,7.1,3.8,37.8*14
$PGLOR,2,SAT,4,1,R14,024,3B,G23,031,1F,R04,024,3F,G03,026,1F,G09,030,1F,G07,032,1F*3A
$PGLOR,2,SAT,4,2,G06,019,1F,G22,027,1F,R03,026,1B,G16,018,1F,R05,008,30,R13,020,33*29
$PGLOR,2,SAT,4,3,G26,007,10,G30,025,1F,R20,012,30,G01,024,1F,R19,009,30,G02,007,10*30
$PGLOR,2,SAT,4,4,R21,014,30,R15,015,3*04
$PGLOR,2,SIO,TxERR,0,RxERR,0,TxCNT,429,RxCNT,4208,MLFRMPKT,0,DTMS,997,DTIN,18,28,DTOUT,870,969,HATMD,71*1F
$PGLOR,3,PWR,mA,26.8,RFTm,996,OscTm,1000,MeasTm,1000,UTC,044240.00*0A
$GPGSV,3,1,11,23,59,018,33,03,56,121,28,09,53,316,34,07,44,220,33*7C
$GPGSV,3,2,11,06,33,290,23,22,29,129,29,16,28,082,26,26,16,053,18*71
$GPGSV,3,3,11,30,14,219,27,01,10,177,25,02,03,323,11*45
$GLGSV,3,1,10,78,70,065,26,68,58,028,27,67,29,100,29,69,27,325,16*6C
$GLGSV,3,2,10,77,18,029,20,84,11,288,14,83,05,238,16,85,01,333,14*64
$GLGSV,3,3,10,79,53,183,23,80,00,201,*6C
$GPGSA,A,3,01,03,06,07,09,16,22,23,30,,,,2.2,1.1,1.9*35
$GNGSA,A,3,01,03,06,07,09,16,22,23,30,,,,2.2,1.1,1.9*2B
$GNGSA,A,3,67,68,77,78,,,,,,,,,2.2,1.1,1.9*24
$QZGSA,A,3,,,,,,,,,,,,,2.2,1.1,1.9*26
$IMGSA,A,3,,,,,,,,,,,,,2.2,1.1,1.9*29
$PGLOR,1,FIX,1.0,1.0*20
$GPRMC,044240.00,A,3201.755454,N,03447.922265,E,016.0,312.6,280416,,,A*5E
$PGLOR,SPL,20160428074239.6,POS,20160428044239.999,32.029258,34.798704,8,8,0,47,3,1.100000
$GPGGA,044241.00,3201.757678,N,03447.918100,E,1,13,1.2,27.3,M,19.1,M,,*5C
$PGLOR,5,STA,044241.00,0.007,0.000,388,1,12,1,P,F,L,0,C,3,S,0002,425,2,R,33F4,TPEF,20,123,LC,,*57
$PGLOR,1,UNC,044241.00,0.022,12.0,3.2,0.24,1.46,10.6,5.6,35.4*1B
$PGLOR,2,SAT,4,1,R14,023,3F,G23,027,1F,R04,021,3F,G03,026,1F,G09,025,1F,G07,033,1F*3E
$PGLOR,2,SAT,4,2,G06,017,1F,G22,029,1F,R03,027,1F,G16,023,1F,R05,007,30,R13,019,33*21
$PGLOR,2,SAT,4,3,G26,007,10,G30,024,1F,R20,012,30,G01,022,1B,R19,017,30,G02,007,10*3C
$PGLOR,2,SAT,4,4,R21,007,30,R15,017,3*04
$PGLOR,2,SIO,TxERR,0,RxERR,0,TxCNT,361,RxCNT,4289,MLFRMPKT,0,DTMS,1003,DTIN,17,27,DTOUT,876,976,HATMD,74*25
$PGLOR,3,PWR,mA,26.9,RFTm,1003,OscTm,1000,MeasTm,1000,UTC,044241.00*3E
$GPGSV,3,1,11,23,59,018,33,03,56,121,28,09,53,316,33,07,44,220,33*7B
$GPGSV,3,2,11,06,33,290,23,22,29,129,29,16,28,082,26,26,16,053,17*7E
$GPGSV,3,3,11,30,14,219,27,01,10,177,25,02,03,323,10*44
$GLGSV,3,1,10,78,70,065,26,68,58,028,27,67,29,100,29,69,27,325,15*6F
$GLGSV,3,2,10,77,18,029,20,84,11,288,14,83,05,238,17,85,01,333,13*62
$GLGSV,3,3,10,79,53,183,23,80,00,201,*6C
$GPGSA,A,3,01,03,06,07,09,16,22,23,30,,,,2.0,1.0,1.8*37
$GNGSA,A,3,01,03,06,07,09,16,22,23,30,,,,2.0,1.0,1.8*29
$GNGSA,A,3,67,68,77,78,,,,,,,,,2.0,1.0,1.8*26
$QZGSA,A,3,,,,,,,,,,,,,2.0,1.0,1.8*24
$IMGSA,A,3,,,,,,,,,,,,,2.0,1.0,1.8*2B
$PGLOR,1,FIX,1.0,1.0*20
$GPRMC,044241.00,A,3201.757678,N,03447.918100,E,014.0,296.9,280416,,,A*58
$PGLOR,SPL,20160428074240.6,POS,20160428044240.999,32.029295,34.798635,12,12,0,46,3,1.100000
$GPGGA,044242.00,3201.759625,N,03447.914296,E,1,13,1.2,26.8,M,19.1,M,,*53
$PGLOR,5,STA,044242.00,0.007,0.000,387,1,12,3,P,F,L,0,C,3,S,0002,432,2,R,33F4,TPEF,20,124,LC,,*58
$PGLOR,1,UNC,044242.00,0.022,12.0,3.2,2.34,10.69,10.3,6.1,34.0*22
$PGLOR,2,SAT,3,1,R14,022,3F,G23,026,1F,R04,025,3F,G03,024,1F,G09,020,11,G07,033,1F*4D
$PGLOR,2,SAT,3,2,G06,023,1F,G22,027,1F,R03,029,1F,G16,021,1F,R05,007,30,R13,020,33*29
$PGLOR,2,SAT,3,3,G26,028,10,G30,028,1F,R20,011,30,G01,019,1F,R15,018,3*59
$PGLOR,2,SIO,TxERR,0,RxERR,0,TxCNT,352,RxCNT,4160,MLFRMPKT,0,DTMS,996,DTIN,14,23,DTOUT,503,973,HATMD,70*1C
$PGLOR,3,PWR,mA,26.4,RFTm,996,OscTm,1000,MeasTm,1000,UTC,044242.00*04
$GPGSV,3,1,11,23,59,018,32,03,56,121,27,09,53,316,32,07,44,220,33*74
$GPGSV,3,2,11,06,33,290,23,22,29,129,29,16,28,082,26,26,16,053,28*72
$GPGSV,3,3,11,30,14,219,28,01,10,177,24,02,03,323,09*42
$GLGSV,3,1,10,78,70,065,25,68,58,029,26,67,29,100,29,69,27,325,14*6D
$GLGSV,3,2,10,77,18,029,20,84,11,288,13,83,05,238,15,85,01,333,12*66
$GLGSV,3,3,10,79,53,183,22,80,00,201,*6D
$GPGSA,A,3,01,03,06,07,09,16,22,23,30,,,,2.0,1.0,1.7*38
$GNGSA,A,3,01,03,06,07,09,16,22,23,30,,,,2.0,1.0,1.7*26
$GNGSA,A,3,67,68,77,78,,,,,,,,,2.0,1.0,1.7*29
$QZGSA,A,3,,,,,,,,,,,,,2.0,1.0,1.7*2B
$IMGSA,A,3,,,,,,,,,,,,,2.0,1.0,1.7*24
$PGLOR,1,FIX,1.0,1.0*20
$GPRMC,044242.00,A,3201.759625,N,03447.914296,E,013.1,297.5,280416,,,A*56
$PGLOR,SPL,20160428074241.6,POS,20160428044241.999,32.029327,34.798572,12,12,0,46,3,1.100000
$GPGGA,044243.00,3201.759607,N,03447.910810,E,1,14,1.2,26.4,M,19.1,M,,*59
$PGLOR,5,STA,044243.00,0.007,0.000,387,1,12,1,P,F,L,0,C,3,S,0002,437,2,R,33F4,TPEF,20,125,LC,,*5F
$PGLOR,1,UNC,044243.00,0.018,12.0,3.2,0.20,1.66,10.3,6.2,31.8*1C
$PGLOR,2,SAT,3,1,R14,021,3F,G23,024,1B,R04,023,3B,G03,027,1F,G09,016,11,G07,035,1F*4A
$PGLOR,2,SAT,3,2,G06,025,1F,G22,023,1F,R03,029,1F,G16,028,1F,R05,007,30,R13,018,33*29
$PGLOR,2,SAT,3,3,G26,033,1F,G30,027,17,R20,016,30,G01,018,1B,R15,022,3*50
$PGLOR,2,SIO,TxERR,0,RxERR,0,TxCNT,357,RxCNT,4036,MLFRMPKT,0,DTMS,999,DTIN,15,20,DTOUT,879,980,HATMD,69*12
$PGLOR,3,PWR,mA,26.5,RFTm,1000,OscTm,1000,MeasTm,1000,UTC,044243.00*33
$GPGSV,3,1,11,23,59,018,31,03,56,121,27,09,53,316,30,07,44,220,35*73
$GPGSV,3,2,11,06,33,290,25,22,29,129,28,16,28,082,28,26,16,053,33*71
$GPGSV,3,3,11,30,14,219,28,01,10,177,23,02,03,323,07*4B
$GLGSV,3,1,10,78,70,065,25,68,58,029,26,67,29,100,29,69,27,325,14*6D
$GLGSV,3,2,10,77,18,029,20,84,11,288,16,83,05,238,12,85,01,333,09*6E
$GLGSV,3,3,10,79,53,183,22,80,00,201,*6D
$GPGSA,A,3,01,03,06,07,09,16,22,23,26,30,,,1.8,1.0,1.5*35
$GNGSA,A,3,01,03,06,07,09,16,22,23,26,30,,,1.8,1.0,1.5*2B
$GNGSA,A,3,67,68,77,78,,,,,,,,,1.8,1.0,1.5*20
$QZGSA,A,3,,,,,,,,,,,,,1.8,1.0,1.5*22
$IMGSA,A,3,,,,,,,,,,,,,1.8,1.0,1.5*2D
$PGLOR,1,FIX,1.0,1.0*20
$GPRMC,044243.00,A,3201.759607,N,03447.910810,E,011.0,262.9,280416,,,A*52
$PGLOR,SPL,20160428074242.6,POS,20160428044242.999,32.029327,34.798514,12,12,0,45,3,1.100000
$GPGGA,044244.00,3201.758185,N,03447.907499,E,1,14,1.2,25.6,M,19.1,M,,*58
$PGLOR,5,STA,044244.00,0.007,0.000,388,1,12,1,P,F,L,0,C,3,S,0002,442,2,R,33F4,TPEF,20,126,LC,,*56
$PGLOR,1,UNC,044244.00,0.018,12.0,3.1,0.23,1.53,9.6,7.2,21.0*28
$PGLOR,2,SAT,3,1,R14,023,3F,G23,028,1F,R04,025,3F,G03,029,1F,G09,012,11,G07,033,1F*4E
$PGLOR,2,SAT,3,2,G06,027,1F,G22,023,1F,R03,025,13,G16,029,1F,R05,008,30,R13,021,33*56
$PGLOR,2,SAT,3,3,G26,031,1F,G30,024,1B,R20,018,30,G01,021,1B,R15,025,3*27
$PGLOR,2,SIO,TxERR,0,RxERR,0,TxCNT,433,RxCNT,3977,MLFRMPKT,0,DTMS,999,DTIN,14,19,DTOUT,880,979,HATMD,68*16
$PGLOR,3,PWR,mA,26.5,RFTm,999,OscTm,1000,MeasTm,1000,UTC,044244.00*0C
$GPGSV,3,1,11,23,59,018,31,03,56,121,29,09,53,317,29,07,44,220,35*74
$GPGSV,3,2,11,06,33,290,27,22,29,129,28,16,28,082,29,26,16,053,33*72
$GPGSV,3,3,11,30,14,219,27,01,10,177,23,02,03,323,*43
$GLGSV,3,1,10,78,70,065,25,68,58,029,26,67,29,100,29,69,27,325,13*6A
$GLGSV,3,2,10,77,18,029,21,84,11,287,18,79,53,183,25,83,05,238,09*67
$GLGSV,3,3,10,85,01,333,,80,00,201,*60
$GPGSA,A,3,01,03,06,07,09,16,22,23,26,30,,,1.9,1.0,1.6*37
$GNGSA,A,3,01,03,06,07,09,16,22,23,26,30,,,1.9,1.0,1.6*29
$GNGSA,A,3,67,68,77,78,,,,,,,,,1.9,1.0,1.6*22
$QZGSA,A,3,,,,,,,,,,,,,1.9,1.0,1.6*20
$IMGSA,A,3,,,,,,,,,,,,,1.9,1.0,1.6*2F
$PGLOR,1,FIX,1.0,1.0*20
$GPRMC,044244.00,A,3201.758185,N,03447.907499,E,012.1,236.7,280416,,,A*5F
$PGLOR,SPL,20160428074243.6,POS,20160428044243.999,32.029303,34.798458,12,12,0,45,3,1.100000
$GPGGA,044245.00,3201.756497,N,03447.904223,E,1,15,0.8,24.9,M,19.1,M,,*51
$PGLOR,5,STA,044245.00,0.007,0.000,388,1,8,3,P,F,L,0,C,3,S,0002,448,2,R,33F4,TPEF,20,127,LC,,*65
$PGLOR,1,UNC,044245.00,0.017,8.0,3.0,0.16,1.04,6.1,5.2,17.3*14
$PGLOR,2,SAT,3,1,R14,023,3B,G23,025,1F,R04,027,3F,G03,029,1F,G09,026,1B,G07,031,1F*33
$PGLOR,2,SAT,3,2,G06,028,1F,G22,030,1F,R03,022,1F,G16,024,1F,R05,007,30,R13,022,33*28
$PGLOR,2,SAT,3,3,G26,030,1F,G30,019,13,R20,018,33,G01,026,1F,R15,028,3*54
$PGLOR,2,SIO,TxERR,0,RxERR,0,TxCNT,308,RxCNT,4114,MLFRMPKT,0,DTMS,1001,DTIN,15,23,DTOUT,701,977,HATMD,69*2B
$PGLOR,3,PWR,mA,26.5,RFTm,1001,OscTm,1000,MeasTm,1000,UTC,044245.00*34
$GPGSV,3,1,11,23,59,018,30,03,56,121,29,09,53,317,28,07,44,220,34*75
$GPGSV,3,2,11,06,33,290,28,22,29,129,30,16,28,082,28,26,16,053,33*75
$GPGSV,3,3,11,30,14,219,26,01,10,177,26,02,03,323,*47
$GLGSV,3,1,10,78,70,065,25,68,58,029,27,67,29,100,28,69,27,325,12*6B
$GLGSV,3,2,10,77,18,029,22,84,11,287,18,79,53,183,28,83,05,238,*60
$GLGSV,3,3,10,85,01,333,,80,00,201,*60
$GPGSA,A,3,01,03,06,07,09,16,22,23,26,30,,,1.8,0.9,1.5*3D
$GNGSA,A,3,01,03,06,07,09,16,22,23,26,30,,,1.8,0.9,1.5*23
$GNGSA,A,3,67,68,77,78,84,,,,,,,,1.8,0.9,1.5*24
$QZGSA,A,3,,,,,,,,,,,,,1.8,0.9,1.5*2A
$IMGSA,A,3,,,,,,,,,,,,,1.8,0.9,1.5*25
$PGLOR,1,FIX,1.0,1.0*20
$GPRMC,044245.00,A,3201.756497,N,03447.904223,E,012.4,233.4,280416,,,A*51
$PGLOR,SPL,20160428074244.6,POS,20160428044244.999,32.029275,34.798404,8,8,0,44,3,1.100000
$GPGGA,044246.00,3201.753919,N,03447.901795,E,1,13,0.8,24.1,M,19.1,M,,*5F
$PGLOR,5,STA,044246.00,0.007,0.000,388,1,8,1,P,F,L,0,C,3,S,0002,454,2,R,33F4,TPEF,20,128,LC,,*66
$PGLOR,1,UNC,044246.00,0.017,8.0,3.0,0.22,1.31,6.0,5.3,-62.8*32
$PGLOR,2,SAT,3,1,R14,022,3F,G23,021,10,R04,025,3F,G03,027,1F,G09,024,13,G07,028,1F*33
$PGLOR,2,SAT,3,2,G06,028,1F,G22,028,1F,R03,026,1B,G16,023,1F,R05,018,30,R13,022,3F*5D
$PGLOR,2,SAT,3,3,G26,026,1F,G30,019,1F,R20,012,33,G01,024,10,R15,028,3*58
$PGLOR,2,SIO,TxERR,0,RxERR,0,TxCNT,357,RxCNT,3997,MLFRMPKT,0,DTMS,998,DTIN,14,21,DTOUT,879,976,HATMD,67*11
$PGLOR,3,PWR,mA,26.5,RFTm,998,OscTm,1000,MeasTm,1000,UTC,044246.00*0F
$GPGSV,3,1,11,23,59,018,29,03,56,121,29,09,53,317,28,07,44,220,34*7D
$GPGSV,3,2,11,06,33,290,28,22,29,129,30,16,28,082,28,26,16,053,32*74
$GPGSV,3,3,11,30,14,219,26,01,10,177,25,02,03,323,*44
$GLGSV,3,1,10,78,70,065,24,68,58,029,27,67,29,100,28,69,27,325,18*60
$GLGSV,3,2,10,77,18,029,22,84,11,287,17,79,53,183,28,83,05,238,*6F
$GLGSV,3,3,10,85,01,333,,80,00,201,*60
$GPGSA,A,3,03,06,07,09,16,22,26,30,,,,,1.6,0.9,1.3*35
$GNGSA,A,3,03,06,07,09,16,22,26,30,,,,,1.6,0.9,1.3*2B
$GNGSA,A,3,67,68,77,78,84,,,,,,,,1.6,0.9,1.3*2C
$QZGSA,A,3,,,,,,,,,,,,,1.6,0.9,1.3*22
$IMGSA,A,3,,,,,,,,,,,,,1.6,0.9,1.3*2D
$PGLOR,1,FIX,1.0,1.0*20
$GPRMC,044246.00,A,3201.753919,N,03447.901795,E,012.0,213.1,280416,,,A*52
$PGLOR,SPL,20160428074245.6,POS,20160428044245.999,32.029232,34.798363,8,8,0,43,3,1.100000
$GPGGA,044247.00,3201.751050,N,03447.899780,E,1,13,1.2,23.3,M,19.1,M,,*52
$PGLOR,5,STA,044247.00,0.007,0.000,387,1,12,0,P,F,L,0,C,3,S,0002,461,2,R,33F4,TPEF,20,129,LC,,*55
$PGLOR,1,UNC,044247.00,0.018,12.0,3.0,3.01,11.53,9.5,7.3,-63.9*38
$PGLOR,2,SAT,3,1,R14,021,33,G23,021,1F,R04,024,3F,G03,030,1F,G09,023,1B,G07,024,11*39
$PGLOR,2,SAT,3,2,G06,025,1F,G22,028,17,R03,027,1B,G16,024,1B,R05,007,30,R13,017,35*58
$PGLOR,2,SAT,3,3,G26,022,1F,G30,018,1F,R20,011,30,G01,021,10,R15,027,3*57
$PGLOR,2,SIO,TxERR,0,RxERR,0,TxCNT,333,RxCNT,4025,MLFRMPKT,0,DTMS,1001,DTIN,14,20,DTOUT,882,980,HATMD,68*2F
