$GPGSV,3,1,12,24,79,296,13,02,40,142,,06,38,081,,12,46,316,*7F
$GPGSV,3,2,12,13,06,178,,14,03,323,,15,21,212,,17,12,042,*70
$GPGSV,3,3,12,19,39,040,,25,17,289,,29,07,226,,32,03,322,*75
$GLGSV,2,1,06,78,60,070,,82,21,205,,77,16,119,,79,47,344,*60
$GLGSV,2,2,06,88,44,030,,81,74,194,*66
$GPGGA,,,,,,0,,,,,,,,*66
$GNGNS,,,,,,NN,,,,,,*53
$GPVTG,,T,,M,,N,,K,N*2C
$GPRMC,,V,,,,,,,,,,N*53
$GPGSA,A,1,,,,,,,,,,,,,,,*1E
$GNGSA,A,1,,,,,,,,,,,,,,,*00
$GPGSV,3,1,12,24,79,296,13,02,40,142,,06,38,081,,12,46,316,*7F
$GPGSV,3,2,12,13,06,178,,14,03,323,,15,21,212,,17,12,042,*70
$GPGSV,3,3,12,19,39,040,,25,17,289,,29,07,226,,32,03,322,*75
$GLGSV,2,1,06,78,60,070,,82,21,205,,77,16,119,,79,47,344,*60
$GLGSV,2,2,06,88,44,030,,81,74,194,*66
$GPGGA,,,,,,0,,,,,,,,*66
$GNGNS,,,,,,NN,,,,,,*53
$GPVTG,,T,,M,,N,,K,N*2C
$GPRMC,,V,,,,,,,,,,N*53
$GPGSA,A,1,,,,,,,,,,,,,,,*1E
$GNGSA,A,1,,,,,,,,,,,,,,,*00
$GPGSV,3,1,12,24,79,296,13,02,40,142,,06,38,081,,12,46,316,*7F
$GPGSV,3,2,12,13,06,178,,14,03,323,,15,21,212,,17,12,042,*70
$GPGSV,3,3,12,19,39,040,,25,17,289,,29,07,226,,32,03,322,*75
$GLGSV,2,1,06,78,60,070,,82,21,205,,77,16,119,,79,47,344,*60
$GLGSV,2,2,06,88,44,030,,81,74,194,*66
$GPGGA,,,,,,0,,,,,,,,*66
$GNGNS,,,,,,NN,,,,,,*53
$GPVTG,,T,,M,,N,,K,N*2C
$GPRMC,,V,,,,,,,,,,N*53
$GPGSA,A,1,,,,,,,,,,,,,,,*1E
$GNGSA,A,1,,,,,,,,,,,,,,,*00
$GPGSV,3,1,12,24,79,296,13,02,40,142,,06,38,081,,12,46,316,*7F
$GPGSV,3,2,12,13,06,178,,14,03,323,,15,21,212,,17,12,042,*70
$GPGSV,3,3,12,19,39,040,,25,17,289,,29,07,226,,32,03,322,*75
$GLGSV,2,1,06,78,60,070,,82,21,205,,77,16,119,,79,47,344,*60
$GLGSV,2,2,06,88,44,030,,81,74,194,*66
$GPGGA,,,,,,0,,,,,,,,*66
$GNGNS,,,,,,NN,,,,,,*53
$GPVTG,,T,,M,,N,,K,N*2C
$GPRMC,,V,,,,,,,,,,N*53
$GPGSA,A,1,,,,,,,,,,,,,,,*1E
$GNGSA,A,1,,,,,,,,,,,,,,,*00
$GPGSV,3,1,12,24,79,296,13,02,40,142,,06,38,081,,12,46,316,*7F
$GPGSV,3,2,12,13,06,178,,14,03,323,,15,21,212,,17,12,042,*70
$GPGSV,3,3,12,19,39,040,,25,17,289,,29,07,226,,32,03,322,*75
$GLGSV,2,1,06,78,60,070,,82,21,205,,77,16,119,,79,47,344,*60
$GLGSV,2,2,06,88,44,030,,81,74,194,*66
$GPGGA,,,,,,0,,,,,,,,*66
$GNGNS,,,,,,NN,,,,,,*53
$GPVTG,,T,,M,,N,,K,N*2C
$GPRMC,,V,,,,,,,,,,N*53
$GPGSA,A,1,,,,,,,,,,,,,,,*1E
$GNGSA,A,1,,,,,,,,,,,,,,,*00
$GPGSV,3,1,12,24,79,296,13,02,40,142,,06,38,081,,12,46,316,*7F
$GPGSV,3,2,12,13,06,178,,14,03,323,,15,21,212,,17,12,042,*70
$GPGSV,3,3,12,19,39,040,,25,17,289,,29,07,226,,32,03,322,*75
$GLGSV,2,1,06,78,60,070,,82,21,205,,77,16,119,,79,47,344,*60
$GLGSV,2,2,06,88,44,030,,81,74,194,*66
$GPGGA,,,,,,0,,,,,,,,*66
$GNGNS,,,,,,NN,,,,,,*53
$GPVTG,,T,,M,,N,,K,N*2C
$GPRMC,,V,,,,,,,,,,N*53
$GPGSA,A,1,,,,,,,,,,,,,,,*1E
$GNGSA,A,1,,,,,,,,,,,,,,,*00
$GPGSV,3,1,12,24,79,296,13,02,40,142,,06,38,081,,12,46,316,*7F
$GPGSV,3,2,12,13,06,178,,14,03,323,,15,21,212,,17,12,042,*70
$GPGSV,3,3,12,19,39,040,,25,17,289,,29,07,226,,32,03,322,*75
$GLGSV,2,1,06,78,60,070,,82,21,205,,77,16,119,,79,47,344,*60
$GLGSV,2,2,06,88,44,030,,81,74,194,*66
$GPGGA,,,,,,0,,,,,,,,*66
$GNGNS,,,,,,NN,,,,,,*53
$GPVTG,,T,,M,,N,,K,N*2C
$GPRMC,,V,,,,,,,,,,N*53
$GPGSA,A,1,,,,,,,,,,,,,,,*1E
$GNGSA,A,1,,,,,,,,,,,,,,,*00
$GPGSV,3,1,12,24,79,296,13,02,40,142,,06,38,081,,12,46,316,*7F
$GPGSV,3,2,12,13,06,178,,14,03,323,,15,21,212,,17,12,042,*70
$GPGSV,3,3,12,19,39,040,,25,17,289,,29,07,226,,32,03,322,*75
$GLGSV,2,1,06,82,21,205,13,81,74,194,17,78,60,070,,77,16,119,*6C
$GLGSV,2,2,06,79,47,344,,88,44,030,*6E
$GPGGA,,,,,,0,,,,,,,,*66
$GNGNS,,,,,,NN,,,,,,*53
$GPVTG,,T,,M,,N,,K,N*2C
$GPRMC,,V,,,,,,,,,,N*53
$GPGSA,A,1,,,,,,,,,,,,,,,*1E
$GNGSA,A,1,,,,,,,,,,,,,,,*00
$GPGSV,3,1,12,24,79,296,13,02,40,142,,06,38,081,,12,46,316,*7F
$GPGSV,3,2,12,13,06,178,,14,03,323,,15,21,212,,17,12,042,*70
$GPGSV,3,3,12,19,39,040,,25,17,289,,29,07,226,,32,03,322,*75
$GLGSV,2,1,06,82,21,205,14,81,74,194,19,78,60,070,,77,16,119,*65
$GLGSV,2,2,06,79,47,344,,88,44,030,*6E
$GPGGA,,,,,,0,,,,,,,,*66
$GNGNS,,,,,,NN,,,,,,*53
$GPVTG,,T,,M,,N,,K,N*2C
$GPRMC,,V,,,,,,,,,,N*53
$GPGSA,A,1,,,,,,,,,,,,,,,*1E
$GNGSA,A,1,,,,,,,,,,,,,,,*00
$GPGSV,3,1,12,06,38,081,15,12,46,316,19,24,79,296,15,02,40,142,*75
$GPGSV,3,2,12,13,06,178,,14,03,323,,15,21,212,,17,12,042,*70
$GPGSV,3,3,12,19,39,040,,25,17,289,,29,07,226,,32,03,322,*75
$GLGSV,2,1,06,82,21,205,15,81,74,194,19,78,60,070,,77,16,119,*64
$GLGSV,2,2,06,79,47,344,,88,44,030,*6E
$GPGGA,,,,,,0,,,,,,,,*66
$GNGNS,,,,,,NN,,,,,,*53
$GPVTG,,T,,M,,N,,K,N*2C
$GPRMC,,V,,,,,,,,,,N*53
$GPGSA,A,1,,,,,,,,,,,,,,,*1E
$GNGSA,A,1,,,,,,,,,,,,,,,*00
$GPGSV,3,1,12,02,40,142,19,06,38,081,17,12,46,316,19,24,79,296,21*78
$GPGSV,3,2,12,13,06,178,,14,03,323,,15,21,212,,17,12,042,*70
$GPGSV,3,3,12,19,39,040,,25,17,289,,29,07,226,,32,03,322,*75
$GLGSV,2,1,06,82,21,205,15,81,74,194,18,78,60,070,,77,16,119,*65
$GLGSV,2,2,06,79,47,344,,88,44,030,*6E
$GPGGA,,,,,,0,,,,,,,,*66
$GNGNS,,,,,,NN,,,,,,*53
$GPVTG,,T,,M,,N,,K,N*2C
$GPRMC,,V,,,,,,,,,,N*53
$GPGSA,A,1,,,,,,,,,,,,,,,*1E
$GNGSA,A,1,,,,,,,,,,,,,,,*00
$GPGSV,3,1,12,02,40,142,19,06,38,081,17,12,46,316,19,24,79,296,21*78
$GPGSV,3,2,12,13,06,178,,14,03,323,,15,21,212,,17,12,042,*70
$GPGSV,3,3,12,19,39,040,,25,17,289,,29,07,226,,32,03,322,*75
$GLGSV,2,1,06,82,21,205,15,81,74,194,18,78,60,070,,77,16,119,*65
$GLGSV,2,2,06,79,47,344,,88,44,030,*6E
$GPGGA,,,,,,0,,,,,,,,*66
$GNGNS,,,,,,NN,,,,,,*53
$GPVTG,,T,,M,,N,,K,N*2C
$GPRMC,,V,,,,,,,,,,N*53
$GPGSA,A,1,,,,,,,,,,,,,,,*1E
$GNGSA,A,1,,,,,,,,,,,,,,,*00
$GPGSV,3,1,12,02,40,142,19,06,38,081,17,12,46,316,19,15,21,212,29*73
$GPGSV,3,2,12,24,79,296,22,13,06,178,,14,03,323,,17,12,042,*73
$GPGSV,3,3,12,19,38,040,,25,17,289,,29,07,226,,32,03,320,*76
$GLGSV,2,1,06,82,22,206,27,79,47,344,17,81,74,195,18,78,60,071,*62
$GLGSV,2,2,06,77,16,119,,88,44,030,*6E
$GPGGA,,,,,,0,,,,,,,,*66
$GNGNS,,,,,,NN,,,,,,*53
$GPVTG,,T,,M,,N,,K,N*2C
$GPRMC,,V,,,,,,,,,,N*53
$GPGSA,A,1,,,,,,,,,,,,,,,*1E
$GNGSA,A,1,,,,,,,,,,,,,,,*00
$GPGSV,3,1,12,02,40,142,22,06,38,081,17,12,46,316,19,13,06,178,18*75
$GPGSV,3,2,12,15,21,212,29,17,12,042,17,19,38,040,20,24,79,296,26*77
$GPGSV,3,3,12,14,03,323,,25,17,289,,29,07,226,,32,03,320,*75
$GLGSV,2,1,06,82,22,206,22,79,47,344,16,81,74,195,18,78,60,071,*66
$GLGSV,2,2,06,77,16,119,,88,44,030,*6E
$GPGGA,134007.0,3228.098634,N,03458.162111,E,1,08,1.0,60.2,M,20.0,M,,*67
$GNGNS,134007.0,3228.098634,N,03458.162111,E,AN,08,1.0,60.2,20.0,,*5C
$GPVTG,172.0,T,169.0,M,0.0,N,0.0,K,A*29
$GPRMC,134007.0,A,3228.098634,N,03458.162111,E,0.0,172.0,240416,3.0,E,A*03
$GPGSA,A,2,02,06,12,13,15,17,19,24,,,,,1.3,1.0,0.8*31
$GNGSA,A,2,02,06,12,13,15,17,19,24,,,,,1.3,1.0,0.8*2F
$GNGSA,A,2,,,,,,,,,,,,,1.3,1.0,0.8*26
$GPGSV,3,1,12,02,40,142,27,06,38,081,17,12,46,316,18,13,06,178,19*70
$GPGSV,3,2,12,15,21,212,21,17,12,042,16,19,38,040,19,24,79,296,23*71
$GPGSV,3,3,12,29,07,226,16,14,03,323,,25,17,289,,32,03,320,*72
$GLGSV,2,1,06,82,22,206,24,79,47,344,16,81,74,195,21,78,60,071,*6A
$GLGSV,2,2,06,77,16,119,,88,44,030,*6E
$GPGGA,134008.0,3228.100539,N,03458.161027,E,1,08,1.0,61.5,M,20.0,M,,*67
$GNGNS,134008.0,3228.100539,N,03458.161027,E,AN,08,1.0,61.5,20.0,,*5C
$GPVTG,172.0,T,169.0,M,0.0,N,0.0,K,A*29
$GPRMC,134008.0,A,3228.100539,N,03458.161027,E,0.0,172.0,240416,3.0,E,A*05
$GPGSA,A,2,02,06,12,13,15,17,19,24,,,,,1.3,1.0,0.8*31
$GNGSA,A,2,02,06,12,13,15,17,19,24,,,,,1.3,1.0,0.8*2F
$GNGSA,A,2,,,,,,,,,,,,,1.3,1.0,0.8*26
$GPGSV,3,1,12,02,40,142,22,06,38,081,16,12,46,316,17,13,06,178,19*7B
$GPGSV,3,2,12,15,21,212,24,17,12,042,16,19,38,040,18,24,79,296,23*75
$GPGSV,3,3,12,29,07,226,15,14,03,323,,25,17,289,,32,03,320,*71
$GLGSV,2,1,06,82,22,206,20,79,47,344,15,81,74,195,19,78,60,071,*66
$GLGSV,2,2,06,77,16,119,,88,44,030,*6E
$GPGGA,134009.0,3228.100565,N,03458.162006,E,1,08,1.0,61.7,M,20.0,M,,*6D
$GNGNS,134009.0,3228.100565,N,03458.162006,E,AN,08,1.0,61.7,20.0,,*56
$GPVTG,172.0,T,169.0,M,0.0,N,0.0,K,A*29
$GPRMC,134009.0,A,3228.100565,N,03458.162006,E,0.0,172.0,240416,3.0,E,A*0D
$GPGSA,A,2,02,06,12,13,15,17,19,24,,,,,1.3,1.0,0.8*31
$GNGSA,A,2,02,06,12,13,15,17,19,24,,,,,1.3,1.0,0.8*2F
$GNGSA,A,2,,,,,,,,,,,,,1.3,1.0,0.8*26
$GPGSV,3,1,12,02,40,142,20,06,38,081,14,12,46,316,17,13,06,178,18*7A
$GPGSV,3,2,12,15,21,212,21,17,12,042,16,19,38,040,17,24,79,296,18*77
$GPGSV,3,3,12,29,07,226,14,14,03,323,,25,17,289,,32,03,320,*70
$GLGSV,2,1,06,82,22,206,22,79,47,344,16,81,74,195,23,78,60,071,*6E
$GLGSV,2,2,06,77,16,119,,88,44,030,*6E
$GPGGA,134010.0,3228.100055,N,03458.161108,E,1,08,1.0,62.0,M,20.0,M,,*6B
$GNGNS,134010.0,3228.100055,N,03458.161108,E,AN,08,1.0,62.0,20.0,,*50
$GPVTG,172.0,T,169.0,M,0.0,N,0.0,K,A*29
$GPRMC,134010.0,A,3228.100055,N,03458.161108,E,0.0,172.0,240416,3.0,E,A*0F
$GPGSA,A,2,02,06,12,13,15,17,19,24,,,,,1.3,1.0,0.8*31
$GNGSA,A,2,02,06,12,13,15,17,19,24,,,,,1.3,1.0,0.8*2F
$GNGSA,A,2,,,,,,,,,,,,,1.3,1.0,0.8*26
$GPGSV,3,1,12,02,40,142,21,06,38,081,16,12,46,316,17,13,06,178,17*76
$GPGSV,3,2,12,15,21,212,22,17,12,042,16,19,38,040,17,24,79,296,25*7A
$GPGSV,3,3,12,29,07,226,13,14,03,323,,25,17,289,,32,03,320,*77
$GLGSV,2,1,06,82,22,206,27,77,16,119,14,79,47,344,15,81,74,195,21*6E
$GLGSV,2,2,06,78,60,071,,88,44,030,*6F
$GPGGA,134011.0,3228.098525,N,03458.164363,E,1,08,1.0,61.9,M,20.0,M,,*68
$GNGNS,134011.0,3228.098525,N,03458.164363,E,AN,08,1.0,61.9,20.0,,*53
$GPVTG,172.0,T,169.0,M,0.0,N,0.0,K,A*29
$GPRMC,134011.0,A,3228.098525,N,03458.164363,E,0.0,172.0,240416,3.0,E,A*06
$GPGSA,A,2,02,06,12,13,15,17,19,24,,,,,1.3,1.0,0.8*31
$GNGSA,A,2,02,06,12,13,15,17,19,24,,,,,1.3,1.0,0.8*2F
$GNGSA,A,2,,,,,,,,,,,,,1.3,1.0,0.8*26
$GPGSV,3,1,12,02,40,142,27,06,38,081,17,12,46,316,18,13,06,178,18*71
$GPGSV,3,2,12,15,21,212,25,17,12,042,16,19,38,040,17,24,79,296,23*7B
$GPGSV,3,3,12,29,07,226,13,14,03,323,,25,17,289,,32,03,320,*77
$GLGSV,2,1,06,82,22,206,28,77,16,119,16,79,47,344,15,81,74,195,24*66
$GLGSV,2,2,06,78,60,071,,88,44,030,*6F
$GPGGA,134012.0,3228.101081,N,03458.161491,E,1,08,1.0,62.6,M,20.0,M,,*62
$GNGNS,134012.0,3228.101081,N,03458.161491,E,AN,08,1.0,62.6,20.0,,*59
$GPVTG,172.0,T,169.0,M,0.0,N,0.0,K,A*29
$GPRMC,134012.0,A,3228.101081,N,03458.161491,E,0.0,172.0,240416,3.0,E,A*00
$GPGSA,A,2,02,06,12,13,15,17,19,24,,,,,1.3,1.0,0.8*31
$GNGSA,A,2,02,06,12,13,15,17,19,24,,,,,1.3,1.0,0.8*2F
$GNGSA,A,2,,,,,,,,,,,,,1.3,1.0,0.8*26
$GPGSV,3,1,12,02,40,142,28,06,38,081,17,12,46,316,18,13,06,178,22*77
$GPGSV,3,2,12,15,21,212,28,17,12,042,16,19,38,040,17,24,79,296,25*70
$GPGSV,3,3,12,25,17,289,16,29,07,226,13,14,03,323,,32,03,320,*70
$GLGSV,2,1,06,82,22,206,28,77,16,119,16,7