$GPGSV,3,1,12,02,12,286,,03,14,150,,05,05,319,,06,18,240,*75
$GPGSV,3,2,12,07,72,306,,08,01,105,,09,60,042,,16,13,039,*77
$GPGSV,3,3,12,23,38,081,,27,00,075,,28,10,188,,30,49,251,*7C
$GLGSV,2,1,06,67,71,004,23,78,40,224,,66,42,126,,77,73,352,*6E
$GLGSV,2,2,06,79,,,,68,19,327,*5D
$GPGGA,,,,,,0,,,,,,,,*66
$GNGNS,,,,,,NN,,,,,,*53
$GPVTG,,T,,M,,N,,K,N*2C
$GPRMC,,V,,,,,,,,,,N*53
$GPGSA,A,1,,,,,,,,,,,,,,,*1E
$GNGSA,A,1,,,,,,,,,,,,,,,*00
$GPGSV,3,1,12,02,12,286,,03,14,150,,05,05,319,,06,18,240,*75
$GPGSV,3,2,12,07,72,306,,08,01,105,,09,60,042,,16,13,039,*77
$GPGSV,3,3,12,23,38,081,,27,00,075,,28,10,188,,30,49,251,*7C
$GLGSV,2,1,06,67,71,004,21,78,40,224,,66,42,126,,77,73,352,*6C
$GLGSV,2,2,06,79,,,,68,19,327,*5D
$GPGGA,,,,,,0,,,,,,,,*66
$GNGNS,,,,,,NN,,,,,,*53
$GPVTG,,T,,M,,N,,K,N*2C
$GPRMC,,V,,,,,,,,,,N*53
$GPGSA,A,1,,,,,,,,,,,,,,,*1E
$GNGSA,A,1,,,,,,,,,,,,,,,*00
$GPGSV,3,1,12,02,12,286,,03,14,150,,05,05,319,,06,18,240,*75
$GPGSV,3,2,12,07,72,306,,08,01,105,,09,60,042,,16,13,039,*77
$GPGSV,3,3,12,23,38,081,,27,00,075,,28,10,188,,30,49,251,*7C
$GLGSV,2,1,06,67,71,004,22,78,40,224,,66,42,126,,77,73,352,*6F
$GLGSV,2,2,06,79,,,,68,19,327,*5D
$GPGGA,,,,,,0,,,,,,,,*66
$GNGNS,,,,,,NN,,,,,,*53
$GPVTG,,T,,M,,N,,K,N*2C
$GPRMC,,V,,,,,,,,,,N*53
$GPGSA,A,1,,,,,,,,,,,,,,,*1E
$GNGSA,A,1,,,,,,,,,,,,,,,*00
$GPGSV,3,1,12,02,12,286,,03,14,150,,05,05,319,,06,18,240,*75
$GPGSV,3,2,12,07,72,306,,08,01,105,,09,60,042,,16,13,039,*77
$GPGSV,3,3,12,23,38,081,,27,00,075,,28,10,188,,30,49,251,*7C
$GLGSV,2,1,06,67,71,004,22,78,40,224,,66,42,126,,77,73,352,*6F
$GLGSV,2,2,06,79,,,,68,19,327,*5D
$GPGGA,,,,,,0,,,,,,,,*66
$GNGNS,,,,,,NN,,,,,,*53
$GPVTG,,T,,M,,N,,K,N*2C
$GPRMC,,V,,,,,,,,,,N*53
$GPGSA,A,1,,,,,,,,,,,,,,,*1E
$GNGSA,A,1,,,,,,,,,,,,,,,*00
$GPGSV,3,1,12,07,72,306,24,23,38,081,20,30,49,251,24,02,12,286,*7B
$GPGSV,3,2,12,03,14,150,,05,05,319,,06,18,240,,08,01,105,*76
$GPGSV,3,3,12,09,60,042,,16,13,039,,27,00,075,,28,10,188,*71
$GLGSV,2,1,06,67,71,004,20,78,40,224,,66,42,126,,77,73,352,*6D
$GLGSV,2,2,06,79,,,,68,19,327,*5D
$GPGGA,,,,,,0,,,,,,,,*66
$GNGNS,,,,,,NN,,,,,,*53
$GPVTG,,T,,M,,N,,K,N*2C
$GPRMC,,V,,,,,,,,,,N*53
$GPGSA,A,1,,,,,,,,,,,,,,,*1E
$GNGSA,A,1,,,,,,,,,,,,,,,*00
$GPGSV,3,1,12,07,72,306,24,23,38,081,20,30,49,251,24,02,12,286,*7B
$GPGSV,3,2,12,03,14,150,,05,05,319,,06,18,240,,08,01,105,*76
$GPGSV,3,3,12,09,60,042,,16,13,039,,27,00,075,,28,10,188,*71
$GLGSV,2,1,06,67,71,004,20,78,40,224,,66,42,126,,77,73,352,*6D
$GLGSV,2,2,06,79,,,,68,19,327,*5D
$GPGGA,,,,,,0,,,,,,,,*66
$GNGNS,,,,,,NN,,,,,,*53
$GPVTG,,T,,M,,N,,K,N*2C
$GPRMC,,V,,,,,,,,,,N*53
$GPGSA,A,1,,,,,,,,,,,,,,,*1E
$GNGSA,A,1,,,,,,,,,,,,,,,*00
$GPGSV,3,1,12,02,12,286,21,06,18,240,20,07,72,306,27,23,38,081,19*74
$GPGSV,3,2,12,30,49,251,21,03,14,150,,05,05,319,,08,01,105,*74
$GPGSV,3,3,12,09,60,042,,16,13,039,,27,00,075,,28,10,188,*71
$GLGSV,2,1,05,67,71,004,22,68,19,327,24,78,40,224,,66,42,126,*6A
$GLGSV,2,2,05,77,73,352,*50
$GPGGA,,,,,,0,,,,,,,,*66
$GNGNS,,,,,,NN,,,,,,*53
$GPVTG,,T,,M,,N,,K,N*2C
$GPRMC,,V,,,,,,,,,,N*53
$GPGSA,A,1,,,,,,,,,,,,,,,*1E
$GNGSA,A,1,,,,,,,,,,,,,,,*00
$GPGSV,3,1,12,02,12,286,20,06,18,240,20,07,72,306,28,23,38,081,18*7B
$GPGSV,3,2,12,30,49,251,26,03,14,150,,05,05,319,,08,01,105,*73
$GPGSV,3,3,12,09,60,042,,16,13,039,,27,00,075,,28,10,188,*71
$GLGSV,2,1,05,78,40,224,20,77,73,352,20,67,71,004,23,68,19,327,27*6B
$GLGSV,2,2,05,66,42,126,*53
$GPGGA,,,,,,0,,,,,,,,*66
$GNGNS,,,,,,NN,,,,,,*53
$GPVTG,,T,,M,,N,,K,N*2C
$GPRMC,,V,,,,,,,,,,N*53
$GPGSA,A,1,,,,,,,,,,,,,,,*1E
$GNGSA,A,1,,,,,,,,,,,,,,,*00
$GPGSV,3,1,12,02,12,286,19,06,18,240,20,07,72,306,28,09,60,042,22*72
$GPGSV,3,2,12,23,38,081,18,30,49,251,21,03,14,150,,05,05,319,*73
$GPGSV,3,3,12,08,01,105,,16,13,039,,27,00,075,,28,10,188,*75
$GLGSV,2,1,05,78,40,224,17,77,73,352,19,67,71,004,24,68,19,327,26*63
$GLGSV,2,2,05,66,42,126,*53
$GPGGA,,,,,,0,,,,,,,,*66
$GNGNS,,,,,,NN,,,,,,*53
$GPVTG,,T,,M,,N,,K,N*2C
$GPRMC,,V,,,,,,,,,,N*53
$GPGSA,A,1,,,,,,,,,,,,,,,*1E
$GNGSA,A,1,,,,,,,,,,,,,,,*00
$GPGSV,3,1,12,02,12,286,19,06,18,240,17,07,72,306,27,09,60,042,23*78
$GPGSV,3,2,12,23,38,081,20,30,49,251,26,03,14,150,,05,05,319,*7F
$GPGSV,3,3,12,08,01,105,,16,13,039,,27,00,075,,28,10,188,*75
$GLGSV,2,1,05,78,40,224,16,66,42,126,17,77,73,352,18,67,71,004,23*65
$GLGSV,2,2,05,68,19,327,25*57
$GPGGA,,,,,,0,,,,,,,,*66
$GNGNS,,,,,,NN,,,,,,*53
$GPVTG,,T,,M,,N,,K,N*2C
$GPRMC,,V,,,,,,,,,,N*53
$GPGSA,A,1,,,,,,,,,,,,,,,*1E
$GNGSA,A,1,,,,,,,,,,,,,,,*00
$GPGSV,3,1,12,02,12,286,21,06,18,240,18,07,72,306,28,09,60,042,23*73
$GPGSV,3,2,12,23,38,081,22,30,49,251,29,03,14,150,,05,05,319,*72
$GPGSV,3,3,12,08,01,105,,16,13,039,,27,00,075,,28,10,188,*75
$GLGSV,2,1,05,78,40,224,16,66,42,126,18,77,73,352,18,67,71,004,23*6A
$GLGSV,2,2,05,68,19,327,24*56
$GPGGA,062810.0,3228.384461,N,03457.979915,E,1,06,1.0,68.9,M,20.0,M,,*6B
$GNGNS,062810.0,3228.384461,N,03457.979915,E,AA,11,1.0,68.9,20.0,,*59
$GPVTG,310.8,T,307.7,M,0.0,N,0.0,K,A*2A
$GPRMC,062810.0,A,3228.384461,N,03457.979915,E,0.0,310.8,260416,3.0,E,A*0E
$GPGSA,A,2,02,06,07,09,23,30,,,,,,,1.3,1.0,0.8*30
$GNGSA,A,2,02,06,07,09,23,30,,,,,,,1.3,1.0,0.8*2E
$GNGSA,A,2,66,67,68,77,78,,,,,,,,1.3,1.0,0.8*26
$GPGSV,3,1,12,02,12,286,22,06,18,240,23,07,72,306,26,09,60,042,19*7F
$GPGSV,3,2,12,16,13,039,15,23,38,081,29,30,49,251,27,03,14,150,*77
$GPGSV,3,3,12,05,05,319,,08,01,105,,27,00,075,,28,10,188,*71
$GLGSV,2,1,05,78,40,224,16,66,42,126,19,77,73,352,18,67,71,004,26*6E
$GLGSV,2,2,05,68,19,327,21*53
$GPGGA,062811.0,3228.385700,N,03457.980060,E,1,07,0.9,59.7,M,20.0,M,,*67
$GNGNS,062811.0,3228.385700,N,03457.980060,E,AA,12,0.9,59.7,20.0,,*57
$GPVTG,310.8,T,307.7,M,0.0,N,0.0,K,A*2A
$GPRMC,062811.0,A,3228.385700,N,03457.980060,E,0.0,310.8,260416,3.0,E,A*07
$GPGSA,A,2,02,06,07,09,16,23,30,,,,,,1.2,0.9,0.8*3E
$GNGSA,A,2,02,06,07,09,16,23,30,,,,,,1.2,0.9,0.8*20
$GNGSA,A,2,66,67,68,77,78,,,,,,,,1.2,0.9,0.8*2F
$GPGSV,3,1,12,02,12,286,27,06,18,240,23,07,72,306,27,09,60,042,19*7B
$GPGSV,3,2,12,16,13,039,15,23,38,081,31,30,49,251,28,03,14,150,*71
$GPGSV,3,3,12,05,05,319,,08,01,105,,27,00,075,,28,10,188,*71
$GLGSV,2,1,05,78,40,224,17,66,42,126,27,77,73,352,18,67,71,004,27*63
$GLGSV,2,2,05,68,19,327,29*5B
$GPGGA,062812.0,3228.388783,N,03457.976191,E,1,07,0.9,59.5,M,20.0,M,,*66
$GNGNS,062812.0,3228.388783,N,03457.976191,E,AA,12,0.9,59.5,20.0,,*56
$GPVTG,313.2,T,310.2,M,27.3,N,50.6,K,A*25
$GPRMC,062812.0,A,3228.388783,N,03457.976191,E,27.3,313.2,260416,3.0,E,A*3B
$GPGSA,A,2,02,06,07,09,16,23,30,,,,,,1.2,0.9,0.8*3E
$GNGSA,A,2,02,06,07,09,16,23,30,,,,,,1.2,0.9,0.8*20
$GNGSA,A,2,66,67,68,77,78,,,,,,,,1.2,0.9,0.8*2F
$GPGSV,3,1,12,02,12,286,28,06,18,240,25,07,72,306,24,09,60,042,18*70
$GPGSV,3,2,12,16,13,039,14,23,38,081,31,30,49,251,29,03,14,150,*71
$GPGSV,3,3,12,05,05,319,,08,01,105,,27,00,075,,28,10,188,*71
$GLGSV,2,1,05,78,40,224,18,66,42,126,28,77,73,352,18,67,71,004,28*6C
$GLGSV,2,2,05,68,19,327,25*57
$GPGGA,062813.0,3228.395354,N,03457.966896,E,1,07,0.9,49.1,M,20.0,M,,*6F
$GNGNS,062813.0,3228.395354,N,03457.966896,E,AA,12,0.9,49.1,20.0,,*5F
$GPVTG,312.3,T,309.3,M,28.2,N,52.3,K,A*25
$GPRMC,062813.0,A,3228.395354,N,03457.966896,E,28.2,312.3,260416,3.0,E,A*39
$GPGSA,A,2,02,06,07,09,16,23,30,,,,,,1.2,0.9,0.8*3E
$GNGSA,A,2,02,06,07,09,16,23,30,,,,,,1.2,0.9,0.8*20
$GNGSA,A,2,66,67,68,77,78,,,,,,,,1.2,0.9,0.8*2F
$GPGSV,3,1,12,02,12,286,23,06,18,240,23,07,72,306,20,09,60,042,20*72
$GPGSV,3,2,12,16,13,039,16,23,38,081,26,30,49,251,23,03,14,150,*7F
$GPGSV,3,3,12,05,05,319,,08,01,105,,27,00,075,,28,10,188,*71
$GLGSV,2,1,05,78,40,224,18,66,42,126,25,77,73,352,18,67,71,004,24*6D
$GLGSV,2,2,05,68,19,327,21*53
$GPGGA,062814.0,3228.401846,N,03457.959359,E,1,07,0.9,48.5,M,20.0,M,,*6B
$GNGNS,062814.0,3228.401846,N,03457.959359,E,AA,12,0.9,48.5,20.0,,*5B
$GPVTG,310.5,T,307.5,M,29.9,N,55.4,K,A*23
$GPRMC,062814.0,A,3228.401846,N,03457.959359,E,29.9,310.5,260416,3.0,E,A*36
$GPGSA,A,2,02,06,07,09,16,23,30,,,,,,1.2,0.9,0.8*3E
$GNGSA,A,2,02,06,07,09,16,23,30,,,,,,1.2,0.9,0.8*20
$GNGSA,A,2,66,67,68,77,78,,,,,,,,1.2,0.9,0.8*2F
$GPGSV,3,1,12,02,12,286,23,06,18,240,23,07,72,306,19,09,60,042,17*7C
$GPGSV,3,2,12,16,13,039,15,23,38,081,27,30,49,251,22,03,14,150,*7C
$GPGSV,3,3,12,05,05,319,,08,01,105,,27,00,075,,28,10,188,*71
$GLGSV,2,1,05,78,40,224,18,66,42,126,25,77,73,352,18,67,71,004,24*6D
$GLGSV,2,2,05,68,19,327,18*59
$GPGGA,062815.0,3228.408935,N,03457.952015,E,1,07,0.9,50.4,M,20.0,M,,*6E
$GNGNS,062815.0,3228.408935,N,03457.952015,E,AA,12,0.9,50.4,20.0,,*5E
$GPVTG,313.5,T,310.4,M,29.8,N,55.1,K,A*23
$GPRMC,062815.0,A,3228.408935,N,03457.952015,E,29.8,313.5,260416,3.0,E,A*39
$GPGSA,A,2,02,06,07,09,16,23,30,,,,,,1.2,0.9,0.8*3E
$GNGSA,A,2,02,06,07,09,16,23,30,,,,,,1.2,0.9,0.8*20
$GNGSA,A,2,66,67,68,77,78,,,,,,,,1.2,0.9,0.8*2F
$GPGSV,3,1,12,02,12,286,24,06,18,240,23,07,72,306,21,09,60,042,18*7F
$GPGSV,3,2,12,16,13,039,15,23,38,081,26,28,10,188,12,30,49,251,23*77
$GPGSV,3,3,12,03,14,150,,05,05,319,,08,01,105,,27,00,075,*79
$GLGSV,2,1,05,78,40,224,18,66,42,126,25,77,73,352,19,67,71,004,24*6C
$GLGSV,2,2,05,68,19,327,22*50
$GPGGA,062816.0,3228.414823,N,03457.945042,E,1,08,0.8,50.4,M,20.0,M,,*6C
$GNGNS,062816.0,3228.414823,N,03457.945042,E,AA,13,0.8,50.4,20.0,,*52
$GPVTG,313.7,T,310.7,M,30.0,N,55.6,K,A*25
$GPRMC,062816.0,A,3228.414823,N,03457.945042,E,30.0,313.7,260416,3.0,E,A*37
$GPGSA,A,2,02,06,07,09,16,23,28,30,,,,,1.1,0.8,0.7*39
$GNGSA,A,2,02,06,07,09,16,23,28,30,,,,,1.1,0.8,0.7*27
$GNGSA,A,2,66,67,68,77,78,,,,,,,,1.1,0.8,0.7*22
$GPGSV,3,1,12,02,12,286,20,06,18,240,23,07,72,306,20,09,60,042,17*75
$GPGSV,3,2,12,16,13,039,15,23,38,081,23,28,10,188,13,30,49,251,22*72
$GPGSV,3,3,12,03,14,150,,05,05,319,,08,01,105,,27,00,075,*79
$GLGSV,2,1,05,78,40,224,18,66,42,126,26,77,73,352,19,67,71,004,24*6F
$GLGSV,2,2,05,68,19,327,19*58
$GPGGA,062817.0,3228.420433,N,03457.936874,E,1,08,0.8,53.9,M,20.0,M,,*60
$GNGNS,062817.0,3228.420433,N,03457.936874,E,AA,13,0.8,53.9,20.0,,*5E
$GPVTG,312.4,T,309.4,M,30.3,N,56.2,K,A*28
$GPRMC,062817.0,A,3228.420433,N,03457.936874,E,30.3,312.4,260416,3.0,E,A*34
$GPGSA,A,2,02,06,07,09,16,23,28,30,,,,,1.1,0.8,0.7*39
$GNGSA,A,2,02,06,07,09,16,23,28,30,,,,,1.1,0.8,0.7*27
$GNGSA,A,2,66,67,68,77,78,,,,,,,,1.1,0.8,0.7*22
$GPGSV,3,1,12,02,12,286,21,06,18,240,21,07,72,306,21,09,60,042,17*77
$GPGSV,3,2,12,16,13,039,14,23,38,081,26,28,10,188,14,30,49,251,22*71
$GPGSV,3,3,12,03,14,150,,05,05,319,,08,01,105,,27,00,075,*79
$GLGSV,2,1,05,78